id,slug,shortDescription,latitude,longitude,locationAccuracy,address,county,country,operator,name,classifications,icon,operational,permittedInstallationLicenseIssued,firstImportedAt,lastImportedAt
"1144","4385-genetica-el-bardal-sa","Granja de porcina y cerdas en Burgos","42.074303","-3.595475","Coordinates","5, Mecerreyes, 09346, Burgos, España","Burgos","Castilla y León","Genética El Bardal, S.a.","Genética El Bardal, S.a.","GranjaPorcinaIntensivaDeCerdas","https://granjastransparentes.es/images/animals/pig.png","1","","2024-03-01T00:00:00.000000Z","2024-03-01T00:00:00.000000Z"
"2342","3771-agotzaina-tordomar","Granja de avícola en Burgos","42.054286","-3.869456","Coordinates","Valleval S/n, Tordomar, 09341, Tordómar, Burgos, España","Burgos","Castilla y León","Agotzaina, S.l.","Agotzaina - Tordomar","GranjaAvícolaIntensiva","https://granjastransparentes.es/images/animals/poultry.png","1","","2024-03-01T00:00:00.000000Z","2024-03-01T00:00:00.000000Z"
"1738","5562-avicola-la-colina-sl","Granja de avícola en Guadalajara","40.334","-3.1167","Coordinates","Ctra Perales - Albares, Km. 67,50. Mondejar 19.110 (guadalajara), Mondejar, 19110, Mondéjar, Guadalajara, España","Guadalajara","Castilla-La Mancha","Avicola La Colina, S.l.","Avicola La Colina, S.l.","GranjaAvícolaIntensiva","https://granjastransparentes.es/images/animals/poultry.png","1","","2024-03-01T00:00:00.000000Z","2024-03-01T00:00:00.000000Z"
"2341","2690-agotzaina-iscar","Granja de avícola en Valladolid","41.15377","-4.91278","Coordinates","Villaverde, Iscar, 47420, íscar, Valladolid, España","Valladolid","Castilla y León","Agotzaina, S.l.","Agotzaina – íscar","GranjaAvícolaIntensiva","https://granjastransparentes.es/images/animals/poultry.png","1","","2024-03-01T00:00:00.000000Z","2024-03-01T00:00:00.000000Z"
"1333","1783-granja-dos-hermanas-etxarren","Granja de porcina y cerdas en Navarra","42.92788","-1.84673","Coordinates","Carretera  Madoz, Etxarren, 31868, Arakil, Navarra, España","Navarra","Navarra","Granja  Dos  Hermanas, S.a.","Granja Dos Hermanas-etxarren","GranjaPorcinaIntensivaDeCerdas","https://granjastransparentes.es/images/animals/pig.png","1","","2024-03-01T00:00:00.000000Z","2024-03-01T00:00:00.000000Z"
"2379","11183-granja-rodriguez-serrano-sl","Granja de avícola en Salamanca","40.8244","-5.4812","Coordinates","60-66-67-71-72-140, Del Polígono 504,, 37800, Alba De Tormes, Salamanca, España","Salamanca","Castilla y León","Granja Rodríguez Serrano, S.l.","Granja Rodríguez Serrano, S.l.","GranjaAvícolaIntensiva","https://granjastransparentes.es/images/animals/poultry.png","1","","2024-03-01T00:00:00.000000Z","2024-03-01T00:00:00.000000Z"
"1779","6361-cortijo-santa-catalina","Granja de porcina y cerdas en Granada","37.130938","-3.762632","Coordinates","Santa Catalina, 18329, Chimeneas, Granada, España","Granada","Andalucía","Salvater 94, S.l.","Cortijo Santa Catalina","GranjaPorcinaIntensivaDeCerdas","https://granjastransparentes.es/images/animals/pig.png","1","","2024-03-01T00:00:00.000000Z","2024-03-01T00:00:00.000000Z"
"1392","2653-huevos-alto-turia","Granja de avícola en Valencia","39.775561","-1.051361","Coordinates","Partida La Navaza, 46177, Tuéjar, Valencia/valència, España","Valencia","Comunidad Valenciana","Huevos Alto Turia, S.a.","Huevos Alto Turia","GranjaAvícolaIntensiva","https://granjastransparentes.es/images/animals/poultry.png","1","","2024-03-01T00:00:00.000000Z","2024-03-01T00:00:00.000000Z"
"2657","5570-agricola-ganadera-hermanos-lopez-sl-aai-to-130","Granja de porcina en Toledo","39.834","-5.0518","Coordinates","Pol 14; Parc 107 Paraje Chozuelas. Calera Y Chozas  45.595 (toledo), Calera Y Chozas, 45600, Toledo, España","Toledo","Castilla-La Mancha","Agrícola Ganadera Hermanos López S.l.","Agrícola Ganadera Hermanos López S.l. (aai-to-130)","GranjaPorcinaIntensiva","https://granjastransparentes.es/images/animals/pig.png","1","","2024-03-01T00:00:00.000000Z","2024-03-01T00:00:00.000000Z"
"1301","10532-finca-millan","Granja de porcina y cerdas en Granada","37.844","-2.303","Coordinates","Millán,, Puebla De Don Fadrique, 18820, Granada, España","Granada","Andalucía","Cefu, S.a.","Finca Millán","GranjaPorcinaIntensivaDeCerdas","https://granjastransparentes.es/images/animals/pig.png","1","","2024-03-01T00:00:00.000000Z","2024-03-01T00:00:00.000000Z"
"2445","11389-navales-sl","Granja de porcina en Valladolid","41.5342","-4.28627","Coordinates","4, Parcela 97, Cogeces Del Monte, 47313, Valladolid, España","Valladolid","Castilla y León","Navales, S.l.","Navales, S.l.","GranjaPorcinaIntensiva","https://granjastransparentes.es/images/animals/pig.png","1","","2024-03-01T00:00:00.000000Z","2024-03-01T00:00:00.000000Z"
"3063","7074-avramar-espana-acuicultura-sl","Granja de peces y crustáceos en Alicante","38.510052","-0.215725","Coordinates","Barberes, Villajoyosa / Vila Joiosa (la), 03570, Villajoyosa/vila Joiosa, La, Alicante/alacant, España","Alicante","Comunidad Valenciana","Avramar España Acuicultura, S.l.","Avramar España Acuicultura, S.l.","Acuicultura","https://granjastransparentes.es/images/animals/fish.png","1","","2024-03-01T00:00:00.000000Z","2024-03-01T00:00:00.000000Z"
"2769","2677-guiporsa-marines","Granja de porcina y cerdas en Valencia","39.677289","-0.559989","Coordinates","Carrera Acceso A La Base Militar, 46163, Marines, Valencia/valència, España","Valencia","Comunidad Valenciana","Guiporsa, S.l.","Guiporsa - Marines","GranjaPorcinaIntensivaDeCerdas","https://granjastransparentes.es/images/animals/pig.png","1","","2024-03-01T00:00:00.000000Z","2024-03-01T00:00:00.000000Z"
"1177","1022-granja-avicola-marchamalo","Granja de avícola en Guadalajara","40.6714","-3.2203","Coordinates","Carretera De Usanos, S/n. Marchamalo 19180 (guadalajara), Marchamalo, 19171, Guadalajara, España","Guadalajara","Castilla-La Mancha","Dagu, S.a.","Granja Avícola Marchamalo","GranjaAvícolaIntensiva","https://granjastransparentes.es/images/animals/poultry.png","1","","2024-03-01T00:00:00.000000Z","2024-03-01T00:00:00.000000Z"
"1661","8493-asturiana-de-avicultura-granja-san-cucao","Granja de avícola en Asturias","43.431232","-5.882959","Coordinates","Los Gafares, San Cucao, 33425, Llanera, Asturias, España","Asturias","","Desarrollos Avícolas De Asturias, S.l.","Asturiana De Avicultura. Granja San Cucao","GranjaAvícolaIntensiva","https://granjastransparentes.es/images/animals/poultry.png","1","","2024-03-01T00:00:00.000000Z","2024-03-01T00:00:00.000000Z"
"1590","420-granja-terragrisa","Granja de porcina en Barcelona","41.996311","2.237804","Coordinates","Granja Terragrisa, 08508, Masies De Voltregà, Les, Barcelona, España","Barcelona","Cataluña","Granges Terragrisa, S.l.u.","Granja Terragrisa","GranjaPorcinaIntensiva","https://granjastransparentes.es/images/animals/pig.png","1","","2024-03-01T00:00:00.000000Z","2024-03-01T00:00:00.000000Z"
"675","5484-granja-fontanales","Granja de avícola en Las Palmas","28.053329","-15.605757","Coordinates","Camino El Brezal, Fontanales, 35420, Moya, Palmas (las), España","Las Palmas","Canarias","Fulgencio González Montesdeoca","Granja Fontanales","GranjaAvícolaIntensiva","https://granjastransparentes.es/images/animals/poultry.png","1","","2024-03-01T00:00:00.000000Z","2024-03-01T00:00:00.000000Z"
"2810","10882-explotacion-avicola-valverdon","Granja de avícola en Salamanca","41.051009","-5.764455","Coordinates","501 Parcela 10116, Valverdon, 37115, Valverdón, Salamanca, España","Salamanca","Castilla y León","Lohmann Breeders Spain, S.l.","Explotación Avicola Valverdón","GranjaAvícolaIntensiva","https://granjastransparentes.es/images/animals/poultry.png","1","","2024-03-01T00:00:00.000000Z","2024-03-01T00:00:00.000000Z"
"2343","8235-agotzaina-naveros-de-pisuerga","Granja de avícola en Palencia","42.473414","-4.26575","Coordinates","612, Naveros De Pisuerga, 34400, Herrera De Pisuerga, Palencia, España","Palencia","Castilla y León","Agotzaina, S.l.","Agotzaina - Naveros De Pisuerga","GranjaAvícolaIntensiva","https://granjastransparentes.es/images/animals/poultry.png","1","","2024-03-01T00:00:00.000000Z","2024-03-01T00:00:00.000000Z"
"1185","7246-granjas-segura-sa","Granja de avícola en Guadalajara","40.2873","-2.9672","Coordinates","Paraje ""la Hermita"". Pol. 13, Parc. 258. Almoguera 19.115 (guadalajara), Almoguera, 19115, Guadalajara, España","Guadalajara","Castilla-La Mancha","Granjas Segura, S.a.","Granjas Segura S.a.","GranjaAvícolaIntensiva","https://granjastransparentes.es/images/animals/poultry.png","1","","2024-03-01T00:00:00.000000Z","2024-03-01T00:00:00.000000Z"
"1646","6763-granja-bascones-del-agua","Granja de porcina y cerdas en Burgos","42.031763","-3.676493","Coordinates","23, Bascones Del Agua, 09347, Quintanilla Del Agua Y Tordueles, Burgos, España","Burgos","Castilla y León","Esencia De Tierra De Montorio, S.l.","Granja Bascones Del Agua","GranjaPorcinaIntensivaDeCerdas","https://granjastransparentes.es/images/animals/pig.png","1","","2024-03-01T00:00:00.000000Z","2024-03-01T00:00:00.000000Z"
"2500","10358-deporcyl-granja-de-guardo","Granja de porcina en Palencia","42.76989","-4.828132","Coordinates","1 Parcela 100, Guardo, 34880, Palencia, España","Palencia","Castilla y León","Desarrollos Porcinos De Castilla Y León, S.l.","Deporcyl - Granja De Guardo","GranjaPorcinaIntensiva","https://granjastransparentes.es/images/animals/pig.png","1","","2024-03-01T00:00:00.000000Z","2024-03-01T00:00:00.000000Z"
"3156","2052-avicolas-de-tejina-sl","Granja de avícola en Santa Cruz de Tenerife","28.520957","-16.364232","Coordinates","Alcalde Juan Hernández, Tejina, 38260, San Cristóbal De La Laguna, Santa Cruz De Tenerife, España","Santa Cruz de Tenerife","Canarias","Avícolas De Tejina, S.l.","Avícolas De Tejina, S.l.","GranjaAvícolaIntensiva","https://granjastransparentes.es/images/animals/poultry.png","1","","2024-03-01T00:00:00.000000Z","2024-03-01T00:00:00.000000Z"
"1269","62-porcisan-sa-los-propios","Granja de porcina y cerdas en Almería","37.3881","-1.8787","Coordinates","Los Propios, Saltador (el), 04600, Huércal-overa, Almería, España","Almería","Andalucía","Porcisan, S.a.","Porcisan Sa - Los Propios","GranjaPorcinaIntensivaDeCerdas","https://granjastransparentes.es/images/animals/pig.png","1","","2024-03-01T00:00:00.000000Z","2024-03-01T00:00:00.000000Z"
"1393","2673-avicola-llombay-catadau","Granja de avícola en Valencia","39.245641","-0.570713","Coordinates","Partida Lloma La Figuera. Poligono 4-parc. 90,94,165,166,170,172, 46196, Catadau, Valencia/valència, España","Valencia","Comunidad Valenciana","Avícola Llombay, S.a.","Avícola Llombay-catadau","GranjaAvícolaIntensiva","https://granjastransparentes.es/images/animals/poultry.png","1","","2024-03-01T00:00:00.000000Z","2024-03-01T00:00:00.000000Z"
"1575","11416-el-cierzo-ganadera-sl","Granja de porcina y cerdas en Teruel","40.95","-0.36","Coordinates","Poligono 4, Parcelas 103, 127, 128 Y 130, Alcorisa, 44550, Teruel, España","Teruel","Aragón","El Cierzo Ganadera","El Cierzo Ganadera, Sl","GranjaPorcinaIntensivaDeCerdas","https://granjastransparentes.es/images/animals/pig.png","1","","2024-03-01T00:00:00.000000Z","2024-03-01T00:00:00.000000Z"
"3241","6521-avicola-benigno-aspuru-sl","Granja de avícola en Vizcaya","43.277714","-2.776896","Coordinates","Astoreka, Larrabetzu, 48195, Vizcaya, España","Vizcaya","País Vasco","Avícola Benigno Aspuru S.l.","Avícola Benigno Aspuru S.l.","GranjaAvícolaIntensiva","https://granjastransparentes.es/images/animals/poultry.png","1","","2024-03-01T00:00:00.000000Z","2024-03-01T00:00:00.000000Z"
"3605","8120-explotacion-porcina-ponte-coiros","Granja de porcina y cerdas en La Coruña","43.25193","-8.16348","Coordinates","De Anta, Anta, 15316, Coirós, Coruña (a), España","La Coruña","","Cooperativa A Ponte Sdad Coop Galega","Explotación Porcina Ponte Coirós","GranjaPorcinaIntensivaDeCerdas","https://granjastransparentes.es/images/animals/pig.png","1","","2024-03-01T00:00:00.000000Z","2024-03-01T00:00:00.000000Z"
"1224","5667-granja-piensos-del-segre","Granja de porcina y cerdas en Lleida","41.716197","0.657429","Coordinates","Finca De Corregó, 25134, Portella, La, Lleida, España","Lleida","Catalunya","Piensos Del Segre, S.a.","Granja Piensos Del Segre","GranjaPorcinaIntensivaDeCerdas","https://granjastransparentes.es/images/animals/pig.png","1","","2024-03-01T00:00:00.000000Z","2024-03-01T00:00:00.000000Z"
"1278","5643-cefu-sa","Granja de porcina en Toledo","39.9654","-4.2605","Coordinates","Finca Quinto Del Encinar, S/n.  Santa Cruz De Retamar  45.513  (toledo), Santa Cruz Del Retamar, 45513, Toledo, España","Toledo","Castilla-La Mancha","Cefu, S.a.","Cefu, S.a.","GranjaPorcinaIntensiva","https://granjastransparentes.es/images/animals/pig.png","1","","2024-03-01T00:00:00.000000Z","2024-03-01T00:00:00.000000Z"
"2988","11041-viters-familia-sl-portillo-de-soria","Granja de porcina y cerdas en Soria","41.62398","-2.12249","Coordinates","1, Parcela 20151,, Portillo De Soria, 42136, Soria, España","Soria","Castilla y León","Viters Familia, S.l.","Viters Familia, S.l.- Portillo De Soria","GranjaPorcinaIntensivaDeCerdas","https://granjastransparentes.es/images/animals/pig.png","1","","2024-03-01T00:00:00.000000Z","2024-03-01T00:00:00.000000Z"
"1450","7887-nilasa-sa-el-soto-ii","Granja de porcina en Ávila","41.008489","-4.686792","Coordinates","8 ( Paraje ""la Navilla""), Espinosa De Los Caballeros, 05296, ávila, España","Ávila","Castilla y León","Nilasa","Nilasa, S.a (el Soto Ii)","GranjaPorcinaIntensiva","https://granjastransparentes.es/images/animals/pig.png","1","","2024-03-01T00:00:00.000000Z","2024-03-01T00:00:00.000000Z"
"1173","7201-granja-avicola-fuentelahiguera","Granja de avícola en Guadalajara","40.75054","-3.34196","Coordinates","Parcelas 26 Y 37 Polígono 11 Fuentelahiguera De Albatages (guadalajara), Fuentelahiguera De Albatages, 19080, Guadalajara, España","Guadalajara","Castilla-La Mancha","Dagu, S.a.","Granja Avícola Fuentelahiguera","GranjaAvícolaIntensiva","https://granjastransparentes.es/images/animals/poultry.png","1","","2024-03-01T00:00:00.000000Z","2024-03-01T00:00:00.000000Z"
"3256","10586-explotaciones-ganaderas-la-jedrea-sl","Granja de avícola en Valencia","39.489027","-1.099337","Coordinates","Pol. 41, Requena, 46340, Valencia/valència, España","Valencia","Comunidad Valenciana","Explotaciones Ganaderas La Jedrea, Sl","Explotaciones Ganaderas La Jedrea, Sl","GranjaAvícolaIntensiva","https://granjastransparentes.es/images/animals/poultry.png","1","","2024-03-01T00:00:00.000000Z","2024-03-01T00:00:00.000000Z"
"2479","8123-granja-porcina-el-abelar-i","Granja de porcina en La Coruña","43.21947","-8.298497","Coordinates","Lugar Finca El ""abelar I"" (vizoño), Borducedo Pequeño, 15318, Abegondo, Coruña (a), España","La Coruña","","Pigarcre, Sl","Granja Porcina El Abelar I","GranjaPorcinaIntensiva","https://granjastransparentes.es/images/animals/pig.png","1","","2024-03-01T00:00:00.000000Z","2024-03-01T00:00:00.000000Z"
"1798","10858-avicola-del-molino-s-l","Granja de avícola en Guadalajara","40.7736","-2.8321","Coordinates","Paraje Chaparal Del Pozo. Km 3,9 Crrtra. Comarcal Cm_2005, Villaviciosa De Tajuña, 19400, Brihuega, Guadalajara, España","Guadalajara","Castilla-La Mancha","Avicola Del Molino S.l.","Avicola Del Molino, S. L.","GranjaAvícolaIntensiva","https://granjastransparentes.es/images/animals/poultry.png","1","","2024-03-01T00:00:00.000000Z","2024-03-01T00:00:00.000000Z"
"1277","6332-explotacion-porcina-finca-dehesa-del-rey","Granja de porcina y cerdas en Granada","37.717289","-2.649985","Coordinates","Dehesa Del Rey, 18818, Castilléjar, Granada, España","Granada","Andalucía","Cefu, S.a.","Explotación Porcina Finca Dehesa Del Rey","GranjaPorcinaIntensivaDeCerdas","https://granjastransparentes.es/images/animals/pig.png","1","","2024-03-01T00:00:00.000000Z","2024-03-01T00:00:00.000000Z"
"3160","7203-avicola-barco-sl","Granja de avícola en Guadalajara","40.5368","-3.1636","Coordinates","1  Parcela 397, Fontanar, 19290, Guadalajara, España","Guadalajara","Castilla-La Mancha","Avicola Barco S.l.","Avícola Barco S.l.","GranjaAvícolaIntensiva","https://granjastransparentes.es/images/animals/poultry.png","1","","2024-03-01T00:00:00.000000Z","2024-03-01T00:00:00.000000Z"
"1280","1718-granja-casa-sabas","Granja de porcina en Albacete","38.3574","-1.5517","Coordinates","Paraje Sasa Sabas, S/n. Hellín  02.001 (albacete), Hellin, 02400, Hellín, Albacete, España","Albacete","Castilla-La Mancha","Cefu, S.a.","Granja Casa Sabas","GranjaPorcinaIntensiva","https://granjastransparentes.es/images/animals/pig.png","1","","2024-03-01T00:00:00.000000Z","2024-03-01T00:00:00.000000Z"
"104","8683-mariano-vazquez-de-prada-najera","Granja de porcina y cerdas en Valladolid","41.780278","-4.309444","Coordinates","Monte Mata, Villanueva De Los Caballeros, 47850, Valladolid, España","Valladolid","Castilla y León","Mariano Vázquez De Prada Nájera","Mariano Vázquez De Prada Nájera","GranjaPorcinaIntensivaDeCerdas","https://granjastransparentes.es/images/animals/pig.png","1","","2024-03-01T00:00:00.000000Z","2024-03-01T00:00:00.000000Z"
"1279","5988-cefu-sa-finca-pino-grande","Granja de porcina en Granada","37.300608","-3.133338","Coordinates","Pino Grande, 18500, Guadix, Granada, España","Granada","Andalucía","Cefu, S.a.","Cefu S.a. - Finca Pino Grande","GranjaPorcinaIntensiva","https://granjastransparentes.es/images/animals/pig.png","1","","2024-03-01T00:00:00.000000Z","2024-03-01T00:00:00.000000Z"
"2451","9025-castellana-de-porcino-san-nicolas","Granja de porcina y cerdas en Salamanca","41.012953","-5.424617","Coordinates","505, Villoruela, 37338, Salamanca, España","Salamanca","Castilla y León","Castellana De Porcino, S.l.","Castellana De Porcino - San Nicolás","GranjaPorcinaIntensivaDeCerdas","https://granjastransparentes.es/images/animals/pig.png","1","","2024-03-01T00:00:00.000000Z","2024-03-01T00:00:00.000000Z"
"2805","7684-marcopolo-comercio-granja-olmedo","Granja de avícola en Valladolid","41.300244","-4.658117","Coordinates","6, Olmedo, 47410, Valladolid, España","Valladolid","Castilla y León","Marcopolo Comercio, S. L.","Marcopolo Comercio - Granja Olmedo","GranjaAvícolaIntensiva","https://granjastransparentes.es/images/animals/poultry.png","1","","2024-03-01T00:00:00.000000Z","2024-03-01T00:00:00.000000Z"
"3061","11306-avramar-espana-acuicultura-sl","Granja de peces y crustáceos en Alicante","38.43101","-0.38762","Coordinates","De Calpe, Calpe, 03710, Calp, Alicante/alacant, España","Alicante","Comunidad Valenciana","Avramar España Acuicultura, S.l.","Avramar España Acuicultura, S.l.","Acuicultura","https://granjastransparentes.es/images/animals/fish.png","1","","2024-03-01T00:00:00.000000Z","2024-03-01T00:00:00.000000Z"
"1329","1770-granja-villanueva-sa-cuatro-caminos","Granja de porcina y cerdas en Navarra","42.600545","-1.787252","Coordinates","Mendigorría, Artajona, 31140, Navarra, España","Navarra","Navarra","Granja Villanueva, S.a.","Granja Villanueva, S.a.-cuatro Caminos","GranjaPorcinaIntensivaDeCerdas","https://granjastransparentes.es/images/animals/pig.png","1","","2024-03-01T00:00:00.000000Z","2024-03-01T00:00:00.000000Z"
"2806","7701-granja-alava-sl","Granja de avícola en Valladolid","41.510833","-4.905331","Coordinates","3, San Miguel Del Pino, 47132, Valladolid, España","Valladolid","Castilla y León","Granja álava, S.l.","Granja álava, S.l.","GranjaAvícolaIntensiva","https://granjastransparentes.es/images/animals/poultry.png","1","","2024-03-01T00:00:00.000000Z","2024-03-01T00:00:00.000000Z"
"1691","733-granja-villaseca-sl","Granja de avícola en Córdoba","37.782927","-5.009822","Coordinates","Villaseca, 14720, Almodóvar Del Río, Córdoba, España","Córdoba","Andalucía","Granja Villaseca, S.l","Granja Villaseca, S.l","GranjaAvícolaIntensiva","https://granjastransparentes.es/images/animals/poultry.png","1","","2024-03-01T00:00:00.000000Z","2024-03-01T00:00:00.000000Z"
"2398","3796-inversiones-jofer-sl-finca-turra","Granja de porcina y cerdas en Salamanca","40.862439","-5.754015","Coordinates","Vecinos,, Turra, 37183, Mozárbez, Salamanca, España","Salamanca","Castilla y León","Inversiones Jofer, S.l.","Inversiones Jofer, S.l.- Finca Turra","GranjaPorcinaIntensivaDeCerdas","https://granjastransparentes.es/images/animals/pig.png","1","","2024-03-01T00:00:00.000000Z","2024-03-01T00:00:00.000000Z"
"1570","8498-explotacion-porcina-el-berrocal","Granja de porcina y cerdas en Badajoz","38.851314","-6.357307","Coordinates","Finca El Berrocal. Parcela 21 Del Polígono 48, Merida, 06800, Mérida, Badajoz, España","Badajoz","Extremadura","Explotaciones Porcinas El Berrocal, S.l.","Explotación Porcina El Berrocal","GranjaPorcinaIntensivaDeCerdas","https://granjastransparentes.es/images/animals/pig.png","1","","2024-03-01T00:00:00.000000Z","2024-03-01T00:00:00.000000Z"
"2801","4560-marcopolo-comercio-melgar-de-fernamental","Granja de avícola en Burgos","42.436517","-4.29875","Coordinates","Nal-120, Finca Mojon Alto, Melgar De Fernamental, 09100, Burgos, España","Burgos","Castilla y León","Marcopolo Comercio, S. L.","Marcopolo Comercio - Melgar De Fernamental","GranjaAvícolaIntensiva","https://granjastransparentes.es/images/animals/poultry.png","1","","2024-03-01T00:00:00.000000Z","2024-03-01T00:00:00.000000Z"
"1502","6855-piagua","Granja de peces y crustáceos en Almería","36.81605","-2.535924","Coordinates","Puerto Pesquero, Almeria, 04002, Almería, España","Almería","Andalucía","Piagua, S.l.u.","Piagua","Acuicultura","https://granjastransparentes.es/images/animals/fish.png","1","","2024-03-01T00:00:00.000000Z","2024-03-01T00:00:00.000000Z"
"2134","5675-granja-serentill","Granja de porcina y cerdas en Lleida","41.494159","0.408107","Coordinates","Pda. Montfred I Pda. Terraplé, 25182, Aitona, Lleida, España","Lleida","Catalunya","Agrícola Ramadera Serentill, Sl","Granja Serentill","GranjaPorcinaIntensivaDeCerdas","https://granjastransparentes.es/images/animals/pig.png","1","","2024-03-01T00:00:00.000000Z","2024-03-01T00:00:00.000000Z"
"1174","5635-dagu-sa","Granja de avícola en Guadalajara","40.5787","-3.2245","Coordinates","Camino Campo De Tiro. Granja Los Rosales. Chiloeches  19.160 (guadalajara), Chiloeches, 19005, Guadalajara, España","Guadalajara","Castilla-La Mancha","Dagu, S.a.","Dagu, S.a.","GranjaAvícolaIntensiva","https://granjastransparentes.es/images/animals/poultry.png","1","","2024-03-01T00:00:00.000000Z","2024-03-01T00:00:00.000000Z"
"1414","11474-san-jorge","Granja de porcina y cerdas en Zaragoza","41.73238","-1.309218","Coordinates","Polígono 104, Parcela, Pedrola, 50690, Zaragoza, España","Zaragoza","Aragón","Cerdos Del Jalon, S.a.u.","San Jorge","GranjaPorcinaIntensivaDeCerdas","https://granjastransparentes.es/images/animals/pig.png","1","","2024-03-01T00:00:00.000000Z","2024-03-01T00:00:00.000000Z"
"3429","1212-granja-porcino-ortillo-granja-los-vidales","Granja de porcina en Murcia","37.72","-1.85","Coordinates","El Llano De Los Coroneles, Dip. Ortillo  30811  Lorca, Parroquia De La Fuensanta, 30811, Lorca, Murcia, España","Murcia","Región de Murcia","José, Domingo Y Miguel Angel Moreno Sánchez","Granja Porcino Ortillo (granja Los Vidales)","GranjaPorcinaIntensiva","https://granjastransparentes.es/images/animals/pig.png","1","","2024-03-01T00:00:00.000000Z","2024-03-01T00:00:00.000000Z"
"1302","2594-juan-jimenez-garcia-sa","Granja de porcina y cerdas en Valencia","39.339367","-1.279232","Coordinates","Finca ""el Saladar"" Polg. 112 Parc 54 Y 56, Polg.114 Parc 110, Polg 116 Parc 62, 46340, Requena, Valencia/valència, España","Valencia","Comunidad Valenciana","Juan Jimenez García, Sa","Juan Jimenez García, Sa","GranjaPorcinaIntensivaDeCerdas","https://granjastransparentes.es/images/animals/pig.png","1","","2024-03-01T00:00:00.000000Z","2024-03-01T00:00:00.000000Z"
"1172","7204-avicu-sa-molina-de-aragon","Granja de avícola en Guadalajara","40.8288","-1.8449","Coordinates","Ctra. N-211, Km. 63,600. Molina De Aragón 19.300 (guadalajara), Molina, 19005, Molina De Aragón, Guadalajara, España","Guadalajara","Castilla-La Mancha","Avicu, S.a.","Avicu S.a. - Molina De Aragón","GranjaAvícolaIntensiva","https://granjastransparentes.es/images/animals/poultry.png","1","","2024-03-01T00:00:00.000000Z","2024-03-01T00:00:00.000000Z"
"1391","7267-frajuelas-sa","Granja de porcina en Toledo","39.8164","-4.0286","Coordinates","Paraje El Tributillo, Yunclillos, 45600, Toledo, España","Toledo","Castilla-La Mancha","Frajuelas, S.a.","Frajuelas, S.a.","GranjaPorcinaIntensiva","https://granjastransparentes.es/images/animals/pig.png","1","","2024-03-01T00:00:00.000000Z","2024-03-01T00:00:00.000000Z"
"1458","7260-explotacion-porcina-monte-de-belen-exporinsa","Granja de porcina y cerdas en Cuenca","39.6677","-2.7726","Coordinates","Osa De La Vega A Hontanaya, Osa De La Vega, 16423, Cuenca, España","Cuenca","Castilla-La Mancha","Explotación Porcina Integral, S.a.","Explotación Porcina Monte De Belen (exporinsa)","GranjaPorcinaIntensivaDeCerdas","https://granjastransparentes.es/images/animals/pig.png","1","","2024-03-01T00:00:00.000000Z","2024-03-01T00:00:00.000000Z"
"1389","5634-explotaciones-avicola-jose-luis-redondo-sa","Granja de avícola en Guadalajara","40.8639","-3.1336","Coordinates","Cerezo De Mohernando (guadalajara), Cerezo De Mohernando, 19005, Humanes, Guadalajara, España","Guadalajara","Castilla-La Mancha","Explotaciones Avícola Jose Luis Redondo, S.a.","Explotaciones Avícola Jose Luis Redondo, S.a.","GranjaAvícolaIntensiva","https://granjastransparentes.es/images/animals/poultry.png","1","","2024-03-01T00:00:00.000000Z","2024-03-01T00:00:00.000000Z"
"1592","494-granja-la-miranda","Granja de porcina y cerdas en Barcelona","41.97533","2.112895","Coordinates","Camp Dels Corbs, 08518, Oristà, Barcelona, España","Barcelona","Cataluña","Granges Terragrisa, S.l.u.","Granja La Miranda","GranjaPorcinaIntensivaDeCerdas","https://granjastransparentes.es/images/animals/pig.png","1","","2024-03-01T00:00:00.000000Z","2024-03-01T00:00:00.000000Z"
"2531","2342-granja-los-alamos","Granja de avícola en Sevilla","37.288792","-5.384345","Coordinates","Los Pinos (pago Del Alcornocal). Finca Los Alamos (pago Del Alcornocal)., 41620, Marchena, Sevilla, España","Sevilla","Andalucía","álvarez Camacho, S.l.","Granja Los álamos","GranjaAvícolaIntensiva","https://granjastransparentes.es/images/animals/poultry.png","1","","2024-03-01T00:00:00.000000Z","2024-03-01T00:00:00.000000Z"
"3727","6533-larrabe-oilotegia","Granja de avícola en Vizcaya","43.293223","-2.79316","Coordinates","Elejalde, 48113, Gamiz-fika, Vizcaya, España","Vizcaya","País Vasco","Larrabe Oilotegia Sat Nº 130, S.a.t.","Larrabe Oilotegia","GranjaAvícolaIntensiva","https://granjastransparentes.es/images/animals/poultry.png","1","","2024-03-01T00:00:00.000000Z","2024-03-01T00:00:00.000000Z"
"1145","11367-reproductoras-01-alcolea-de-tajo","Granja de avícola en Toledo","39.817","-5.174","Coordinates","Pol 101/ Parcela 141, 178 Y 160/, 45571, Alcolea De Tajo, Toledo, España","Toledo","Castilla-La Mancha","Ibergallus S.a","Reproductoras 01. Alcolea De Tajo","GranjaAvícolaIntensiva","https://granjastransparentes.es/images/animals/poultry.png","1","","2024-03-01T00:00:00.000000Z","2024-03-01T00:00:00.000000Z"
"1180","5609-cantos-blancos-centro-canadas","Granja de avícola en Guadalajara","40.5984","-3.2316","Coordinates","Pol. Ind. Los Picones, Parc.1. Alovera  19.208 (guadalajara), Alovera, 19208, Guadalajara, España","Guadalajara","Castilla-La Mancha","Granjas Cantos Blancos S.a.","Cantos Blancos - Centro Cañadas","GranjaAvícolaIntensiva","https://granjastransparentes.es/images/animals/poultry.png","1","","2024-03-01T00:00:00.000000Z","2024-03-01T00:00:00.000000Z"
"2765","2605-explotaciones-agropecuarias-penta","Granja de porcina y cerdas en Valencia","39.623281","-0.488477","Coordinates","Carretera De Bétera A Olocau, 46117, Bétera, Valencia/valència, España","Valencia","Comunidad Valenciana","Explotación Agropecuaria Penta, S.l.","Explotaciones Agropecuarias Penta","GranjaPorcinaIntensivaDeCerdas","https://granjastransparentes.es/images/animals/pig.png","1","","2024-03-01T00:00:00.000000Z","2024-03-01T00:00:00.000000Z"
"3998","10384-granja-joar","Granja de porcina y cerdas en Navarra","42.615035","-2.215366","Coordinates","Santa Cecilia, Sorlada, 31219, Navarra, España","Navarra","Navarra","Sclana Marquinez Y San Martin Ijurco","Granja Joar","GranjaPorcinaIntensivaDeCerdas","https://granjastransparentes.es/images/animals/pig.png","1","","2024-03-01T00:00:00.000000Z","2024-03-01T00:00:00.000000Z"
"81","3393-finca-los-leales","Granja de porcina y cerdas en Badajoz","38.17151","-6.76805","Coordinates","Polígono 1, Parcelas 3, 7, 8, 10, 11. Ctra. De Higuera La Real A Encina Sola, Higuera La Real, 06350, Badajoz, España","Badajoz","Extremadura","Rosa Díaz Santos","Finca Los Leales","GranjaPorcinaIntensivaDeCerdas","https://granjastransparentes.es/images/animals/pig.png","1","","2024-03-01T00:00:00.000000Z","2024-03-01T00:00:00.000000Z"
"1788","7929-piscifactoria-encinas","Granja de peces y crustáceos en Salamanca","40.755047","-5.548381","Coordinates","Afueras, Encinas De Arriba, 37800, Salamanca, España","Salamanca","Castilla y León","Piszolla, S.l.","Piscifactoría  Encinas","Acuicultura","https://granjastransparentes.es/images/animals/fish.png","1","","2024-03-01T00:00:00.000000Z","2024-03-01T00:00:00.000000Z"
"2803","6243-granja-santa-cruz","Granja de avícola en Burgos","41.577467","-3.587822","Coordinates","La Culebra, Santa Cruz De La Salceda, 09400, Burgos, España","Burgos","Castilla y León","Marcopolo Comercio, S. L.","Granja Santa Cruz","GranjaAvícolaIntensiva","https://granjastransparentes.es/images/animals/poultry.png","1","","2024-03-01T00:00:00.000000Z","2024-03-01T00:00:00.000000Z"
"3556","1379-es222170000001-cerdos-sena","Granja de porcina en Huesca","41.693856","-0.079824","Coordinates","Pol. 34  Prc. 82-83-84-85, Sena, 22230, Huesca, España","Huesca","Aragón","Agropecuaria Guissona","Cerdos-sena","GranjaPorcinaIntensiva","https://granjastransparentes.es/images/animals/pig.png","1","","2024-03-01T00:00:00.000000Z","2024-03-01T00:00:00.000000Z"
"2432","2144-gerardo-de-lucas-sl-cabezon-de-pisuerga","Granja de avícola en Valladolid","41.756606","-4.625375","Coordinates","102, Cabezon.barrio Viejo, 47260, Cabezón De Pisuerga, Valladolid, España","Valladolid","Castilla y León","Gerardo De Lucas","Gerardo De Lucas S.l.-cabezon De Pisuerga","GranjaAvícolaIntensiva","https://granjastransparentes.es/images/animals/poultry.png","1","","2024-03-01T00:00:00.000000Z","2024-03-01T00:00:00.000000Z"
"2713","8566-avicola-naver-sl","Granja de avícola en Toledo","39.48","-3.61","Coordinates","Ctra. Turleque,  Km 2, 45700, Consuegra, Toledo, España","Toledo","Castilla-La Mancha","Avicola Naver S.l","Avícola Naver, S.l.","GranjaAvícolaIntensiva","https://granjastransparentes.es/images/animals/poultry.png","1","","2024-03-01T00:00:00.000000Z","2024-03-01T00:00:00.000000Z"
"2546","7879-finca-la-narra","Granja de porcina en Salamanca","41.067356","-5.865647","Coordinates","La Narra, Narra (la), 37170, San Pedro Del Valle, Salamanca, España","Salamanca","Castilla y León","Sierra Del Pimpollar, S.l","Finca La Narra","GranjaPorcinaIntensiva","https://granjastransparentes.es/images/animals/pig.png","1","","2024-03-01T00:00:00.000000Z","2024-03-01T00:00:00.000000Z"
"3202","10050-granja-belinchon-s-l","Granja de porcina en Cuenca","40.04","-3.02","Coordinates","Poligono 502, Parcela 51, 16400, Tarancón, Cuenca, España","Cuenca","Castilla-La Mancha","Granja Belinchon, S. L.","Granja Belinchon , S. L.","GranjaPorcinaIntensiva","https://granjastransparentes.es/images/animals/pig.png","1","","2024-03-01T00:00:00.000000Z","2024-03-01T00:00:00.000000Z"
"1542","81-granja-el-cruce","Granja de avícola en Badajoz","39.211208","-7.165318","Coordinates","Ctra. San Vicente S/n, Codosera (la), 06518, Codosera, La, Badajoz, España","Badajoz","Extremadura","Explotaciones Ganaderas Granja El Cruce, S.l.","Granja El Cruce","GranjaAvícolaIntensiva","https://granjastransparentes.es/images/animals/poultry.png","1","","2024-03-01T00:00:00.000000Z","2024-03-01T00:00:00.000000Z"
"3512","10505-can-tramuntet","Granja de porcina en Barcelona","41.675674","2.416869","Coordinates","Edifici Can Tramuntet Núm. S/n, 08458, Sant Antoni De Vilamajor, Barcelona, España","Barcelona","Catalunya","Grup Tramuntet Sat 4821","Can Tramuntet","GranjaPorcinaIntensiva","https://granjastransparentes.es/images/animals/pig.png","1","","2024-03-01T00:00:00.000000Z","2024-03-01T00:00:00.000000Z"
"1457","7259-explotacion-porcina-monte-el-bosco-exporinsa","Granja de porcina y cerdas en Cuenca","39.6258","-2.7954","Coordinates","Hinojosos A Osa De La Vega, Osa De La Vega, 16423, Cuenca, España","Cuenca","Castilla-La Mancha","Explotación Porcina Integral, S.a.","Explotación Porcina Monte El Bosco (exporinsa)","GranjaPorcinaIntensivaDeCerdas","https://granjastransparentes.es/images/animals/pig.png","1","","2024-03-01T00:00:00.000000Z","2024-03-01T00:00:00.000000Z"
"2739","10337-avicola-dorado-s-l","Granja de avícola en Toledo","39.5382","-3.6119","Coordinates","Polígono 14, Parcelas 4, 97, 117, 45700, Consuegra, Toledo, España","Toledo","Castilla-La Mancha","Avicola Dorado, S.l.","Avicola Dorado, S. L.","GranjaAvícolaIntensiva","https://granjastransparentes.es/images/animals/poultry.png","1","","2024-03-01T00:00:00.000000Z","2024-03-01T00:00:00.000000Z"
"3212","5186-granja-el-paraiso","Granja de avícola en Sevilla","37.418389","-5.685143","Coordinates","Dos Hermanas Carmona, K, 26,5. Apdo 32, 41410, Carmona, Sevilla, España","Sevilla","Andalucía","Francisco Zambrano, S.l.","Granja El Paraiso","GranjaAvícolaIntensiva","https://granjastransparentes.es/images/animals/poultry.png","1","","2024-03-01T00:00:00.000000Z","2024-03-01T00:00:00.000000Z"
"3654","2640-sat-gaviga-no-4530","Granja de porcina y cerdas en Valencia","39.466002","-0.461253","Coordinates","Camino Encrucijada (poligono El Coscollar), 46960, Aldaia, Valencia/valència, España","Valencia","Comunidad Valenciana","S.a.t. Gaviga Nº 4530","S.a.t. Gaviga Nº 4530","GranjaPorcinaIntensivaDeCerdas","https://granjastransparentes.es/images/animals/pig.png","1","","2024-03-01T00:00:00.000000Z","2024-03-01T00:00:00.000000Z"
"2982","7065-granja-marina-bahia-de-santa-pola-sa-gramabasa","Granja de peces y crustáceos en España","38.079086","-0.598021","Coordinates","Del Puerto (nave Hangar, Puerto Marina De Las Dunas ), 03140, Guardamar Del Segura, Alicante/alacant, España","","","Granja Marina Bahía De Santa Pola,s.a.","Granja Marina Bahía De Santa Pola, S.a. (gramabasa)","Acuicultura","https://granjastransparentes.es/images/animals/fish.png","1","","2024-03-01T00:00:00.000000Z","2024-03-01T00:00:00.000000Z"
"3597","1890-explotacion-de-cerdas-madres-covelas","Granja de porcina y cerdas en Ourense","42.013398","-7.718602","Coordinates","Covelas, 32003, Blancos, Os, Ourense, España","Ourense","","Coren, S.c.l","Explotación De Cerdas Madres Covelas","GranjaPorcinaIntensivaDeCerdas","https://granjastransparentes.es/images/animals/pig.png","1","","2024-03-01T00:00:00.000000Z","2024-03-01T00:00:00.000000Z"
"1270","4974-granja-tabernas","Granja de porcina en Almería","37.0994","-2.2762","Coordinates","Cañada De Pedro Díaz, Tabernas, 04200, Almería, España","Almería","Andalucía","Porcisan, S.a.","Granja Tabernas","GranjaPorcinaIntensiva","https://granjastransparentes.es/images/animals/pig.png","1","","2024-03-01T00:00:00.000000Z","2024-03-01T00:00:00.000000Z"
"3238","5101-huevos-navarrete-sl","Granja de avícola en Málaga","36.700588","-4.550082","Coordinates","José Calderón, 134, Campanillas, 29590, Málaga, España","Málaga","Andalucía","Huevos Navarrete, S.l.","Huevos Navarrete, S.l.","GranjaAvícolaIntensiva","https://granjastransparentes.es/images/animals/poultry.png","1","","2024-03-01T00:00:00.000000Z","2024-03-01T00:00:00.000000Z"
"1336","1800-granja-la-serna-sa","Granja de porcina y cerdas en Navarra","42.63046","-1.83048","Coordinates","Larraga, Mendigorria, 31150, Mendigorría, Navarra, España","Navarra","Navarra","Granja Laserna, S.a.","Granja La Serna, S.a.","GranjaPorcinaIntensivaDeCerdas","https://granjastransparentes.es/images/animals/pig.png","1","","2024-03-01T00:00:00.000000Z","2024-03-01T00:00:00.000000Z"
"3195","8590-prokom-ovoproductos-sl-traspinedo","Granja de avícola en Valladolid","41.583056","-4.461389","Coordinates","23, Traspinedo, 47330, Valladolid, España","Valladolid","Castilla y León","Prokom Ovoproductos, S.l.","Prokom Ovoproductos Sl - Traspinedo","GranjaAvícolaIntensiva","https://granjastransparentes.es/images/animals/poultry.png","1","","2024-03-01T00:00:00.000000Z","2024-03-01T00:00:00.000000Z"
"134","10525-ricardo-angulo-samaniego-granja-san-martin","Granja de porcina en Araba","42.658372","-2.893233","Coordinates","Camino Bajo Ircio,6, 01212, Zambrana, Alava, España","Araba","Euskadi","Ricardo","Ricardo Angulo Samaniego (granja San Martin)","GranjaPorcinaIntensiva","https://granjastransparentes.es/images/animals/pig.png","1","","2024-03-01T00:00:00.000000Z","2024-03-01T00:00:00.000000Z"
"2476","4406-agro-porcino-manso-sl","Granja de porcina en Segovia","41.052428","-4.401642","Coordinates","Cmno:ochando A Pascuales S/n, Ochando, 40440, Santa María La Real De Nieva, Segovia, España","Segovia","Castilla y León","Agro-porcino Manso, S.l.","Agro-porcino Manso, S.l.","GranjaPorcinaIntensiva","https://granjastransparentes.es/images/animals/pig.png","1","","2024-03-01T00:00:00.000000Z","2024-03-01T00:00:00.000000Z"
"3916","9126-granja-pelegri","Granja de avícola en Lérida","41.738899","0.903567","Coordinates","Sant Jordi, 25337, Bellcaire D'urgell, Lleida, España","Lérida","Cataluña","Pelegri, S.c.p.","Granja Pelegri","GranjaAvícolaIntensiva","https://granjastransparentes.es/images/animals/poultry.png","1","","2024-03-01T00:00:00.000000Z","2024-03-01T00:00:00.000000Z"
"1338","1828-san-donato-sa","Granja de avícola en Navarra","42.898446","-2.067017","Coordinates","Arkueta, Etxarri-aranatz, 31820, Navarra, España","Navarra","Navarra","San Donato, S.a.","San Donato, S.a.","GranjaAvícolaIntensiva","https://granjastransparentes.es/images/animals/poultry.png","1","","2024-03-01T00:00:00.000000Z","2024-03-01T00:00:00.000000Z"
"1761","4079-granja-santa-ana-gensana-sxxi","Granja de porcina y cerdas en Soria","41.747222","-2.416111","Coordinates","11 (paraje: Sierra Benedit), Alconaba, 42134, Soria, España","Soria","Castilla y León","Gensana S.xxi, S.l.","Granja Santa Ana - Gensana S.xxi","GranjaPorcinaIntensivaDeCerdas","https://granjastransparentes.es/images/animals/pig.png","1","","2024-03-01T00:00:00.000000Z","2024-03-01T00:00:00.000000Z"
"2360","1958-huevos-de-campos-sl","Granja de avícola en Palencia","41.944978","-4.919414","Coordinates","Pedro Calvo, Meneses De Campos, 34305, Palencia, España","Palencia","Castilla y León","Huevos Del Campo, S.l.","Huevos De Campos S.l.","GranjaAvícolaIntensiva","https://granjastransparentes.es/images/animals/poultry.png","1","","2024-03-01T00:00:00.000000Z","2024-03-01T00:00:00.000000Z"
"3064","7648-avramar-espana-acuicultura-sl","Granja de peces y crustáceos en Castelló","39.878341","-0.110378","Coordinates","Calle Zinc, Burriana, 12530, Borriana/burriana, Castellón/castelló, España","Castelló","Comunidad Valenciana","Avramar España Acuicultura, S.l.","Avramar España Acuicultura, S.l.","Acuicultura","https://granjastransparentes.es/images/animals/fish.png","1","","2024-03-01T00:00:00.000000Z","2024-03-01T00:00:00.000000Z"
"2025","9560-huevos-leon-granja-malillos","Granja de avícola en León","42.440661","-5.413333","Coordinates","102, Malillos, 24339, Santas Martas, León, España","León","Castilla y León","Huevos León S.l.","Huevos León - Granja Malillos","GranjaAvícolaIntensiva","https://granjastransparentes.es/images/animals/poultry.png","1","","2024-03-01T00:00:00.000000Z","2024-03-01T00:00:00.000000Z"
"1622","6684-hermanos-de-pablo-arribas-langa-de-duero","Granja de porcina y cerdas en Soria","41.618587","-3.432884","Coordinates","39 ( Paraje Escobares), Langa De Duero, 42320, Soria, España","Soria","Castilla y León","Hermanos De Pablo Arribas, S.l.","Hermanos De Pablo Arribas - Langa De Duero","GranjaPorcinaIntensivaDeCerdas","https://granjastransparentes.es/images/animals/pig.png","1","","2024-03-01T00:00:00.000000Z","2024-03-01T00:00:00.000000Z"
"2626","11243-es441910000033-puebla-de-hijar-la","Granja de porcina en Zaragoza","41.293216","-0.433252","Coordinates","Finca La Romana, Puebla De Hijar (la), 44510, Puebla De Híjar, La, Teruel, España","Zaragoza","Aragón","Peggy Farm, S.l.","Es441910000033 Puebla De Híjar (la)","GranjaPorcinaIntensiva","https://granjastransparentes.es/images/animals/pig.png","1","","2024-03-01T00:00:00.000000Z","2024-03-01T00:00:00.000000Z"
"3189","4248-granja-canales-sl","Granja de avícola en Madrid","40.21531","-3.85548","Coordinates","Griñon A Cubas,, Griñon, 28971, Griñón, Madrid, España","Madrid","Comunidad de Madrid","Granja Canales, S.l.","Granja Canales, S.l.","GranjaAvícolaIntensiva","https://granjastransparentes.es/images/animals/poultry.png","1","","2024-03-01T00:00:00.000000Z","2024-03-01T00:00:00.000000Z"
"3694","3480-paris-avicolasat","Granja de avícola en Madrid","40.16993","-3.27449","Coordinates","Oliva Del Hueso, Villarejo De Salvanes, 28590, Villarejo De Salvanés, Madrid, España","Madrid","Comunidad de Madrid","Paris Avicola  S.a.t","Paris Avicola,sat","GranjaAvícolaIntensiva","https://granjastransparentes.es/images/animals/poultry.png","1","","2024-03-01T00:00:00.000000Z","2024-03-01T00:00:00.000000Z"
"1796","7313-explotaciones-avicolas-alcarria-sl","Granja de avícola en Guadalajara","40.582","-3.0808","Coordinates","N-320 Km 268  Pol.24 Parcela 7a-8a, Horche, 19002, Guadalajara, España","Guadalajara","Castilla-La Mancha","Explotaciones Avícolas Alcarria S.l.","Explotaciones Avícolas Alcarria S.l.","GranjaAvícolaIntensiva","https://granjastransparentes.es/images/animals/poultry.png","1","","2024-03-01T00:00:00.000000Z","2024-03-01T00:00:00.000000Z"
"3059","6481-granja-frauca-solsona-sl","Granja de avícola en Lleida","41.807345","1.403648","Coordinates","D'ivorra, 25750, Torà, Lleida, España","Lleida","Catalunya","Granja Frauca Solsona, Sl","Granja Frauca Solsona, Sl","GranjaAvícolaIntensiva","https://granjastransparentes.es/images/animals/poultry.png","1","","2024-03-01T00:00:00.000000Z","2024-03-01T00:00:00.000000Z"
"2690","7273-granja-avicola-gallego-sl","Granja de avícola en Toledo","39.8953","-3.9714","Coordinates","Camino Olivarejos Lominchar (toledo) Pol. 5 Parcelas 145, 146, 153, Lominchar, 45212, Toledo, España","Toledo","Castilla-La Mancha","Granja Avícola Gallego S.l.","Granja Avícola Gallego S.l.","GranjaAvícolaIntensiva","https://granjastransparentes.es/images/animals/poultry.png","1","","2024-03-01T00:00:00.000000Z","2024-03-01T00:00:00.000000Z"
"2796","9016-iberico-la-armedilla-sl","Granja de porcina en Valladolid","41.519381","-4.357592","Coordinates","Va-vp-2303, Cogeces Del Monte, 47313, Valladolid, España","Valladolid","Castilla y León","Ibérico La Armedilla S.l.","Ibérico La Armedilla S.l.","GranjaPorcinaIntensiva","https://granjastransparentes.es/images/animals/pig.png","1","","2024-03-01T00:00:00.000000Z","2024-03-01T00:00:00.000000Z"
"855","8583-alberto-escudero-gomez","Granja de porcina en Valladolid","42.055","-5.061519","Coordinates","Polígono 7, Cuenca De Campos, 47650, Valladolid, España","Valladolid","Castilla y León","Alberto Escudero Gómez","Alberto Escudero Gómez","GranjaPorcinaIntensiva","https://granjastransparentes.es/images/animals/pig.png","1","","2024-03-01T00:00:00.000000Z","2024-03-01T00:00:00.000000Z"
"2833","10080-agropecuaria-galana-sl","Granja de porcina en Zamora","41.710219","-5.622697","Coordinates","Las Muñozas, Arquillinos, 49126, Zamora, España","Zamora","Castilla y León","Agropecuaria Galana S.l.","Agropecuaria Galana S.l.","GranjaPorcinaIntensiva","https://granjastransparentes.es/images/animals/pig.png","1","","2024-03-01T00:00:00.000000Z","2024-03-01T00:00:00.000000Z"
"3264","8643-expoinor-sl","Granja de porcina y cerdas en Valencia","39.597917","-1.318274","Coordinates","Poligono 10; Parcela 630, Casas (las), 46313, Utiel, Valencia/valència, España","Valencia","Comunidad Valenciana","Expoinor Sl","Expoinor Sl","GranjaPorcinaIntensivaDeCerdas","https://granjastransparentes.es/images/animals/pig.png","1","","2024-03-01T00:00:00.000000Z","2024-03-01T00:00:00.000000Z"
"2607","2118-granges-duch","Granja de avícola en Tarragona","41.20617","1.250431","Coordinates","Carrer Castell, 43153, Garidells, Els, Tarragona, España","Tarragona","Catalunya","Granges Duch, S.l.","Granges Duch","GranjaAvícolaIntensiva","https://granjastransparentes.es/images/animals/poultry.png","1","","2024-03-01T00:00:00.000000Z","2024-03-01T00:00:00.000000Z"
"1375","1405-granja-seros-10","Granja de porcina y cerdas en Lleida","41.436527","0.424227","Coordinates","Pol. 8 Parc. 42, 25183, Seròs, Lleida, España","Lleida","Catalunya","Leridana De Piensos, S.a","Granja Seros 10","GranjaPorcinaIntensivaDeCerdas","https://granjastransparentes.es/images/animals/pig.png","1","","2024-03-01T00:00:00.000000Z","2024-03-01T00:00:00.000000Z"
"1773","4863-les-serres","Granja de porcina y cerdas en Girona","42.00713","2.671772","Coordinates","Les Serres, 17160, Anglès, Girona, España","Girona","Catalunya","Ginpig Service, Sl","Les Serres","GranjaPorcinaIntensivaDeCerdas","https://granjastransparentes.es/images/animals/pig.png","1","","2024-03-01T00:00:00.000000Z","2024-03-01T00:00:00.000000Z"
"2655","7248-agricola-ganadera-hermanos-lopez-sl-aai-to-131","Granja de porcina y cerdas en Toledo","39.8256","-5.0534","Coordinates","Ctra. Calera - Puente Del Arzobispo, Km.23. Calera Y Chozas 45.595 (toledo), Calera Y Chozas, 45600, Toledo, España","Toledo","Castilla-La Mancha","Agrícola Ganadera Hermanos López S.l.","Agrícola Ganadera Hermanos López S.l. (aai-to-131)","GranjaPorcinaIntensivaDeCerdas","https://granjastransparentes.es/images/animals/pig.png","1","","2024-03-01T00:00:00.000000Z","2024-03-01T00:00:00.000000Z"
"771","5849-granja-soler-7910ez","Granja de porcina en Lleida","41.562009","0.472365","Coordinates","Pta. Bofarra Pol.7 Parc.93, 25181, Soses, Lleida, España","Lleida","Catalunya","Carles Soler Anaya","Granja Soler (7910ez)","GranjaPorcinaIntensiva","https://granjastransparentes.es/images/animals/pig.png","1","","2024-03-01T00:00:00.000000Z","2024-03-01T00:00:00.000000Z"
"2656","5569-agricola-ganadera-hermanos-lopez-sl-aai-to-132","Granja de porcina en Toledo","39.7967","-5.1521","Coordinates","Vegas Del Tajo. Azután  45.571 (toledo)., Azutan, 45600, Azután, Toledo, España","Toledo","Castilla-La Mancha","Agrícola Ganadera Hermanos López S.l.","Agrícola Ganadera Hermanos López S.l. (aai-to-132)","GranjaPorcinaIntensiva","https://granjastransparentes.es/images/animals/pig.png","1","","2024-03-01T00:00:00.000000Z","2024-03-01T00:00:00.000000Z"
"3772","9976-granja-sant-josep","Granja de porcina en Girona","42.343462","2.971688","Coordinates","Mas Sant Josep, 17763, Masarac, Girona, España","Girona","Catalunya","Grup Montpedrós Sc","Granja Sant Josep","GranjaPorcinaIntensiva","https://granjastransparentes.es/images/animals/pig.png","1","","2024-03-01T00:00:00.000000Z","2024-03-01T00:00:00.000000Z"
"4016","2111-granja-pio","Granja de avícola en Cantabria","43.35951","-4.088287","Coordinates","Vista Alegre, Puente San Miguel, Reocin, 39530, Reocín, Cantabria, España","Cantabria","Cantabria","Granja Pío S.c.","Granja Pío","GranjaAvícolaIntensiva","https://granjastransparentes.es/images/animals/poultry.png","1","","2024-03-01T00:00:00.000000Z","2024-03-01T00:00:00.000000Z"
"1453","4586-kubus-sa-valdelinares","Granja de porcina en Badajoz","38.766944","-7.120833","Coordinates","Tramo Octavo Valdelinares. San Francisco De Olivenza. Polígono 2, Parcela 21, Olivenza, 06109, Badajoz, España","Badajoz","Extremadura","Kubus, S.a.","Kubus, S.a., Valdelinares","GranjaPorcinaIntensiva","https://granjastransparentes.es/images/animals/pig.png","1","","2024-03-01T00:00:00.000000Z","2024-03-01T00:00:00.000000Z"
"2322","1796-granja-los-alecos-sl-sanguesa","Granja de porcina y cerdas en Navarra","42.57708","-1.28138","Coordinates","Peña, Km. 4, Sanguesa, 31400, Sangüesa/zangoza, Navarra, España","Navarra","Navarra","Granja Los Alecos, Sl","Granja Los Alecos, S.l.-sangüesa","GranjaPorcinaIntensivaDeCerdas","https://granjastransparentes.es/images/animals/pig.png","1","","2024-03-01T00:00:00.000000Z","2024-03-01T00:00:00.000000Z"
"2903","2939-es502520000128-cerdos-tauste","Granja de porcina y cerdas en Zaragoza","41.878776","-1.216352","Coordinates","Parcela 375 Del Polígono 35, Tauste, 50660, Zaragoza, España","Zaragoza","Aragón","El Paraiso Del Cerdo S.l.","Cerdos-tauste","GranjaPorcinaIntensivaDeCerdas","https://granjastransparentes.es/images/animals/pig.png","1","","2024-03-01T00:00:00.000000Z","2024-03-01T00:00:00.000000Z"
"4204","6646-sat-avicola-san-miguel-n705-na","Granja de avícola en Navarra","42.909166","-1.947584","Coordinates","9 Y 139 Del Pol. 1 Uharte Arakil, Uharte-arakil, 31840, Navarra, España","Navarra","Navarra","Sat Avicola San Miguel N705 Na","Sat Avicola San Miguel N705 Na","GranjaAvícolaIntensiva","https://granjastransparentes.es/images/animals/poultry.png","1","","2024-03-01T00:00:00.000000Z","2024-03-01T00:00:00.000000Z"
"1459","7261-explotacion-porcina-monte-el-pilar-exporinsa","Granja de porcina y cerdas en Cuenca","39.6765","-2.7067","Coordinates","Osa De La Vega A Fuentelespino De Haro., Tresjuncos, 16442, Cuenca, España","Cuenca","Castilla-La Mancha","Explotación Porcina Integral, S.a.","Explotación Porcina ""monte El Pilar"" (exporinsa)","GranjaPorcinaIntensivaDeCerdas","https://granjastransparentes.es/images/animals/pig.png","1","","2024-03-01T00:00:00.000000Z","2024-03-01T00:00:00.000000Z"
"1589","418-lalovet","Granja de porcina y cerdas en Barcelona","41.999885","2.135454","Coordinates","Mas L'alovet, 08503, Sant Bartomeu Del Grau, Barcelona, España","Barcelona","Catalunya","Granges Terragrisa, S.l.u.","L´alovet","GranjaPorcinaIntensivaDeCerdas","https://granjastransparentes.es/images/animals/pig.png","1","","2024-03-01T00:00:00.000000Z","2024-03-01T00:00:00.000000Z"
"2209","10737-es222510000020-el-sisallar-villanueva-de-sigena","Granja de porcina y cerdas en Huesca","41.715222","-0.008744","Coordinates","Parage Cuarto Bajo Sisallar, Villanueva De Sigena, 22231, Huesca, España","Huesca","Aragón","Grupo Premier Pigs, Sl","El Sisallar Villanueva De Sigena","GranjaPorcinaIntensivaDeCerdas","https://granjastransparentes.es/images/animals/pig.png","1","","2024-03-01T00:00:00.000000Z","2024-03-01T00:00:00.000000Z"
"1276","7569-explotacion-porcina-finca-millan","Granja de porcina y cerdas en Granada","37.849781","-2.44669","Coordinates","Millán, Puebla De Don Fadrique, 18820, Granada, España","Granada","Andalucía","Cefu, S.a.","Explotación Porcina Finca Millán","GranjaPorcinaIntensivaDeCerdas","https://granjastransparentes.es/images/animals/pig.png","1","","2024-03-01T00:00:00.000000Z","2024-03-01T00:00:00.000000Z"
"1456","3440-granja-padrino-vilela-sa","Granja de avícola en Madrid","40.19299","-3.67861","Coordinates","Navalcarnero A Chinchón, Valdemoro, 28341, Madrid, España","Madrid","Comunidad de Madrid","Granja Padrino Vilela","Granja Padrino Vilela S.a.","GranjaAvícolaIntensiva","https://granjastransparentes.es/images/animals/poultry.png","1","","2024-03-01T00:00:00.000000Z","2024-03-01T00:00:00.000000Z"
"1376","8781-granja-algerri","Granja de porcina y cerdas en Lleida","41.803815","0.659223","Coordinates","Partida Torre Llambret- Pol. 5/ Parc. 279, 25130, Algerri, Lleida, España","Lleida","Catalunya","Leridana De Piensos, S.a","Granja Algerri","GranjaPorcinaIntensivaDeCerdas","https://granjastransparentes.es/images/animals/pig.png","1","","2024-03-01T00:00:00.000000Z","2024-03-01T00:00:00.000000Z"
"1275","8472-granja-venta-del-olivo","Granja de porcina en Murcia","38.232999","-1.503467","Coordinates","Loma Fonseca, Parra (la), 30530, Cieza, Murcia, España","Murcia","Región de Murcia","Cefu, S.a.","Granja Venta Del Olivo","GranjaPorcinaIntensiva","https://granjastransparentes.es/images/animals/pig.png","1","","2024-03-01T00:00:00.000000Z","2024-03-01T00:00:00.000000Z"
"1281","1719-granja-madax-cebo-no1-2-3-4-y-lechoneras","Granja de porcina en Albacete","38.4533","-1.5411","Coordinates","Paraje Madax, S/n. Cancarix. Hellín  02.001 (albacete), Hellin, 02400, Hellín, Albacete, España","Albacete","Castilla-La Mancha","Cefu, S.a.","Granja Madax Cebo Nº1, 2, 3, 4 Y Lechoneras","GranjaPorcinaIntensiva","https://granjastransparentes.es/images/animals/pig.png","1","","2024-03-01T00:00:00.000000Z","2024-03-01T00:00:00.000000Z"
"1787","7926-piscifactoria-alba","Granja de peces y crustáceos en Salamanca","40.815636","-5.523553","Coordinates","Camping, Alba De Tormes, 37800, Salamanca, España","Salamanca","Castilla y León","Piszolla, S.l.","Piscifactoría Alba","Acuicultura","https://granjastransparentes.es/images/animals/fish.png","1","","2024-03-01T00:00:00.000000Z","2024-03-01T00:00:00.000000Z"
"3039","3146-granja-noviporc","Granja de porcina y cerdas en Tarragona","40.755026","0.506661","Coordinates","Valencia - Pol. 42 Parc. 8 (vinallop), 43500, Tortosa, Tarragona, España","Tarragona","Catalunya","Noviporci, S.l.","Granja Noviporc","GranjaPorcinaIntensivaDeCerdas","https://granjastransparentes.es/images/animals/pig.png","1","","2024-03-01T00:00:00.000000Z","2024-03-01T00:00:00.000000Z"
"3082","8620-farcam-agricola","Granja de porcina en Lleida","41.615212","0.54102","Coordinates","Montagut, 25180, Alcarràs, Lleida, España","Lleida","Catalunya","Farcam Agricola Sl","Farcam Agricola","GranjaPorcinaIntensiva","https://granjastransparentes.es/images/animals/pig.png","1","","2024-03-01T00:00:00.000000Z","2024-03-01T00:00:00.000000Z"
"1887","6972-es221270000801-perdices-igries","Granja de avícola en Huesca","42.22212","-0.452851","Coordinates","Finca Saso, Igries, 22193, Igriés, Huesca, España","Huesca","Aragón","Perdices Sierra De Guara, S.l.","Perdices-igriés","GranjaAvícolaIntensiva","https://granjastransparentes.es/images/animals/poultry.png","1","","2024-03-01T00:00:00.000000Z","2024-03-01T00:00:00.000000Z"
"2502","4297-granja-san-pedro-de-cansoles","Granja de porcina y cerdas en Palencia","42.733589","-4.915078","Coordinates","Cerezal, San Pedro De Cansoles, 34880, Guardo, Palencia, España","Palencia","Castilla y León","Desarrollos Porcinos De Castilla Y León, S.l.","Granja San Pedro De Cansoles","GranjaPorcinaIntensivaDeCerdas","https://granjastransparentes.es/images/animals/pig.png","1","","2024-03-01T00:00:00.000000Z","2024-03-01T00:00:00.000000Z"
"1169","4862-granja-mas-blanch","Granja de porcina y cerdas en Girona","42.211954","2.580245","Coordinates","Veïnat Del Angles, 17855, Montagut I Oix, Girona, España","Girona","Catalunya","Selección Batallé, S.a.","Granja Mas Blanch","GranjaPorcinaIntensivaDeCerdas","https://granjastransparentes.es/images/animals/pig.png","1","","2024-03-01T00:00:00.000000Z","2024-03-01T00:00:00.000000Z"
"3250","8019-grupo-avicola-la-crestasl","Granja de avícola en Murcia","38.04901","-1.675386","Coordinates","Fuente De La Carrasca, Bullas, 30180, Murcia, España","Murcia","Región de Murcia","Grupo Avícola La Cresta, S.l.","Grupo Avícola La Cresta,s.l","GranjaAvícolaIntensiva","https://granjastransparentes.es/images/animals/poultry.png","1","","2024-03-01T00:00:00.000000Z","2024-03-01T00:00:00.000000Z"
"25","7348-javier-mora-jimenez","Granja de porcina en Toledo","39.5394","-3.8378","Coordinates","Polígno 35 Parcela 114  Mascaraque (toledo), Mascaraque, 45400, Toledo, España","Toledo","Castilla-La Mancha","Javier Mora Jiménez","Javier Mora Jiménez","GranjaPorcinaIntensiva","https://granjastransparentes.es/images/animals/pig.png","1","","2024-03-01T00:00:00.000000Z","2024-03-01T00:00:00.000000Z"
"1168","897-granja-ricard","Granja de porcina y cerdas en Girona","41.864457","2.783114","Coordinates","Can Mora, 17455, Caldes De Malavella, Girona, España","Girona","Cataluña","Selección Batallé, S.a.","Granja Ricard","GranjaPorcinaIntensivaDeCerdas","https://granjastransparentes.es/images/animals/pig.png","1","","2024-03-01T00:00:00.000000Z","2024-03-01T00:00:00.000000Z"
"1717","7991-hermanos-matas-de-huerta-sl-paraje-las-hontanillas","Granja de porcina en Cuenca","39.7963","-2.4603","Coordinates","Por 507; Parc 1003, Huerta De La Obispalia, 16195, Huerta De La Obispalía, Cuenca, España","Cuenca","Castilla-La Mancha","Hermanos Matas De Huerta S.l.","Hermanos Matas De Huerta, S.l. - Paraje Las Hontanillas-","GranjaPorcinaIntensiva","https://granjastransparentes.es/images/animals/pig.png","1","","2024-03-01T00:00:00.000000Z","2024-03-01T00:00:00.000000Z"
"35","7979-gabriel-rodriguez-martin","Granja de avícola en Toledo","39.8161","-4.3469","Coordinates","Val De Santo Domingo (toledo), Val De Santo Domingo, 45519, Santo Domingo-caudilla, Toledo, España","Toledo","Castilla-La Mancha","Gabriel Rodríguez Martín","Gabriel Rodríguez Martín","GranjaAvícolaIntensiva","https://granjastransparentes.es/images/animals/poultry.png","1","","2024-03-01T00:00:00.000000Z","2024-03-01T00:00:00.000000Z"
"2279","10730-exaga","Granja de porcina y cerdas en Murcia","37.698566","-1.232374","Coordinates","Los Garcías-casablanca, Pinilla (la), 30335, Fuente álamo De Murcia, Murcia, España","Murcia","Región de Murcia","Exaga S.l","Exaga","GranjaPorcinaIntensivaDeCerdas","https://granjastransparentes.es/images/animals/pig.png","1","","2024-03-01T00:00:00.000000Z","2024-03-01T00:00:00.000000Z"
"1754","880-granja-les-olives","Granja de porcina en Girona","42.233751","3.013064","Coordinates","Afores, 17469, Vilamalla, Girona, España","Girona","Cataluña","Granja Les Olives, S.l.","Granja Les Olives","GranjaPorcinaIntensiva","https://granjastransparentes.es/images/animals/pig.png","1","","2024-03-01T00:00:00.000000Z","2024-03-01T00:00:00.000000Z"
"2079","6369-granja-reus","Granja de porcina en Tarragona","41.197627","1.174015","Coordinates","Cr Horta, 43393, Selva Del Camp, La, Tarragona, España","Tarragona","Catalunya","Rovospa, S.l.","Granja Reus","GranjaPorcinaIntensiva","https://granjastransparentes.es/images/animals/pig.png","1","","2024-03-01T00:00:00.000000Z","2024-03-01T00:00:00.000000Z"
"2525","7925-jesus-antonio-ballesteros-slu","Granja de avícola en Segovia","41.172344","-4.142811","Coordinates","7, Escalona Del Prado, 40350, Segovia, España","Segovia","Castilla y León","Jesús Antonio Ballesteros, S.l.u.","Jesús Antonio Ballesteros, S.l.u.","GranjaAvícolaIntensiva","https://granjastransparentes.es/images/animals/poultry.png","1","","2024-03-01T00:00:00.000000Z","2024-03-01T00:00:00.000000Z"
"392","10374-paraje-cueva-pagan-cuevas-del-reyllo","Granja de porcina en Murcia","37.70647","-1.26689","Coordinates","Cueva Pagan-cuevas De Reyllo Poligono 21 Parcelas 192,210 Y 491, Campillo De Arriba, 30320, Fuente álamo De Murcia, Murcia, España","Murcia","Región de Murcia","José Mendoza Sánchez","Paraje Cueva Pagan-cuevas Del Reyllo","GranjaPorcinaIntensiva","https://granjastransparentes.es/images/animals/pig.png","1","","2024-03-01T00:00:00.000000Z","2024-03-01T00:00:00.000000Z"
"1179","1019-centro-cantos-blancos","Granja de avícola en Guadalajara","40.60036","-3.21565","Coordinates","Polígono 1, Parcela 254, Cabanillas Del Campo, 19208, Guadalajara, España","Guadalajara","Castilla-La Mancha","Granjas Cantos Blancos S.a.","Centro Cantos Blancos","GranjaAvícolaIntensiva","https://granjastransparentes.es/images/animals/poultry.png","1","","2024-03-01T00:00:00.000000Z","2024-03-01T00:00:00.000000Z"
"1673","9836-es440080000026-albalate-del-arzobispo","Granja de porcina en Teruel","41.120124","-0.512788","Coordinates","49, Parcelas 2,3, 6 Y 14, Albalate Del Arzobispo, 44540, Teruel, España","Teruel","Aragón","Explotación Porcina La Balma, S.l.","Albalate Del Arzobispo","GranjaPorcinaIntensiva","https://granjastransparentes.es/images/animals/pig.png","1","","2024-03-01T00:00:00.000000Z","2024-03-01T00:00:00.000000Z"
"1829","10376-es220210000058-almudevar","Granja de porcina y cerdas en Huesca","42.130955","-0.547636","Coordinates","20, Parcela, Almudevar, 22270, Almudévar, Huesca, España","Huesca","Aragón","Explotaciones Ganaderas Estiche S.l.","Almudévar","GranjaPorcinaIntensivaDeCerdas","https://granjastransparentes.es/images/animals/pig.png","1","","2024-03-01T00:00:00.000000Z","2024-03-01T00:00:00.000000Z"
"1330","1771-granja-villanueva-sa-cinco-jotas","Granja de porcina y cerdas en Navarra","42.59115","-1.76244","Coordinates","Marcilla, Artajona, 31140, Navarra, España","Navarra","Navarra","Granja Villanueva, S.a.","Granja Villanueva, S.a.- Cinco Jotas","GranjaPorcinaIntensivaDeCerdas","https://granjastransparentes.es/images/animals/pig.png","1","","2024-03-01T00:00:00.000000Z","2024-03-01T00:00:00.000000Z"
"1478","34-pequechin-sl","Granja de porcina y cerdas en Albacete","38.92","-1.7233","Coordinates","Paraje Aldea Nueva, S/n. Chinchilla  02.520 (albacete), Chinchilla De Monte-aragon, 02520, Chinchilla De Monte-aragón, Albacete, España","Albacete","Castilla-La Mancha","Pequechín, S.l.","Pequechin S.l.","GranjaPorcinaIntensivaDeCerdas","https://granjastransparentes.es/images/animals/pig.png","1","","2024-03-01T00:00:00.000000Z","2024-03-01T00:00:00.000000Z"
"3159","10032-avicola-barco-sl","Granja de avícola en Ávila","40.800528","-4.756778","Coordinates","Los Barriales, Berlanas (las), 05162, Berlanas, Las, ávila, España","Ávila","Castilla y León","Avicola Barco S.l.","Avícola Barco, S.l.","GranjaAvícolaIntensiva","https://granjastransparentes.es/images/animals/poultry.png","1","","2024-03-01T00:00:00.000000Z","2024-03-01T00:00:00.000000Z"
"3254","5589-inversiones-ganaderas-porcinas-sl-ingapor-sl","Granja de porcina en Albacete","38.8968","-1.3624","Coordinates","Paraje Loma Tío, S/n.  Bonete  02.691 (albacete), Bonete, 02691, Albacete, España","Albacete","Castilla-La Mancha","Inversiones Ganaderas Porcinas S.l. (ingapor)","Inversiones Ganaderas Porcinas S.l. (ingapor S.l.)","GranjaPorcinaIntensiva","https://granjastransparentes.es/images/animals/pig.png","1","","2024-03-01T00:00:00.000000Z","2024-03-01T00:00:00.000000Z"
"2484","4234-ganaderos-escolasticos-el-campillo-villalba-de-adaja","Granja de porcina en Valladolid","41.371958","-4.788078","Coordinates","De Calabazas, Villalba De Adaja, 47238, Matapozuelos, Valladolid, España","Valladolid","Castilla y León","Ganaderos Escolásticos El Campillo, S.l.","Ganaderos Escolásticos El Campìllo - Villalba De Adaja","GranjaPorcinaIntensiva","https://granjastransparentes.es/images/animals/pig.png","1","","2024-03-01T00:00:00.000000Z","2024-03-01T00:00:00.000000Z"
"1140","7688-agrocinegetica-perdices-altube-granja-santa-rosalia","Granja de avícola en Burgos","42.159714","-4.095044","Coordinates","603, Vizmalo, 09260, Revilla Vallejera, Burgos, España","Burgos","Castilla y León","Agrocinegética Perdices Altube, S.a.","Agrocinegética Perdices Altube (granja Santa Rosalía)","GranjaAvícolaIntensiva","https://granjastransparentes.es/images/animals/poultry.png","1","","2024-03-01T00:00:00.000000Z","2024-03-01T00:00:00.000000Z"
"1398","3966-explotaciones-avicolas-garcia-puente-sa","Granja de avícola en Valladolid","41.2996","-4.676144","Coordinates","6, Olmedo, 47410, Valladolid, España","Valladolid","Castilla y León","Explotaciones Avicolas Garcia Puente S.a.","Explotaciones Avicolas Garcia Puente S.a.","GranjaAvícolaIntensiva","https://granjastransparentes.es/images/animals/poultry.png","1","","2024-03-01T00:00:00.000000Z","2024-03-01T00:00:00.000000Z"
"2431","2143-gerardo-de-lucas-sl-trigueros-del-valle","Granja de avícola en Valladolid","41.774444","-4.634722","Coordinates","6, Trigueros Del Valle, 47282, Valladolid, España","Valladolid","Castilla y León","Gerardo De Lucas","Gerardo De Lucas S.l.-trigueros Del Valle","GranjaAvícolaIntensiva","https://granjastransparentes.es/images/animals/poultry.png","1","","2024-03-01T00:00:00.000000Z","2024-03-01T00:00:00.000000Z"
"506","1474-finca-el-manzano-de-la-penuela","Granja de porcina en Sevilla","37.448151","-5.303764","Coordinates","De La Peñuela. Finca La Peñuela, Fuentes De Andalucia, 41420, Fuentes De Andalucía, Sevilla, España","Sevilla","Andalucía","Miguel Atienza Zamorano","Finca El Manzano De La Peñuela","GranjaPorcinaIntensiva","https://granjastransparentes.es/images/animals/pig.png","1","","2024-03-01T00:00:00.000000Z","2024-03-01T00:00:00.000000Z"
"3655","2650-sat-6330-el-rafol","Granja de porcina y cerdas en Valencia","39.404454","-0.432065","Coordinates","Paraje De Santa Ana,poligono 1 Parcelas 20,107 Y 108, 46470, Catarroja, Valencia/valència, España","Valencia","Comunidad Valenciana","S.a.t. 6330 El Rafol","S.a.t. 6330 El Rafol","GranjaPorcinaIntensivaDeCerdas","https://granjastransparentes.es/images/animals/pig.png","1","","2024-03-01T00:00:00.000000Z","2024-03-01T00:00:00.000000Z"
"1623","10883-hermanos-de-pablo-arribas-atauta","Granja de porcina en Soria","41.493","-3.1917","Coordinates","Parcelas 60299 Y 30299 Del Pol. 53 Y Parcelas 12299 Y 11299 Del Pol. 54, Atauta, 42345, San Esteban De Gormaz, Soria, España","Soria","Castilla y León","Hermanos De Pablo Arribas, S.l.","Hermanos De Pablo Arribas - Atauta","GranjaPorcinaIntensiva","https://granjastransparentes.es/images/animals/pig.png","1","","2024-03-01T00:00:00.000000Z","2024-03-01T00:00:00.000000Z"
"3194","2595-agropecuaria-de-andanes-sl","Granja de porcina y cerdas en Valencia","39.602243","-0.418529","Coordinates","Poligono 10, Parcela 160, 46117, Bétera, Valencia/valència, España","Valencia","Comunidad Valenciana","Agropecuaria De Andanes, S.l.","Agropecuaria De Andanes, S.l.","GranjaPorcinaIntensivaDeCerdas","https://granjastransparentes.es/images/animals/pig.png","1","","2024-03-01T00:00:00.000000Z","2024-03-01T00:00:00.000000Z"
"1587","416-el-bach","Granja de porcina y cerdas en Barcelona","41.95257","2.081902","Coordinates","El Bach, 08518, Oristà, Barcelona, España","Barcelona","Catalunya","Granges Terragrisa, S.l.u.","El Bach","GranjaPorcinaIntensivaDeCerdas","https://granjastransparentes.es/images/animals/pig.png","1","","2024-03-01T00:00:00.000000Z","2024-03-01T00:00:00.000000Z"
"2483","8218-ganaderos-escolasticos-el-campillo-campo-de-cuellar","Granja de porcina y cerdas en Segovia","41.292778","-4.381389","Coordinates","Polígono, Campo De Cuellar, 40242, Cuéllar, Segovia, España","Segovia","Castilla y León","Ganaderos Escolásticos El Campillo, S.l.","Ganaderos Escolásticos El Campillo - Campo De Cuellar","GranjaPorcinaIntensivaDeCerdas","https://granjastransparentes.es/images/animals/pig.png","1","","2024-03-01T00:00:00.000000Z","2024-03-01T00:00:00.000000Z"
"3262","2662-molino-realengo-sl-guadassuar","Granja de porcina y cerdas en Valencia","39.187977","-0.47686","Coordinates","Lugar Molino Aliño, 46610, Guadassuar, Valencia/valència, España","Valencia","Comunidad Valenciana","Molino Realengo, S.l.","Molino Realengo S.l. Guadassuar","GranjaPorcinaIntensivaDeCerdas","https://granjastransparentes.es/images/animals/pig.png","1","","2024-03-01T00:00:00.000000Z","2024-03-01T00:00:00.000000Z"
"1119","71-granja-nijar","Granja de porcina y cerdas en Almería","36.9377","-2.189","Coordinates","El Sargento, Nijar, 04100, Níjar, Almería, España","Almería","Andalucía","Agropecuaria Del Guadiato S.l.","Granja Níjar","GranjaPorcinaIntensivaDeCerdas","https://granjastransparentes.es/images/animals/pig.png","1","","2024-03-01T00:00:00.000000Z","2024-03-01T00:00:00.000000Z"
"1436","6491-granja-jetsa","Granja de porcina y cerdas en Barcelona","41.61946","2.149521","Coordinates","Molins De Rei A Caldes Km 34, 08181, Sentmenat, Barcelona, España","Barcelona","Cataluña","Caldes Porc, S.a.","Granja Jetsa","GranjaPorcinaIntensivaDeCerdas","https://granjastransparentes.es/images/animals/pig.png","1","","2024-03-01T00:00:00.000000Z","2024-03-01T00:00:00.000000Z"
"1574","10435-finca-el-silo-sl","Granja de porcina en Badajoz","38.204015","-6.255188","Coordinates","Montemolin Kilometro 6.5 Margen Derecha, Fuente De Cantos, 06240, Badajoz, España","Badajoz","Extremadura","Finca El Silo","Finca El Silo, S.l.","GranjaPorcinaIntensiva","https://granjastransparentes.es/images/animals/pig.png","1","","2024-03-01T00:00:00.000000Z","2024-03-01T00:00:00.000000Z"
"1684","7093-granjas-avicope-sl","Granja de avícola en Castelló","39.902812","-0.534366","Coordinates","Partida La Tarihuela. Poligono 13. Parc. 590-592 Y 702, Novaliches, 12450, Jérica, Castellón/castelló, España","Castelló","Comunidad Valenciana","Granjas Avicope S.l.","Granjas Avicope S.l.","GranjaAvícolaIntensiva","https://granjastransparentes.es/images/animals/poultry.png","1","","2024-03-01T00:00:00.000000Z","2024-03-01T00:00:00.000000Z"
"2013","1247-granja-buen-retiro","Granja de porcina y cerdas en Jaén","38.054519","-4.04561","Coordinates","De San Antonio, Andujar, 23740, Andújar, Jaén, España","Jaén","Andalucía","Piensos Jiménez, S.l.","Granja Buen Retiro","GranjaPorcinaIntensivaDeCerdas","https://granjastransparentes.es/images/animals/pig.png","1","","2024-03-01T00:00:00.000000Z","2024-03-01T00:00:00.000000Z"
"374","10104-aitor-iniesta-ortiz","Granja de porcina en Valencia","39.734914","-1.258057","Coordinates","12, Sinarcas, 46320, Valencia/valència, España","Valencia","Comunidad Valenciana","Aitor Iniesta Ortiz","Aitor Iniesta Ortiz","GranjaPorcinaIntensiva","https://granjastransparentes.es/images/animals/pig.png","1","","2024-03-01T00:00:00.000000Z","2024-03-01T00:00:00.000000Z"
"1142","4472-desarrollo-ganadero-porcino-sa-antes-granja-el-paramillo","Granja de porcina y cerdas en Burgos","42.3857","-4.304536","Coordinates","El Paramillo, Melgar De Fernamental, 09100, Burgos, España","Burgos","Castilla y León","Degapor","Desarrollo Ganadero Porcino, S.a (antes Granja El Paramillo)","GranjaPorcinaIntensivaDeCerdas","https://granjastransparentes.es/images/animals/pig.png","1","","2024-03-01T00:00:00.000000Z","2024-03-01T00:00:00.000000Z"
"1331","4356-granja-villanueva-sa-el-pomo","Granja de porcina en Navarra","42.605663","-1.787252","Coordinates","2163 Del Pol. 1 De Artajona, Artajona, 31140, Navarra, España","Navarra","Navarra","Granja Villanueva, S.a.","Granja Villanueva, S.a.-el Pomo","GranjaPorcinaIntensiva","https://granjastransparentes.es/images/animals/pig.png","1","","2024-03-01T00:00:00.000000Z","2024-03-01T00:00:00.000000Z"
"2016","5496-granjas-las-piedras","Granja de porcina en Jaén","37.917572","-3.551824","Coordinates","úbeda-albacete, Linares, 23700, Jaén, España","Jaén","Andalucía","Piensos Jiménez, S.l.","Granjas Las Piedras","GranjaPorcinaIntensiva","https://granjastransparentes.es/images/animals/pig.png","1","","2024-03-01T00:00:00.000000Z","2024-03-01T00:00:00.000000Z"
"2986","9062-viters-familia-sl-cubo-de-la-solana","Granja de porcina y cerdas en Soria","41.589333","-2.403222","Coordinates","La Dehesilla, Cubo De La Solana, 42191, Soria, España","Soria","Castilla y León","Viters Familia, S.l.","Viters Familia, S.l.- Cubo De La Solana","GranjaPorcinaIntensivaDeCerdas","https://granjastransparentes.es/images/animals/pig.png","1","","2024-03-01T00:00:00.000000Z","2024-03-01T00:00:00.000000Z"
"3450","2063-granja-avicola-castro-marrero","Granja de avícola en Santa Cruz de Tenerife","28.358125","-16.377354","Coordinates","General Del Sur, Candelaria, 38530, Santa Cruz De Tenerife, España","Santa Cruz de Tenerife","Canarias","C.b. Castro Marrero","Granja Avícola Castro Marrero","GranjaAvícolaIntensiva","https://granjastransparentes.es/images/animals/poultry.png","1","","2024-03-01T00:00:00.000000Z","2024-03-01T00:00:00.000000Z"
"1528","8205-agroadaja-sl","Granja de porcina y cerdas en Ávila","40.788856","-4.650725","Coordinates","5 (paraje  ""los Astiles""), Santo Domingo De Las Posadas, 05295, ávila, España","Ávila","Castilla y León","Agroadaja, S.l.","Agroadaja S.l","GranjaPorcinaIntensivaDeCerdas","https://granjastransparentes.es/images/animals/pig.png","1","","2024-03-01T00:00:00.000000Z","2024-03-01T00:00:00.000000Z"
"2859","2862-es501630000802-gallinas-maria-de-huerva","Granja de avícola en Zaragoza","41.529362","-1.00704","Coordinates","Los Carros, Maria De Huerva, 50430, María De Huerva, Zaragoza, España","Zaragoza","Aragón","Avicola Los Morenicos S.l.","Gallinas-maría De Huerva","GranjaAvícolaIntensiva","https://granjastransparentes.es/images/animals/poultry.png","1","","2024-03-01T00:00:00.000000Z","2024-03-01T00:00:00.000000Z"
"1164","9124-granja-serra-magra","Granja de porcina y cerdas en Girona","41.838634","2.713344","Coordinates","Serra Magra, 17421, Riudarenes, Girona, España","Girona","Cataluña","Selección Batallé, S.a.","Granja Serra Magra","GranjaPorcinaIntensivaDeCerdas","https://granjastransparentes.es/images/animals/pig.png","1","","2024-03-01T00:00:00.000000Z","2024-03-01T00:00:00.000000Z"
"1167","896-granja-badia","Granja de porcina y cerdas en Girona","42.136433","2.604915","Coordinates","Ctra.mieres A Santa Pau, 17811, Santa Pau, Girona, España","Girona","Catalunya","Selección Batallé, S.a.","Granja Badia","GranjaPorcinaIntensivaDeCerdas","https://granjastransparentes.es/images/animals/pig.png","1","","2024-03-01T00:00:00.000000Z","2024-03-01T00:00:00.000000Z"
"2501","4283-granja-intorcisa","Granja de porcina y cerdas en Palencia","42.774083","-4.808022","Coordinates","La Cerra, Intorcisa, 34879, Guardo, Palencia, España","Palencia","Castilla y León","Desarrollos Porcinos De Castilla Y León, S.l.","Granja Intorcisa","GranjaPorcinaIntensivaDeCerdas","https://granjastransparentes.es/images/animals/pig.png","1","","2024-03-01T00:00:00.000000Z","2024-03-01T00:00:00.000000Z"
"2699","2567-agrotis-perez-sl","Granja de porcina y cerdas en Toledo","39.8448","-5.0256","Coordinates","Ctra. Calera Cm 4101. Km. 17,200. Calera Y Chozas (toledo), Calera Y Chozas, 45600, Toledo, España","Toledo","Castilla-La Mancha","Agrotis Pérez, S.l.","Agrotis Pérez S.l.","GranjaPorcinaIntensivaDeCerdas","https://granjastransparentes.es/images/animals/pig.png","1","","2024-03-01T00:00:00.000000Z","2024-03-01T00:00:00.000000Z"
"3633","3971-copiso-soria-soc-coop-la-rubia","Granja de porcina y cerdas en Soria","41.88656","-2.382317","Coordinates","3 (paraje ""el Tellarón""), Rubia (la), 42162, Villares De Soria, Los, Soria, España","Soria","Castilla y León","Copiso Soria Soc. Coop.","Copiso Soria Soc. Coop. (la Rubia)","GranjaPorcinaIntensivaDeCerdas","https://granjastransparentes.es/images/animals/pig.png","1","","2024-03-01T00:00:00.000000Z","2024-03-01T00:00:00.000000Z"
"2712","7270-aviman-explotaciones-ganaderas-sl","Granja de avícola en Toledo","39.4388","-3.7732","Coordinates","Polígono 4 Parcela 14  Manzaneque (toledo), Manzaneque, 45460, Toledo, España","Toledo","Castilla-La Mancha","Aviman Explotaciones Ganaderas S.l.","Aviman Explotaciones Ganaderas S.l.","GranjaAvícolaIntensiva","https://granjastransparentes.es/images/animals/poultry.png","1","","2024-03-01T00:00:00.000000Z","2024-03-01T00:00:00.000000Z"
"3190","7220-cid-diaz-comercial-ganadera-sl-finca-la-companza","Granja de porcina en Toledo","40.1599","-4.3495","Coordinates","Finca La Companza. Polígono 13, Parcela 9.  Escalona  45.910 (toledo), Escalona, 45046, Toledo, España","Toledo","Castilla-La Mancha","Cid Diaz Comercial Ganadera Sl","Cid Diaz Comercial Ganadera Sl   Finca La Companza","GranjaPorcinaIntensiva","https://granjastransparentes.es/images/animals/pig.png","1","","2024-03-01T00:00:00.000000Z","2024-03-01T00:00:00.000000Z"
"3601","1900-explotacion-de-pollos-engorde-a-piuca-maceda","Granja de avícola en Ourense","42.280539","-7.690584","Coordinates","Piuca - Maceda, Piuca, 32003, Maceda, Ourense, España","Ourense","","Cooperativa La Piuca","Explotacion De Pollos Engorde A Piuca Maceda","GranjaAvícolaIntensiva","https://granjastransparentes.es/images/animals/poultry.png","1","","2024-03-01T00:00:00.000000Z","2024-03-01T00:00:00.000000Z"
"1703","783-granjas-san-luis-granxa-lendo","Granja de porcina en A Coruña","43.264466","-8.62005","Coordinates","Carris. Parroquia De Lendo, Xesteira, 15145, Laracha, A, Coruña (a), España","A Coruña","","Incripor Galicia","Granjas San Luis-granxa Lendo","GranjaPorcinaIntensiva","https://granjastransparentes.es/images/animals/pig.png","1","","2024-03-01T00:00:00.000000Z","2024-03-01T00:00:00.000000Z"
"2023","4164-hermanos-oblanca-granja-san-francisco","Granja de avícola en Valladolid","42.100556","-5.026944","Coordinates","San Francisco, Villalon De Campos, 47600, Villalón De Campos, Valladolid, España","Valladolid","Castilla y León","Hermanos Oblanca, S.l.","Hermanos Oblanca - Granja San Francisco","GranjaAvícolaIntensiva","https://granjastransparentes.es/images/animals/poultry.png","1","","2024-03-01T00:00:00.000000Z","2024-03-01T00:00:00.000000Z"
"2288","10696-granja-avicola","Granja de avícola en Murcia","37.777097","-0.98362","Coordinates","Los Martinez De Hortichuela, Hortichuela, 30700, Torre-pacheco, Murcia, España","Murcia","Región de Murcia","Granja Avicola Gabriel Pérez S.l","Granja Avicola","GranjaAvícolaIntensiva","https://granjastransparentes.es/images/animals/poultry.png","1","","2024-03-01T00:00:00.000000Z","2024-03-01T00:00:00.000000Z"
"2545","7870-finca-noguez","Granja de porcina en Salamanca","41.106003","-6.041342","Coordinates","Trabanca, Noguez, 37100, Ledesma, Salamanca, España","Salamanca","Castilla y León","Sierra Del Pimpollar, S.l","Finca Noguez","GranjaPorcinaIntensiva","https://granjastransparentes.es/images/animals/pig.png","1","","2024-03-01T00:00:00.000000Z","2024-03-01T00:00:00.000000Z"
"2661","8314-granja-avicola-san-antonio-iii","Granja de avícola en Toledo","39.6031","-3.6631","Coordinates","Parcelas 331, 332, 333 Del Polígono 27, Turleque, 45789, Toledo, España","Toledo","Castilla-La Mancha","Granja Avícola San Antonio S.l.","Granja Avícola San Antonio (iii)","GranjaAvícolaIntensiva","https://granjastransparentes.es/images/animals/poultry.png","1","","2024-03-01T00:00:00.000000Z","2024-03-01T00:00:00.000000Z"
"3203","7247-explotacion-ganadera-nuestra-senora-del-pilar-s-l","Granja de porcina en Toledo","39.9108","-4.6679","Coordinates","Paraje Del Hinojo. Parc. 34, Pol.76. La Pueblanueva  45.690 (toledo), Pueblanueva (la), 45011, Pueblanueva, La, Toledo, España","Toledo","Castilla-La Mancha","Explotacion Ganadera Nuestra Señora Del Pilar, S. L.","Explotacion Ganadera Nuestra Señora Del Pilar, S. L.","GranjaPorcinaIntensiva","https://granjastransparentes.es/images/animals/pig.png","1","","2024-03-01T00:00:00.000000Z","2024-03-01T00:00:00.000000Z"
"3642","8907-germans-sunyer-rams-sat","Granja de avícola en Tarragona","41.096475","0.302789","Coordinates","Partida Fonobella, 43786, Batea, Tarragona, España","Tarragona","Cataluña","Germans Sunyer Rams, Sat","Germans Sunyer Rams Sat","GranjaAvícolaIntensiva","https://granjastransparentes.es/images/animals/poultry.png","1","","2024-03-01T00:00:00.000000Z","2024-03-01T00:00:00.000000Z"
"1267","11246-granja-fortuna","Granja de porcina y cerdas en Murcia","38.155725","-1.140316","Coordinates","Los Salteadores, Fortuna, 30012, Murcia, España","Murcia","Región de Murcia","Porcisan, S.a.","Granja Fortuna","GranjaPorcinaIntensivaDeCerdas","https://granjastransparentes.es/images/animals/pig.png","1","","2024-03-01T00:00:00.000000Z","2024-03-01T00:00:00.000000Z"
"1372","6462-aldover","Granja de avícola en Tarragona","40.863571","0.506151","Coordinates","Diseminat- Pla D'illes- Pol. 7 Par.216, 43591, Aldover, Tarragona, España","Tarragona","Cataluña","Agustin Roig, Sa","Aldover","GranjaAvícolaIntensiva","https://granjastransparentes.es/images/animals/poultry.png","1","","2024-03-01T00:00:00.000000Z","2024-03-01T00:00:00.000000Z"
"2425","2068-huevos-guillen-canarias-sl","Granja de avícola en Santa Cruz de Tenerife","28.12177","-16.54503","Coordinates","Atogo-san Isidro, Granadilla De Abona, 38611, Santa Cruz De Tenerife, España","Santa Cruz de Tenerife","Canarias","Huevos Guillén Canarias, S.l.","Huevos Guillen Canarias, S.l.","GranjaAvícolaIntensiva","https://granjastransparentes.es/images/animals/poultry.png","1","","2024-03-01T00:00:00.000000Z","2024-03-01T00:00:00.000000Z"
"2532","2351-granja-la-capellania","Granja de porcina y cerdas en Sevilla","37.681762","-5.016024","Coordinates","écija - Fuente Palmera, Km 14. Finca El Peral, Ecija, 41400, écija, Sevilla, España","Sevilla","Andalucía","Agasur, S.l.","Granja La Capellanía","GranjaPorcinaIntensivaDeCerdas","https://granjastransparentes.es/images/animals/pig.png","1","","2024-03-01T00:00:00.000000Z","2024-03-01T00:00:00.000000Z"
"2746","10344-segomasa-porcino-s-l","Granja de porcina en Toledo","39.9916","-4.6361","Coordinates","Paraje La Fuentecilla, Lucillos, 45554, Toledo, España","Toledo","Castilla-La Mancha","Segomasa Porcino, S.l.","Segomasa Porcino, S. L.","GranjaPorcinaIntensiva","https://granjastransparentes.es/images/animals/pig.png","1","","2024-03-01T00:00:00.000000Z","2024-03-01T00:00:00.000000Z"
"3048","849-can-gavina","Granja de porcina en Girona","41.752848","2.758604","Coordinates","Can Gavina, 17412, Maçanet De La Selva, Girona, España","Girona","Cataluña","Soler Ramaders, S.l.","Can Gavina","GranjaPorcinaIntensiva","https://granjastransparentes.es/images/animals/pig.png","1","","2024-03-01T00:00:00.000000Z","2024-03-01T00:00:00.000000Z"
"4033","8903-germans-llaurado-ferre","Granja de avícola en Tarragona","41.128392","1.074893","Coordinates","Ctra. Reus A Vinyols,  Pol 37 Par 47/68, 43330, Riudoms, Tarragona, España","Tarragona","Catalunya","Granges Germans Llaurado Ferre Scp","Germans Llauradó Ferré","GranjaAvícolaIntensiva","https://granjastransparentes.es/images/animals/poultry.png","1","","2024-03-01T00:00:00.000000Z","2024-03-01T00:00:00.000000Z"
"1745","8853-mas-arcous","Granja de porcina en Girona","42.078197","2.574533","Coordinates","Masia Els Arcous, 17154, Sant Aniol De Finestres, Girona, España","Girona","Catalunya","Explotacions Agricoles Arcous Sl","Mas Arcous","GranjaPorcinaIntensiva","https://granjastransparentes.es/images/animals/pig.png","1","","2024-03-01T00:00:00.000000Z","2024-03-01T00:00:00.000000Z"
"2325","2836-es500950000223-granja-los-alecos","Granja de porcina en Zaragoza","42.056419","-1.166397","Coordinates","Parcela 9 Polígono 18, Ejea De Los Caballeros, 50600, Zaragoza, España","Zaragoza","Aragón","Granja Los Alecos, Sl","Granja Los Alecos","GranjaPorcinaIntensiva","https://granjastransparentes.es/images/animals/pig.png","1","","2024-03-01T00:00:00.000000Z","2024-03-01T00:00:00.000000Z"
"1467","3633-avicola-arbaraitz-sl","Granja de avícola en Araba","42.872005","-2.249579","Coordinates","Diseminados, 01260, Asparrena, Alava, España","Araba","Euskadi","Avicola Arbaraitz, S.l.","Avicola Arbaraitz, S.l.","GranjaAvícolaIntensiva","https://granjastransparentes.es/images/animals/poultry.png","1","","2024-03-01T00:00:00.000000Z","2024-03-01T00:00:00.000000Z"
"1170","8215-seleccion-batalle-sa","Granja de porcina y cerdas en Zamora","41.678422","-5.767286","Coordinates","De La Peña, San Cebrian De Castro, 49144, San Cebrián De Castro, Zamora, España","Zamora","Castilla y León","Selección Batallé, S.a.","Selección Batallé, S.a.","GranjaPorcinaIntensivaDeCerdas","https://granjastransparentes.es/images/animals/pig.png","1","","2024-03-01T00:00:00.000000Z","2024-03-01T00:00:00.000000Z"
"1272","7339-porcisan-sa-explotacion-porcina-aai-ab-035","Granja de porcina y cerdas en Albacete","39.1433","-1.6215","Coordinates","El Cañorro, Poligono 9. Parcela 6158, Valdeganga, 02150, Albacete, España","Albacete","Castilla-La Mancha","Porcisan, S.a.","Porcisan, S.a.-explotación Porcina (aai-ab-035)","GranjaPorcinaIntensivaDeCerdas","https://granjastransparentes.es/images/animals/pig.png","1","","2024-03-01T00:00:00.000000Z","2024-03-01T00:00:00.000000Z"
"2448","4231-granja-valdelobos","Granja de porcina y cerdas en Segovia","41.033275","-4.144097","Coordinates","Las Mimbreras, Encinillas, 40391, Segovia, España","Segovia","Castilla y León","Castellana De Porcino, S.l.","Granja Valdelobos","GranjaPorcinaIntensivaDeCerdas","https://granjastransparentes.es/images/animals/pig.png","1","","2024-03-01T00:00:00.000000Z","2024-03-01T00:00:00.000000Z"
"500","5293-cebadero-jose-marin-sanchez","Granja de porcina en Murcia","37.848649","-1.36873","Coordinates","Polígono 6 Parcela 147 Paraje La Mata, Alhama De Murcia, 30840, Murcia, España","Murcia","Región de Murcia","José Marín Sánchez","Cebadero José Marín Sánchez","GranjaPorcinaIntensiva","https://granjastransparentes.es/images/animals/pig.png","1","","2024-03-01T00:00:00.000000Z","2024-03-01T00:00:00.000000Z"
"1346","4391-ealusa4391","Granja de porcina y cerdas en Palencia","42.568083","-4.710556","Coordinates","Ds Diseminados Vilq 23, Villasur, 34115, Saldaña, Palencia, España","Palencia","Castilla y León","Agropecuaria Loma De Ucieza, S.a.","Ealusa:4391","GranjaPorcinaIntensivaDeCerdas","https://granjastransparentes.es/images/animals/pig.png","1","","2024-03-01T00:00:00.000000Z","2024-03-01T00:00:00.000000Z"
"2323","3776-granja-los-alecos-milagros","Granja de porcina y cerdas en Burgos","41.598889","-3.7","Coordinates","Los Quejigales, Milagros, 09460, Burgos, España","Burgos","Castilla y León","Granja Los Alecos, Sl","Granja Los Alecos - Milagros","GranjaPorcinaIntensivaDeCerdas","https://granjastransparentes.es/images/animals/pig.png","1","","2024-03-01T00:00:00.000000Z","2024-03-01T00:00:00.000000Z"
"28","8561-rosa-isabel-serrano-alonso-aai-to-336","Granja de avícola en Toledo","40.1232","-3.96646","Coordinates","Polígono 11, Parcela 123, 45213, Palomeque, Toledo, España","Toledo","Castilla-La Mancha","Rosa Isabel Serrano Alonso","Rosa Isabel Serrano Alonso (aai-to-336)","GranjaAvícolaIntensiva","https://granjastransparentes.es/images/animals/poultry.png","1","","2024-03-01T00:00:00.000000Z","2024-03-01T00:00:00.000000Z"
"1366","5177-el-fontanal","Granja de avícola en Sevilla","37.123215","-5.480901","Coordinates","Morón - Sevilla, Moron De La Frontera, 41530, Morón De La Frontera, Sevilla, España","Sevilla","Andalucía","E.a.g.s.a.","El Fontanal","GranjaAvícolaIntensiva","https://granjastransparentes.es/images/animals/poultry.png","1","","2024-03-01T00:00:00.000000Z","2024-03-01T00:00:00.000000Z"
"2050","1327-granja-giribet","Granja de porcina en Lleida","41.688966","1.061463","Coordinates","Partida Aguinella, Anglesola, 25262, Lleida, España","Lleida","Catalunya","Piegi, Sl","Granja Giribet","GranjaPorcinaIntensiva","https://granjastransparentes.es/images/animals/pig.png","1","","2024-03-01T00:00:00.000000Z","2024-03-01T00:00:00.000000Z"
"3689","3140-granja-banus-ii","Granja de porcina en Barcelona","41.629891","2.151521","Coordinates","Paratge Les Serres, 08181, Sentmenat, Barcelona, España","Barcelona","Catalunya","S.a.t. Banus 1330 Cat","Granja Banus Ii","GranjaPorcinaIntensiva","https://granjastransparentes.es/images/animals/pig.png","1","","2024-03-01T00:00:00.000000Z","2024-03-01T00:00:00.000000Z"
"154","836-emilio-garces-y-otros","Granja de porcina y cerdas en Zaragoza","41.93","-1.27","Coordinates","10 Parcela 926, 50660, Tauste, Zaragoza, España","Zaragoza","Aragón","Emilio Garces Y Otros","Emilio Garces Y Otros","GranjaPorcinaIntensivaDeCerdas","https://granjastransparentes.es/images/animals/pig.png","1","","2024-03-01T00:00:00.000000Z","2024-03-01T00:00:00.000000Z"
"1597","9743-granja-domenech","Granja de porcina y cerdas en Girona","42.181441","2.180127","Coordinates","Barri Bruch, 17500, Ripoll, Girona, España","Girona","Catalunya","Granges Terragrisa, S.l.u.","Granja Domènech","GranjaPorcinaIntensivaDeCerdas","https://granjastransparentes.es/images/animals/pig.png","1","","2024-03-01T00:00:00.000000Z","2024-03-01T00:00:00.000000Z"
"1211","10672-es221240000043-huerto-alpes","Granja de porcina en Huesca","41.931307","-0.167642","Coordinates","Sn, Huerto, 22210, Huesca, España","Huesca","Aragón","Integraciones Porcinas Del Pirineo 2015 S.a.","Huerto-alpes","GranjaPorcinaIntensiva","https://granjastransparentes.es/images/animals/pig.png","1","","2024-03-01T00:00:00.000000Z","2024-03-01T00:00:00.000000Z"
"1283","1724-granja-seleccion-esperanza","Granja de porcina y cerdas en Murcia","37.95","-1.5","Coordinates","La Esperanza, S/n, Pliego, 30840, Murcia, España","Murcia","Región de Murcia","Cefu, S.a.","Granja Selección Esperanza","GranjaPorcinaIntensivaDeCerdas","https://granjastransparentes.es/images/animals/pig.png","1","","2024-03-01T00:00:00.000000Z","2024-03-01T00:00:00.000000Z"
"1413","7708-es502110000007-cerdos-plasencia-de-jalon","Granja de porcina y cerdas en Zaragoza","41.704308","-1.263633","Coordinates","7, Parcelas 5b Y 324d, Plasencia De Jalon, 50296, Plasencia De Jalón, Zaragoza, España","Zaragoza","Aragón","Cerdos Del Jalon, S.a.u.","Cerdos-plasencia De Jalón","GranjaPorcinaIntensivaDeCerdas","https://granjastransparentes.es/images/animals/pig.png","1","","2024-03-01T00:00:00.000000Z","2024-03-01T00:00:00.000000Z"
"2011","1244-hacienda-mendoza","Granja de porcina y cerdas en Jaén","37.917572","-3.551824","Coordinates","Jaén-ubeda Km 23 (junto A Puente Del Obispo), Baeza, 23440, Jaén, España","Jaén","Andalucía","Piensos Jiménez, S.l.","Hacienda Mendoza","GranjaPorcinaIntensivaDeCerdas","https://granjastransparentes.es/images/animals/pig.png","1","","2024-03-01T00:00:00.000000Z","2024-03-01T00:00:00.000000Z"
"2754","7291-agripork-tajo-sl","Granja de porcina y cerdas en Toledo","39.9935","-4.6984","Coordinates","Pol. 12, Parcelas 88 Y 205 Paraje La Escuadra, Cazalegas, Cazalegas, 45600, Toledo, España","Toledo","Castilla-La Mancha","Agripork Tajo S.l.","Agripork Tajo S.l.","GranjaPorcinaIntensivaDeCerdas","https://granjastransparentes.es/images/animals/pig.png","1","","2024-03-01T00:00:00.000000Z","2024-03-01T00:00:00.000000Z"
"1426","2961-es501820000010-cerdos-muela-la","Granja de porcina y cerdas en Zaragoza","41.560787","-1.114959","Coordinates","Parcela 67, Polígono 28, Muela (la), 50196, Muela, La, Zaragoza, España","Zaragoza","Aragón","Granja El Cerdo Alegre S.a.","Cerdos-muela (la)","GranjaPorcinaIntensivaDeCerdas","https://granjastransparentes.es/images/animals/pig.png","1","","2024-03-01T00:00:00.000000Z","2024-03-01T00:00:00.000000Z"
"2695","5638-granja-avicola-el-angel","Granja de avícola en Toledo","40.1091","-3.9423","Coordinates","Ctra. Cedillo - Lominchar, Km. 14. Cedillo Del Condado  45.214 (toledo), Cedillo Del Condado, 45212, Toledo, España","Toledo","Castilla-La Mancha","Granja Avícola El ángel, S.l.","Granja Avícola El ángel","GranjaAvícolaIntensiva","https://granjastransparentes.es/images/animals/poultry.png","1","","2024-03-01T00:00:00.000000Z","2024-03-01T00:00:00.000000Z"
"3137","9812-explotacion-avicola-de-pollo-de-engorde","Granja de avícola en Cádiz","36.843","-5.61","Coordinates","Ahumada, Polígono 52, Parcela, Nº, Villamartin, 11650, Villamartín, Cádiz, España","Cádiz","Andalucía","Explotación Avícola Villamartín 1, S.l.","Explotación Avícola De Pollo De Engorde","GranjaAvícolaIntensiva","https://granjastransparentes.es/images/animals/poultry.png","1","","2024-03-01T00:00:00.000000Z","2024-03-01T00:00:00.000000Z"
"1178","1018-dagu-valdeavero","Granja de avícola en Madrid","40.63436","-3.331703","Coordinates","El Pedroso, Valdeavero, 28816, Madrid, España","Madrid","Comunidad de Madrid","Dagu, S.a.","Dagu-valdeavero","GranjaAvícolaIntensiva","https://granjastransparentes.es/images/animals/poultry.png","1","","2024-03-01T00:00:00.000000Z","2024-03-01T00:00:00.000000Z"
"2706","11375-agropecuaria-los-sauces-sl","Granja de porcina en Toledo","39.971","-4.474","Coordinates","Parage Culgamuros Pol 1 Parcela196, Carriches, 45532, Toledo, España","Toledo","Castilla-La Mancha","Agropecuaria Los Sauces S.l.","Agropecuaria Los Sauces S.l.","GranjaPorcinaIntensiva","https://granjastransparentes.es/images/animals/pig.png","1","","2024-03-01T00:00:00.000000Z","2024-03-01T00:00:00.000000Z"
"2951","6930-es500950000328-cerdos-ejea-de-los-caballeros","Granja de porcina y cerdas en Zaragoza","42.105576","-1.304135","Coordinates","Poligono 106 Parcela 5036 Y 5037, Bardena Del Caudillo, 50600, Ejea De Los Caballeros, Zaragoza, España","Zaragoza","Aragón","Desarrollos Industriales Sora Sl","Cerdos-ejea De Los Caballeros","GranjaPorcinaIntensivaDeCerdas","https://granjastransparentes.es/images/animals/pig.png","1","","2024-03-01T00:00:00.000000Z","2024-03-01T00:00:00.000000Z"
"2989","10572-viters-familia-sl-cabanillas","Granja de porcina y cerdas en Soria","41.386673","-2.35446","Coordinates","Parcela 65, Pol 6, Cabanillas, 42225, Alentisque, Soria, España","Soria","Castilla y León","Viters Familia, S.l.","Viters Familia, S.l.- Cabanillas","GranjaPorcinaIntensivaDeCerdas","https://granjastransparentes.es/images/animals/pig.png","1","","2024-03-01T00:00:00.000000Z","2024-03-01T00:00:00.000000Z"
"3395","9806-granja-avicola-intensiva-de-pollos-de-engorde","Granja de avícola en Granada","37.18","-3.009","Coordinates","De Ferreira, Dolar, 18512, Dólar, Granada, España","Granada","Andalucía","Martinez Garcia Y Molina Fernandez, C.b.","Granja Avícola Intensiva De Pollos De Engorde","GranjaAvícolaIntensiva","https://granjastransparentes.es/images/animals/poultry.png","1","","2024-03-01T00:00:00.000000Z","2024-03-01T00:00:00.000000Z"
"3474","4350-es440280000001-cerdos-argente","Granja de porcina en Teruel","40.681633","-1.161386","Coordinates","Polígono 33, Parcela 188, Argente, 44165, Teruel, España","Teruel","Aragón","Alcaben C.b.","Cerdos-argente","GranjaPorcinaIntensiva","https://granjastransparentes.es/images/animals/pig.png","1","","2024-03-01T00:00:00.000000Z","2024-03-01T00:00:00.000000Z"
"1632","5974-granja-avicola-alvarez-sl","Granja de avícola en Burgos","42.514792","-4.028278","Coordinates","607, Villadiego, 09120, Burgos, España","Burgos","Castilla y León","Avícola álvarez","Granja Avícola álvarez, S.l.","GranjaAvícolaIntensiva","https://granjastransparentes.es/images/animals/poultry.png","1","","2024-03-01T00:00:00.000000Z","2024-03-01T00:00:00.000000Z"
"2014","1248-granja-el-piquillo","Granja de porcina y cerdas en Jaén","37.964508","-3.806714","Coordinates","Nacional 323, Jabalquinto, 23712, Jaén, España","Jaén","Andalucía","Piensos Jiménez, S.l.","Granja El Piquillo","GranjaPorcinaIntensivaDeCerdas","https://granjastransparentes.es/images/animals/pig.png","1","","2024-03-01T00:00:00.000000Z","2024-03-01T00:00:00.000000Z"
"2625","2522-es222540000144-cerdos-zaidin","Granja de porcina en Huesca","41.603996","0.264938","Coordinates","Poligono 7, Parcelas 91 Y 98, Zaidin, 22000, Zaidín, Huesca, España","Huesca","Aragón","Peggy Farm, S.l.","Cerdos-zaidín","GranjaPorcinaIntensiva","https://granjastransparentes.es/images/animals/pig.png","1","","2024-03-01T00:00:00.000000Z","2024-03-01T00:00:00.000000Z"
"3688","7961-granja-sanco","Granja de porcina y cerdas en Barcelona","41.621043","2.170158","Coordinates","Paratge Les Brugueres, 08140, Caldes De Montbui, Barcelona, España","Barcelona","Catalunya","S.a.t. Banus 1330 Cat","Granja Sanco","GranjaPorcinaIntensivaDeCerdas","https://granjastransparentes.es/images/animals/pig.png","1","","2024-03-01T00:00:00.000000Z","2024-03-01T00:00:00.000000Z"
"915","10934-es441910000012-puebla-de-hijar-la","Granja de porcina en Teruel","41.246576","-0.448467","Coordinates","Loma La Balsa, Puebla De Hijar (la), 44510, Puebla De Híjar, La, Teruel, España","Teruel","Aragón","Alejandro Molina Cañizares","Puebla De Híjar (la)","GranjaPorcinaIntensiva","https://granjastransparentes.es/images/animals/pig.png","1","","2024-03-01T00:00:00.000000Z","2024-03-01T00:00:00.000000Z"
"1229","1288-ganados-gili-torregrossa","Granja de porcina y cerdas en Lleida","41.584502","0.827022","Coordinates","Pda. Planes, 25141, Torregrossa, Lleida, España","Lleida","Catalunya","Ganados Gili, Sa","Ganados Gili (torregrossa)","GranjaPorcinaIntensivaDeCerdas","https://granjastransparentes.es/images/animals/pig.png","1","","2024-03-01T00:00:00.000000Z","2024-03-01T00:00:00.000000Z"
"1486","7228-granja-porcina-san-juan-s-l","Granja de porcina en Albacete","38.6776","-1.9947","Coordinates","Pol. 504 Parcela 87 Albacete, Albacete, 02002, España","Albacete","Castilla-La Mancha","Granja Porcina San Juan, S. L.","Granja Porcina San Juan, S. L.","GranjaPorcinaIntensiva","https://granjastransparentes.es/images/animals/pig.png","1","","2024-03-01T00:00:00.000000Z","2024-03-01T00:00:00.000000Z"
"1175","8056-dagu-sa","Granja de avícola en Guadalajara","40.7058","-3.1689","Coordinates","Fontanar, Guadalajara, 19080, España","Guadalajara","Castilla-La Mancha","Dagu, S.a.","Dagu, S.a.","GranjaAvícolaIntensiva","https://granjastransparentes.es/images/animals/poultry.png","1","","2024-03-01T00:00:00.000000Z","2024-03-01T00:00:00.000000Z"
"1335","1793-granja-dos-hermanas-iraneta","Granja de porcina y cerdas en Navarra","42.92497","-1.94417","Coordinates","Camino  De  Murguindueta, Irañeta, 31849, Navarra, España","Navarra","Navarra","Granja  Dos  Hermanas, S.a.","Granja Dos Hermanas-irañeta","GranjaPorcinaIntensivaDeCerdas","https://granjastransparentes.es/images/animals/pig.png","1","","2024-03-01T00:00:00.000000Z","2024-03-01T00:00:00.000000Z"
"2887","2909-es500950000017-el-bayo","Granja de porcina y cerdas en Zaragoza","42.165462","-1.294801","Coordinates","Poligono 102 Parcela 39, Bardena Del Caudillo, 50694, Ejea De Los Caballeros, Zaragoza, España","Zaragoza","Aragón","Casanova Y Sumelzo S.l.","El Bayo","GranjaPorcinaIntensivaDeCerdas","https://granjastransparentes.es/images/animals/pig.png","1","","2024-03-01T00:00:00.000000Z","2024-03-01T00:00:00.000000Z"
"3669","10702-es441010000804-ferreruela-de-huerva","Granja de avícola en Teruel","41.043466","-1.270185","Coordinates","501 Parcela 10089, Ferreruela De Huerva, 44490, Teruel, España","Teruel","Aragón","Sat Nº 1733 Granja San Miguel","Ferreruela De Huerva","GranjaAvícolaIntensiva","https://granjastransparentes.es/images/animals/poultry.png","1","","2024-03-01T00:00:00.000000Z","2024-03-01T00:00:00.000000Z"
"932","10400-es222250000800-tamarite-de-litera","Granja de avícola en Huesca","41.856929","0.437654","Coordinates","80,81  _ Poligono, Tamarite De Litera, 22550, Huesca, España","Huesca","Aragón","Juan Benedico Soler","Tamarite De Litera","GranjaAvícolaIntensiva","https://granjastransparentes.es/images/animals/poultry.png","1","","2024-03-01T00:00:00.000000Z","2024-03-01T00:00:00.000000Z"
"1643","8201-agropecuaria-de-caleruega-sl","Granja de porcina y cerdas en Burgos","41.799617","-3.516178","Coordinates","Real, Caleruega, 09451, Burgos, España","Burgos","Castilla y León","Agropecuaria De Caleruega, S.l.","Agropecuaria De Caleruega S.l","GranjaPorcinaIntensivaDeCerdas","https://granjastransparentes.es/images/animals/pig.png","1","","2024-03-01T00:00:00.000000Z","2024-03-01T00:00:00.000000Z"
"2021","1473-granja-la-cerca","Granja de avícola en Jaén","38.023651","-3.308434","Coordinates","Torreperogil - Jodar Granja La Cerca, Torreperogil, 23320, Jaén, España","Jaén","Andalucía","Tío Haro Sl","Granja La Cerca","GranjaAvícolaIntensiva","https://granjastransparentes.es/images/animals/poultry.png","1","","2024-03-01T00:00:00.000000Z","2024-03-01T00:00:00.000000Z"
"2528","2336-granja-paulin-de-san-anton","Granja de porcina y cerdas en Sevilla","37.168215","-5.889292","Coordinates","9, Parcela 7, Utrera, 41710, Sevilla, España","Sevilla","Andalucía","Agropecuaria Del Sol, S.l.","Granja Paulín De San Antón","GranjaPorcinaIntensivaDeCerdas","https://granjastransparentes.es/images/animals/pig.png","1","","2024-03-01T00:00:00.000000Z","2024-03-01T00:00:00.000000Z"
"3251","7657-grupo-avicola-la-cresta","Granja de avícola en Valencia","39.760516","-1.256981","Coordinates","15 Parcelas 24,30-34 Y Otras, 46320, Sinarcas, Valencia/valència, España","Valencia","Comunidad Valenciana","Grupo Avícola La Cresta, S.l.","Grupo Avicola La Cresta","GranjaAvícolaIntensiva","https://granjastransparentes.es/images/animals/poultry.png","1","","2024-03-01T00:00:00.000000Z","2024-03-01T00:00:00.000000Z"
