establishment_id,establishment_number,establishment_name,duns_number,street,city,state,zip,phone,grant_date,type,dbas,district,circuit,size,latitude,longitude,county,fips_code,meat_exemption_custom_slaughter,poultry_exemption_custom_slaughter,slaughter,meat_slaughter,beef_cow_slaughter,steer_slaughter,heifer_slaughter,bull_stag_slaughter,dairy_cow_slaughter,heavy_calf_slaughter,bob_veal_slaughter,formula_fed_veal_slaughter,non_formula_fed_veal_slaughter,market_swine_slaughter,sow_slaughter,roaster_swine_slaughter,boar_stag_swine_slaughter,stag_swine_slaughter,feral_swine_slaughter,goat_slaughter,young_goat_slaughter,adult_goat_slaughter,sheep_slaughter,lamb_slaughter,deer_reindeer_slaughter,antelope_slaughter,elk_slaughter,bison_slaughter,buffalo_slaughter,water_buffalo_slaughter,cattalo_slaughter,yak_slaughter,other_voluntary_livestock_slaughter,rabbit_slaughter,poultry_slaughter,young_chicken_slaughter,light_fowl_slaughter,heavy_fowl_slaughter,capon_slaughter,young_turkey_slaughter,young_breeder_turkey_slaughter,old_breeder_turkey_slaughter,fryer_roaster_turkey_slaughter,duck_slaughter,goose_slaughter,pheasant_slaughter,quail_slaughter,guinea_slaughter,ostrich_slaughter,emu_slaughter,rhea_slaughter,squab_slaughter,other_voluntary_poultry_slaughter,slaughter_or_processing_only,slaughter_only_class,slaughter_only_species,meat_slaughter_only_species,poultry_slaughter_only_species,slaughter_volume_category,processing_volume_category,beef_processing,pork_processing,antelope_processing,bison_processing,buffalo_processing,deer_processing,elk_processing,goat_processing,other_voluntary_livestock_processing,rabbit_processing,reindeer_processing,sheep_processing,yak_processing,chicken_processing,duck_processing,goose_processing,pigeon_processing,ratite_processing,turkey_processing,exotic_poultry_processing,other_voluntary_poultry_processing
1,1,Ferme de Favreuse - Charles Monville - Poulets Bio,,,,,,,2024-03-01,Animal Production,,,,Unknown,48.739678,2.1979992,,,,,,,,,,,,,,,,,,,,,,,,,,,,,,,,,,,,,,,,,,,,,,,,,,,,,,,,,,,,,Unknown,Unknown,,,,,,,,,,,,,,,,,,,,,
2,2,Ferme du Pignon Blanc,,,,,,,2024-03-01,Animal Production,,,,Unknown,48.5001281,1.9658356,,,,,,,,,,,,,,,,,,,,,,,,,,,,,,,,,,,,,,,,,,,,,,,,,,,,,,,,,,,,,Unknown,Unknown,,,,,,,,,,,,,,,,,,,,,
3,3,Ferme des Parrichets,,,,,,,2024-03-01,Animal Production,,,,Unknown,48.801352,3.0637698,,,,,,,,,,,,,,,,,,,,,,,,,,,,,,,,,,,,,,,,,,,,,,,,,,,,,,,,,,,,,Unknown,Unknown,,,,,,,,,,,,,,,,,,,,,
4,4,Ferme Des Galaches La Brosse,,,,,,,2024-03-01,Animal Production,,,,Unknown,48.182951,2.7973784,,,,,,,,,,,,,,,,,,,,,,,,,,,,,,,,,,,,,,,,,,,,,,,,,,,,,,,,,,,,,Unknown,Unknown,,,,,,,,,,,,,,,,,,,,,
5,5,Ferme Marlotte / Aux Délices De La Terre,,,,,,,2024-03-01,Animal Production,,,,Unknown,48.346469,2.71351100000004,,,,,,,,,,,,,,,,,,,,,,,,,,,,,,,,,,,,,,,,,,,,,,,,,,,,,,,,,,,,,Unknown,Unknown,,,,,,,,,,,,,,,,,,,,,
6,6,Ferme des Tuiles,,,,,,,2024-03-01,Animal Production; Meat Slaughter,,,,Unknown,48.2604411,2.5594516,,,,,,,,,,,,,,,,,,,,,,,,,,,,,,,,,,,,,,,,,,,,,,,,,,,,,,,,,,,,,Unknown,Unknown,,,,,,,,,,,,,,,,,,,,,
7,7,Ferme Traditionnelle Educative,,,,,,,2024-03-01,Exhibition,,,,Unknown,48.7094768,2.55733869999995,,,,,,,,,,,,,,,,,,,,,,,,,,,,,,,,,,,,,,,,,,,,,,,,,,,,,,,,,,,,,Unknown,Unknown,,,,,,,,,,,,,,,,,,,,,
8,8,Ferme du plateau briard,,,,,,,2024-03-01,Animal Production,,,,Unknown,48.7088162,2.548512,,,,,,,,,,,,,,,,,,,,,,,,,,,,,,,,,,,,,,,,,,,,,,,,,,,,,,,,,,,,,Unknown,Unknown,,,,,,,,,,,,,,,,,,,,,
9,9,La Vola'Yerres,,,,,,,2024-03-01,Animal Production,,,,Unknown,48.7265382,3.02112480000005,,,,,,,,,,,,,,,,,,,,,,,,,,,,,,,,,,,,,,,,,,,,,,,,,,,,,,,,,,,,,Unknown,Unknown,,,,,,,,,,,,,,,,,,,,,
10,10,Fermes des Loges,,,,,,,2024-03-01,Animal Production,,,,Unknown,48.8677408,3.0888775,,,,,,,,,,,,,,,,,,,,,,,,,,,,,,,,,,,,,,,,,,,,,,,,,,,,,,,,,,,,,Unknown,Unknown,,,,,,,,,,,,,,,,,,,,,
11,11,Ferme de la Derrier,,,,,,,2024-03-01,Animal Production,,,,Unknown,48.8383324,3.140383,,,,,,,,,,,,,,,,,,,,,,,,,,,,,,,,,,,,,,,,,,,,,,,,,,,,,,,,,,,,,Unknown,Unknown,,,,,,,,,,,,,,,,,,,,,
12,12,Ferme avicole de Villemarechal,,,,,,,2024-03-01,Animal Production,,,,Unknown,48.2837658,2.8641285,,,,,,,,,,,,,,,,,,,,,,,,,,,,,,,,,,,,,,,,,,,,,,,,,,,,,,,,,,,,,Unknown,Unknown,,,,,,,,,,,,,,,,,,,,,
13,13,Ferme des Moënes - Famille GARCES - GAEC de la Basse cour,,,,,,,2024-03-01,Animal Production,,,,Unknown,48.3384378,2.6069841,,,,,,,,,,,,,,,,,,,,,,,,,,,,,,,,,,,,,,,,,,,,,,,,,,,,,,,,,,,,,Unknown,Unknown,,,,,,,,,,,,,,,,,,,,,
14,14,Ferme la Volaille Prunaysienne - famille HARDY,,,,,,,2024-03-01,Animal Production,,,,Unknown,48.3584826,2.3696388,,,,,,,,,,,,,,,,,,,,,,,,,,,,,,,,,,,,,,,,,,,,,,,,,,,,,,,,,,,,,Unknown,Unknown,,,,,,,,,,,,,,,,,,,,,
15,15,Ferme du Fourcheret - Laurent RAYMOND,,,,,,,2024-03-01,Animal Production,,,,Unknown,48.4090372,2.3950072,,,,,,,,,,,,,,,,,,,,,,,,,,,,,,,,,,,,,,,,,,,,,,,,,,,,,,,,,,,,,Unknown,Unknown,,,,,,,,,,,,,,,,,,,,,
16,16,Les P'tites Cocottes d'Edith,,,,,,,2024-03-01,Animal Production,,,,Unknown,48.5004739,2.1677514,,,,,,,,,,,,,,,,,,,,,,,,,,,,,,,,,,,,,,,,,,,,,,,,,,,,,,,,,,,,,Unknown,Unknown,,,,,,,,,,,,,,,,,,,,,
17,17,Élevage Avicole Saint Georges,,,,,,,2024-03-01,Animal Production,,,,Unknown,48.9198966,2.9734725,,,,,,,,,,,,,,,,,,,,,,,,,,,,,,,,,,,,,,,,,,,,,,,,,,,,,,,,,,,,,Unknown,Unknown,,,,,,,,,,,,,,,,,,,,,
18,18,Ferme de Dieu l'Amant - Earl Birckel,,,,,,,2024-03-01,Animal Production,,,,Unknown,48.9204317,2.9709302,,,,,,,,,,,,,,,,,,,,,,,,,,,,,,,,,,,,,,,,,,,,,,,,,,,,,,,,,,,,,Unknown,Unknown,,,,,,,,,,,,,,,,,,,,,
19,19,Ferme des Fourneaux,,,,,,,2024-03-01,Animal Production,,,,Unknown,48.5741228,2.3504198,,,,,,,,,,,,,,,,,,,,,,,,,,,,,,,,,,,,,,,,,,,,,,,,,,,,,,,,,,,,,Unknown,Unknown,,,,,,,,,,,,,,,,,,,,,
20,20,(Fermé depuis 2021) Domaine du Mesnil St Martin,,,,,,,2024-03-01,Animal Production,,,,Unknown,49.1805474,2.2337859,,,,,,,,,,,,,,,,,,,,,,,,,,,,,,,,,,,,,,,,,,,,,,,,,,,,,,,,,,,,,Unknown,Unknown,,,,,,,,,,,,,,,,,,,,,
21,21,Le Poulailler d'Havelu (Phillipe Duval),,,,,,,2024-03-01,Animal Production,,,,Unknown,48.7847664,1.5348611,,,,,,,,,,,,,,,,,,,,,,,,,,,,,,,,,,,,,,,,,,,,,,,,,,,,,,,,,,,,,Unknown,Unknown,,,,,,,,,,,,,,,,,,,,,
22,22,EARL Les Bruyères,,,,,,,2024-03-01,Animal Production,,,,Unknown,48.5124649,1.34656,,,,,,,,,,,,,,,,,,,,,,,,,,,,,,,,,,,,,,,,,,,,,,,,,,,,,,,,,,,,,Unknown,Unknown,,,,,,,,,,,,,,,,,,,,,
23,23,Ferme Charreire Michel,,,,,,,2024-03-01,Animal Production,,,,Unknown,49.0467064,1.4682848,,,,,,,,,,,,,,,,,,,,,,,,,,,,,,,,,,,,,,,,,,,,,,,,,,,,,,,,,,,,,Unknown,Unknown,,,,,,,,,,,,,,,,,,,,,
24,24,Ferme du Pizay,,,,,,,2024-03-01,Animal Production; Meat Slaughter,,,,Unknown,48.5919067,1.3900999,,,,,,,,,,,,,,,,,,,,,,,,,,,,,,,,,,,,,,,,,,,,,,,,,,,,,,,,,,,,,Unknown,Unknown,,,,,,,,,,,,,,,,,,,,,
25,25,EARL des Tuileries,,,,,,,2024-03-01,Animal Production,,,,Unknown,48.8634142,1.6123775,,,,,,,,,,,,,,,,,,,,,,,,,,,,,,,,,,,,,,,,,,,,,,,,,,,,,,,,,,,,,Unknown,Unknown,,,,,,,,,,,,,,,,,,,,,
26,26,Les Volailles de Véronique,,,,,,,2024-03-01,Animal Production,,,,Unknown,48.8681073,1.6141831,,,,,,,,,,,,,,,,,,,,,,,,,,,,,,,,,,,,,,,,,,,,,,,,,,,,,,,,,,,,,Unknown,Unknown,,,,,,,,,,,,,,,,,,,,,
27,27,SARL du Moulin,,,,,,,2024-03-01,Animal Production,,,,Unknown,48.7828796,1.5666102,,,,,,,,,,,,,,,,,,,,,,,,,,,,,,,,,,,,,,,,,,,,,,,,,,,,,,,,,,,,,Unknown,Unknown,,,,,,,,,,,,,,,,,,,,,
28,28,Ferme d'Olivet,,,,,,,2024-03-01,Animal Production,,,,Unknown,48.7734926,1.6490874,,,,,,,,,,,,,,,,,,,,,,,,,,,,,,,,,,,,,,,,,,,,,,,,,,,,,,,,,,,,,Unknown,Unknown,,,,,,,,,,,,,,,,,,,,,
29,29,EARL de la Huniere,,,,,,,2024-03-01,Animal Production,,,,Unknown,48.5988927,1.8674726,,,,,,,,,,,,,,,,,,,,,,,,,,,,,,,,,,,,,,,,,,,,,,,,,,,,,,,,,,,,,Unknown,Unknown,,,,,,,,,,,,,,,,,,,,,
30,30,La Ferme de Beauce,,,,,,,2024-03-01,Animal Production,,,,Unknown,48.3495627,1.850107,,,,,,,,,,,,,,,,,,,,,,,,,,,,,,,,,,,,,,,,,,,,,,,,,,,,,,,,,,,,,Unknown,Unknown,,,,,,,,,,,,,,,,,,,,,
31,31,Haras et Centre Équestre de l’Élevage Boréal,,,,,,,2024-03-01,Animal Production,,,,Unknown,48.6882553,2.84558590000006,,,,,,,,,,,,,,,,,,,,,,,,,,,,,,,,,,,,,,,,,,,,,,,,,,,,,,,,,,,,,Unknown,Unknown,,,,,,,,,,,,,,,,,,,,,
32,32,EARL Dayomat,,,,,,,2024-03-01,Animal Production,,,,Unknown,49.1376683,2.40318149999996,,,,,,,,,,,,,,,,,,,,,,,,,,,,,,,,,,,,,,,,,,,,,,,,,,,,,,,,,,,,,Unknown,Unknown,,,,,,,,,,,,,,,,,,,,,
33,33,Earl Ornada,,,,,,,2024-03-01,Animal Production,,,,Unknown,48.6150395,1.86310570000001,,,,,,,,,,,,,,,,,,,,,,,,,,,,,,,,,,,,,,,,,,,,,,,,,,,,,,,,,,,,,Unknown,Unknown,,,,,,,,,,,,,,,,,,,,,
34,34,Pamfou Dressage,,,,,,,2024-03-01,Animal Production,,,,Unknown,48.4540532,2.8608899,,,,,,,,,,,,,,,,,,,,,,,,,,,,,,,,,,,,,,,,,,,,,,,,,,,,,,,,,,,,,Unknown,Unknown,,,,,,,,,,,,,,,,,,,,,
35,35,Doutrelant Denis,,,,,,,2024-03-01,Animal Production,,,,Unknown,48.6451938,2.6888498,,,,,,,,,,,,,,,,,,,,,,,,,,,,,,,,,,,,,,,,,,,,,,,,,,,,,,,,,,,,,Unknown,Unknown,,,,,,,,,,,,,,,,,,,,,
36,36,Elevage et Lycée Agricole La Bretonnière,,,,,,,2024-03-01,Animal Production,,,,Unknown,48.812968,3.14997500000004,,,,,,,,,,,,,,,,,,,,,,,,,,,,,,,,,,,,,,,,,,,,,,,,,,,,,,,,,,,,,Unknown,Unknown,,,,,,,,,,,,,,,,,,,,,
37,37,La Nozaie Earl,,,,,,,2024-03-01,Animal Production,,,,Unknown,48.288535,2.7913403,,,,,,,,,,,,,,,,,,,,,,,,,,,,,,,,,,,,,,,,,,,,,,,,,,,,,,,,,,,,,Unknown,Unknown,,,,,,,,,,,,,,,,,,,,,
38,38,Ferme de la vue - Catherine et Georges ROCHER,,,,,,,2024-03-01,Animal Production,,,,Unknown,48.476595,2.79777100000001,,,,,,,,,,,,,,,,,,,,,,,,,,,,,,,,,,,,,,,,,,,,,,,,,,,,,,,,,,,,,Unknown,Unknown,,,,,,,,,,,,,,,,,,,,,
39,39,"SARL ""LA FERME DE COURCELLES""",,,,,,,2024-03-01,Animal Production,,,,Unknown,48.740406,2.79501200000004,,,,,,,,,,,,,,,,,,,,,,,,,,,,,,,,,,,,,,,,,,,,,,,,,,,,,,,,,,,,,Unknown,Unknown,,,,,,,,,,,,,,,,,,,,,
40,40,Ferme de la Bergerie nationale de Rambouillet,,,,,,,2024-03-01,Animal Production,,,,Unknown,48.6452002,1.7978043,,,,,,,,,,,,,,,,,,,,,,,,,,,,,,,,,,,,,,,,,,,,,,,,,,,,,,,,,,,,,Unknown,Unknown,,,,,,,,,,,,,,,,,,,,,
41,41,Ferme de Filbois,,,,,,,2024-03-01,Animal Production,,,,Unknown,48.2156762,2.60784190000004,,,,,,,,,,,,,,,,,,,,,,,,,,,,,,,,,,,,,,,,,,,,,,,,,,,,,,,,,,,,,Unknown,Unknown,,,,,,,,,,,,,,,,,,,,,
42,42,Eco ferme soluzion,,,,,,,2024-03-01,Animal Production,,,,Unknown,48.9472182,3.14322990000005,,,,,,,,,,,,,,,,,,,,,,,,,,,,,,,,,,,,,,,,,,,,,,,,,,,,,,,,,,,,,Unknown,Unknown,,,,,,,,,,,,,,,,,,,,,
43,43,Ferme Bellevie - Villages Nature Paris,,,,,,,2024-03-01,Exhibition,,,,Unknown,48.8269758,2.8108057,,,,,,,,,,,,,,,,,,,,,,,,,,,,,,,,,,,,,,,,,,,,,,,,,,,,,,,,,,,,,Unknown,Unknown,,,,,,,,,,,,,,,,,,,,,
44,44,Élevage (nom inconnu),,,,,,,2024-03-01,Animal Production,,,,Unknown,48.4594858,2.1176145,,,,,,,,,,,,,,,,,,,,,,,,,,,,,,,,,,,,,,,,,,,,,,,,,,,,,,,,,,,,,Unknown,Unknown,,,,,,,,,,,,,,,,,,,,,
45,45,De Fromentel Yves,,,,,,,2024-03-01,Animal Production,,,,Unknown,48.6517534,3.0705447,,,,,,,,,,,,,,,,,,,,,,,,,,,,,,,,,,,,,,,,,,,,,,,,,,,,,,,,,,,,,Unknown,Unknown,,,,,,,,,,,,,,,,,,,,,
46,46,EARL Ferme de Saint Thibault,,,,,,,2024-03-01,Animal Production,,,,Unknown,48.8610318,2.6818068,,,,,,,,,,,,,,,,,,,,,,,,,,,,,,,,,,,,,,,,,,,,,,,,,,,,,,,,,,,,,Unknown,Unknown,,,,,,,,,,,,,,,,,,,,,
47,47,DOMAINE DES TRENTE ARPENTS,,,,,,,2024-03-01,Animal Production,,,,Unknown,48.7894996,2.7928245,,,,,,,,,,,,,,,,,,,,,,,,,,,,,,,,,,,,,,,,,,,,,,,,,,,,,,,,,,,,,Unknown,Unknown,,,,,,,,,,,,,,,,,,,,,
48,48,Ferme de Viltain,,,,,,,2024-03-01,Animal Production,,,,Unknown,48.7549603,2.1574666,,,,,,,,,,,,,,,,,,,,,,,,,,,,,,,,,,,,,,,,,,,,,,,,,,,,,,,,,,,,,Unknown,Unknown,,,,,,,,,,,,,,,,,,,,,
49,49,Ferme de Meneuse - Gaec Lefevre,,,,,,,2024-03-01,Animal Production,,,,Unknown,48.7129551,3.1847098,,,,,,,,,,,,,,,,,,,,,,,,,,,,,,,,,,,,,,,,,,,,,,,,,,,,,,,,,,,,,Unknown,Unknown,,,,,,,,,,,,,,,,,,,,,
50,50,Ferme de Bissy,,,,,,,2024-03-01,Animal Production,,,,Unknown,48.6160388,2.0509678,,,,,,,,,,,,,,,,,,,,,,,,,,,,,,,,,,,,,,,,,,,,,,,,,,,,,,,,,,,,,Unknown,Unknown,,,,,,,,,,,,,,,,,,,,,
51,51,Ferme De Rouilly Le Bas,,,,,,,2024-03-01,Animal Production,,,,Unknown,48.828111,2.9705966,,,,,,,,,,,,,,,,,,,,,,,,,,,,,,,,,,,,,,,,,,,,,,,,,,,,,,,,,,,,,Unknown,Unknown,,,,,,,,,,,,,,,,,,,,,
52,52,Ferme de Champgarnier - EARL Demuyt,,,,,,,2024-03-01,Animal Production,,,,Unknown,48.7444776,1.977892,,,,,,,,,,,,,,,,,,,,,,,,,,,,,,,,,,,,,,,,,,,,,,,,,,,,,,,,,,,,,Unknown,Unknown,,,,,,,,,,,,,,,,,,,,,
53,53,Ferme de l'arche,,,,,,,2024-03-01,Animal Production,,,,Unknown,49.1583812,2.0459125,,,,,,,,,,,,,,,,,,,,,,,,,,,,,,,,,,,,,,,,,,,,,,,,,,,,,,,,,,,,,Unknown,Unknown,,,,,,,,,,,,,,,,,,,,,
54,54,Ferme de Coubertin,,,,,,,2024-03-01,Animal Production,,,,Unknown,48.7018921,2.0552693,,,,,,,,,,,,,,,,,,,,,,,,,,,,,,,,,,,,,,,,,,,,,,,,,,,,,,,,,,,,,Unknown,Unknown,,,,,,,,,,,,,,,,,,,,,
55,55,GFA des Hautefeuilles,,,,,,,2024-03-01,Animal Production,,,,Unknown,48.4593406,2.1161423,,,,,,,,,,,,,,,,,,,,,,,,,,,,,,,,,,,,,,,,,,,,,,,,,,,,,,,,,,,,,Unknown,Unknown,,,,,,,,,,,,,,,,,,,,,
56,56,Domaine de la Chalotterie,,,,,,,2024-03-01,Animal Production,,,,Unknown,48.6820686,2.8067966,,,,,,,,,,,,,,,,,,,,,,,,,,,,,,,,,,,,,,,,,,,,,,,,,,,,,,,,,,,,,Unknown,Unknown,,,,,,,,,,,,,,,,,,,,,
57,57,Ferme Saint-Antoine,,,,,,,2024-03-01,Animal Production,,,,Unknown,48.8024635,2.5815317,,,,,,,,,,,,,,,,,,,,,,,,,,,,,,,,,,,,,,,,,,,,,,,,,,,,,,,,,,,,,Unknown,Unknown,,,,,,,,,,,,,,,,,,,,,
58,58,La ferme Chauvry,,,,,,,2024-03-01,Animal Production,,,,Unknown,49.0535628,2.2682478,,,,,,,,,,,,,,,,,,,,,,,,,,,,,,,,,,,,,,,,,,,,,,,,,,,,,,,,,,,,,Unknown,Unknown,,,,,,,,,,,,,,,,,,,,,
59,59,De Michelis Earl,,,,,,,2024-03-01,Animal Production,,,,Unknown,48.4485176,2.7912558,,,,,,,,,,,,,,,,,,,,,,,,,,,,,,,,,,,,,,,,,,,,,,,,,,,,,,,,,,,,,Unknown,Unknown,,,,,,,,,,,,,,,,,,,,,
60,60,Ferme de la Recette,,,,,,,2024-03-01,Animal Production,,,,Unknown,48.4512792,2.919052,,,,,,,,,,,,,,,,,,,,,,,,,,,,,,,,,,,,,,,,,,,,,,,,,,,,,,,,,,,,,Unknown,Unknown,,,,,,,,,,,,,,,,,,,,,
61,61,Ferme du Grand Clos,,,,,,,2024-03-01,Animal Production,,,,Unknown,48.4047348,2.267445,,,,,,,,,,,,,,,,,,,,,,,,,,,,,,,,,,,,,,,,,,,,,,,,,,,,,,,,,,,,,Unknown,Unknown,,,,,,,,,,,,,,,,,,,,,
62,62,Ferme des Quatre temps,,,,,,,2024-03-01,Animal Production; Meat Slaughter,,,,Unknown,48.3045673,2.472084,,,,,,,,,,,,,,,,,,,,,,,,,,,,,,,,,,,,,,,,,,,,,,,,,,,,,,,,,,,,,Unknown,Unknown,,,,,,,,,,,,,,,,,,,,,
63,63,Ferme du Lugin - Ghislaine et Lionel DUBOIS.,,,,,,,2024-03-01,Animal Production,,,,Unknown,48.6706093,3.1127059,,,,,,,,,,,,,,,,,,,,,,,,,,,,,,,,,,,,,,,,,,,,,,,,,,,,,,,,,,,,,Unknown,Unknown,,,,,,,,,,,,,,,,,,,,,
64,64,Ferme du Moulin,,,,,,,2024-03-01,Animal Production,,,,Unknown,48.7305345,2.8772057,,,,,,,,,,,,,,,,,,,,,,,,,,,,,,,,,,,,,,,,,,,,,,,,,,,,,,,,,,,,,Unknown,Unknown,,,,,,,,,,,,,,,,,,,,,
65,65,Ferme du Loup Ravissant,,,,,,,2024-03-01,Animal Production,,,,Unknown,48.8053053,1.6646681,,,,,,,,,,,,,,,,,,,,,,,,,,,,,,,,,,,,,,,,,,,,,,,,,,,,,,,,,,,,,Unknown,Unknown,,,,,,,,,,,,,,,,,,,,,
66,66,L'Autruche Rieuse - Sylvette ROBERT,,,,,,,2024-03-01,Animal Production,,,,Unknown,48.321807,2.9925418,,,,,,,,,,,,,,,,,,,,,,,,,,,,,,,,,,,,,,,,,,,,,,,,,,,,,,,,,,,,,Unknown,Unknown,,,,,,,,,,,,,,,,,,,,,
67,67,Ferme de La Noue,,,,,,,2024-03-01,Animal Production,,,,Unknown,48.6439737,1.95156829999996,,,,,,,,,,,,,,,,,,,,,,,,,,,,,,,,,,,,,,,,,,,,,,,,,,,,,,,,,,,,,Unknown,Unknown,,,,,,,,,,,,,,,,,,,,,
68,68,Ferme des Fourneaux,,,,,,,2024-03-01,Animal Production,,,,Unknown,48.5737165,2.3519752,,,,,,,,,,,,,,,,,,,,,,,,,,,,,,,,,,,,,,,,,,,,,,,,,,,,,,,,,,,,,Unknown,Unknown,,,,,,,,,,,,,,,,,,,,,
69,69,SCEA Andre Du Bois Rouvray,,,,,,,2024-03-01,Animal Production,,,,Unknown,48.5302834,1.2511677,,,,,,,,,,,,,,,,,,,,,,,,,,,,,,,,,,,,,,,,,,,,,,,,,,,,,,,,,,,,,Unknown,Unknown,,,,,,,,,,,,,,,,,,,,,
70,70,Caron Alain,,,,,,,2024-03-01,Animal Production,,,,Unknown,48.5827076,2.71064409999997,,,,,,,,,,,,,,,,,,,,,,,,,,,,,,,,,,,,,,,,,,,,,,,,,,,,,,,,,,,,,Unknown,Unknown,,,,,,,,,,,,,,,,,,,,,
71,71,Elevage ?,,,,,,,2024-03-01,Animal Production,,,,Unknown,48.2385288,2.8752376,,,,,,,,,,,,,,,,,,,,,,,,,,,,,,,,,,,,,,,,,,,,,,,,,,,,,,,,,,,,,Unknown,Unknown,,,,,,,,,,,,,,,,,,,,,
72,72,Elevage ?,,,,,,,2024-03-01,Animal Production,,,,Unknown,48.2361388888889,2.87430555555557,,,,,,,,,,,,,,,,,,,,,,,,,,,,,,,,,,,,,,,,,,,,,,,,,,,,,,,,,,,,,Unknown,Unknown,,,,,,,,,,,,,,,,,,,,,
73,73,Elevage ?,,,,,,,2024-03-01,Animal Production,,,,Unknown,49.1522274,2.0537584,,,,,,,,,,,,,,,,,,,,,,,,,,,,,,,,,,,,,,,,,,,,,,,,,,,,,,,,,,,,,Unknown,Unknown,,,,,,,,,,,,,,,,,,,,,
74,74,Elevage ?,,,,,,,2024-03-01,Animal Production,,,,Unknown,48.5209069,1.2540326,,,,,,,,,,,,,,,,,,,,,,,,,,,,,,,,,,,,,,,,,,,,,,,,,,,,,,,,,,,,,Unknown,Unknown,,,,,,,,,,,,,,,,,,,,,
75,75,Elevage ?,,,,,,,2024-03-01,Animal Production,,,,Unknown,48.8075248,1.5086273,,,,,,,,,,,,,,,,,,,,,,,,,,,,,,,,,,,,,,,,,,,,,,,,,,,,,,,,,,,,,Unknown,Unknown,,,,,,,,,,,,,,,,,,,,,
76,76,Elevage ?,,,,,,,2024-03-01,Animal Production,,,,Unknown,48.829511,2.77022299999999,,,,,,,,,,,,,,,,,,,,,,,,,,,,,,,,,,,,,,,,,,,,,,,,,,,,,,,,,,,,,Unknown,Unknown,,,,,,,,,,,,,,,,,,,,,
77,77,Elevage ?,,,,,,,2024-03-01,Animal Production,,,,Unknown,48.8308599,2.8297705,,,,,,,,,,,,,,,,,,,,,,,,,,,,,,,,,,,,,,,,,,,,,,,,,,,,,,,,,,,,,Unknown,Unknown,,,,,,,,,,,,,,,,,,,,,
78,78,Elevage ?,,,,,,,2024-03-01,Animal Production,,,,Unknown,48.8312125,2.8299723,,,,,,,,,,,,,,,,,,,,,,,,,,,,,,,,,,,,,,,,,,,,,,,,,,,,,,,,,,,,,Unknown,Unknown,,,,,,,,,,,,,,,,,,,,,
79,79,Elevage ?,,,,,,,2024-03-01,Animal Production,,,,Unknown,48.630299,2.21779500000002,,,,,,,,,,,,,,,,,,,,,,,,,,,,,,,,,,,,,,,,,,,,,,,,,,,,,,,,,,,,,Unknown,Unknown,,,,,,,,,,,,,,,,,,,,,
80,80,Ferme Carmignac,,,,,,,2024-03-01,Animal Production,,,,Unknown,48.5873105,2.629612,,,,,,,,,,,,,,,,,,,,,,,,,,,,,,,,,,,,,,,,,,,,,,,,,,,,,,,,,,,,,Unknown,Unknown,,,,,,,,,,,,,,,,,,,,,
81,81,Elevage de Chevaux / Juments ?,,,,,,,2024-03-01,Animal Production,,,,Unknown,48.5843401,2.7081071,,,,,,,,,,,,,,,,,,,,,,,,,,,,,,,,,,,,,,,,,,,,,,,,,,,,,,,,,,,,,Unknown,Unknown,,,,,,,,,,,,,,,,,,,,,
82,82,Elevage de poules pondeuses,,,,,,,2024-03-01,Animal Production,,,,Unknown,48.581622,2.69759499999998,,,,,,,,,,,,,,,,,,,,,,,,,,,,,,,,,,,,,,,,,,,,,,,,,,,,,,,,,,,,,Unknown,Unknown,,,,,,,,,,,,,,,,,,,,,
83,83,Elevage ?,,,,,,,2024-03-01,Animal Production,,,,Unknown,48.658575,2.67679899999996,,,,,,,,,,,,,,,,,,,,,,,,,,,,,,,,,,,,,,,,,,,,,,,,,,,,,,,,,,,,,Unknown,Unknown,,,,,,,,,,,,,,,,,,,,,
84,84,Elevage ?,,,,,,,2024-03-01,Animal Production,,,,Unknown,48.514942,2.70501400000001,,,,,,,,,,,,,,,,,,,,,,,,,,,,,,,,,,,,,,,,,,,,,,,,,,,,,,,,,,,,,Unknown,Unknown,,,,,,,,,,,,,,,,,,,,,
85,85,La Ferme du Champ d'eau,,,,,,,2024-03-01,Animal Production; Meat Slaughter,,,,Unknown,48.1861961,2.0996541,,,,,,,,,,,,,,,,,,,,,,,,,,,,,,,,,,,,,,,,,,,,,,,,,,,,,,,,,,,,,Unknown,Unknown,,,,,,,,,,,,,,,,,,,,,
86,86,Eggteam (Matines),,,,,,,2024-03-01,Animal Production,,,,Unknown,48.6085258,2.0907602,,,,,,,,,,,,,,,,,,,,,,,,,,,,,,,,,,,,,,,,,,,,,,,,,,,,,,,,,,,,,Unknown,Unknown,,,,,,,,,,,,,,,,,,,,,
87,87,Ferme de l'Orée de Milly,,,,,,,2024-03-01,Animal Production,,,,Unknown,48.40088,2.4958717,,,,,,,,,,,,,,,,,,,,,,,,,,,,,,,,,,,,,,,,,,,,,,,,,,,,,,,,,,,,,Unknown,Unknown,,,,,,,,,,,,,,,,,,,,,
88,88,Ferme de la Mare,,,,,,,2024-03-01,Animal Production,,,,Unknown,48.4390593,2.05015200000003,,,,,,,,,,,,,,,,,,,,,,,,,,,,,,,,,,,,,,,,,,,,,,,,,,,,,,,,,,,,,Unknown,Unknown,,,,,,,,,,,,,,,,,,,,,
89,89,GAEC des Gaudrons,,,,,,,2024-03-01,Animal Production,,,,Unknown,48.4059808,2.2652083,,,,,,,,,,,,,,,,,,,,,,,,,,,,,,,,,,,,,,,,,,,,,,,,,,,,,,,,,,,,,Unknown,Unknown,,,,,,,,,,,,,,,,,,,,,
90,90,Earl Elevage Du Fonceau,,,,,,,2024-03-01,Animal Production,,,,Unknown,48.4767112,2.1849834,,,,,,,,,,,,,,,,,,,,,,,,,,,,,,,,,,,,,,,,,,,,,,,,,,,,,,,,,,,,,Unknown,Unknown,,,,,,,,,,,,,,,,,,,,,
91,91,Earl Piffret,,,,,,,2024-03-01,Animal Production,,,,Unknown,48.5420741,2.1728978,,,,,,,,,,,,,,,,,,,,,,,,,,,,,,,,,,,,,,,,,,,,,,,,,,,,,,,,,,,,,Unknown,Unknown,,,,,,,,,,,,,,,,,,,,,
92,92,L' enclos Des Chevrettes EARL des Rochettes,,,,,,,2024-03-01,Animal Production,,,,Unknown,48.4737326,2.2432652,,,,,,,,,,,,,,,,,,,,,,,,,,,,,,,,,,,,,,,,,,,,,,,,,,,,,,,,,,,,,Unknown,Unknown,,,,,,,,,,,,,,,,,,,,,
93,93,INRAE,,,,,,,2024-03-01,Animal Production,,,,Unknown,48.584957,2.3297424,,,,,,,,,,,,,,,,,,,,,,,,,,,,,,,,,,,,,,,,,,,,,,,,,,,,,,,,,,,,,Unknown,Unknown,,,,,,,,,,,,,,,,,,,,,
94,94,L'Oeuf Briard,,,,,,,2024-03-01,Animal Production,,,,Unknown,48.8977707,3.1668794,,,,,,,,,,,,,,,,,,,,,,,,,,,,,,,,,,,,,,,,,,,,,,,,,,,,,,,,,,,,,Unknown,Unknown,,,,,,,,,,,,,,,,,,,,,
95,95,Elevage DE VESTELE - SARL DU CHAMP LEROY,,,,,,,2024-03-01,Animal Production,,,,Unknown,48.8512487,3.4319204,,,,,,,,,,,,,,,,,,,,,,,,,,,,,,,,,,,,,,,,,,,,,,,,,,,,,,,,,,,,,Unknown,Unknown,,,,,,,,,,,,,,,,,,,,,
96,96,Le Pré de la Fontaine - FERME DE LA FONTAINE DE FLAIX,,,,,,,2024-03-01,Animal Production,,,,Unknown,48.6402103,3.3657209,,,,,,,,,,,,,,,,,,,,,,,,,,,,,,,,,,,,,,,,,,,,,,,,,,,,,,,,,,,,,Unknown,Unknown,,,,,,,,,,,,,,,,,,,,,
97,97,EARL LES VOLAILLES DE BOUY,,,,,,,2024-03-01,Animal Production,,,,Unknown,48.5065494,3.2975256,,,,,,,,,,,,,,,,,,,,,,,,,,,,,,,,,,,,,,,,,,,,,,,,,,,,,,,,,,,,,Unknown,Unknown,,,,,,,,,,,,,,,,,,,,,
98,98,SCEA AVICOLE DES MONTILS,,,,,,,2024-03-01,Animal Production,,,,Unknown,48.5101633,2.9450701,,,,,,,,,,,,,,,,,,,,,,,,,,,,,,,,,,,,,,,,,,,,,,,,,,,,,,,,,,,,,Unknown,Unknown,,,,,,,,,,,,,,,,,,,,,
99,99,EARL George L'Epauche,,,,,,,2024-03-01,Animal Production,,,,Unknown,48.7660747,3.1929669,,,,,,,,,,,,,,,,,,,,,,,,,,,,,,,,,,,,,,,,,,,,,,,,,,,,,,,,,,,,,Unknown,Unknown,,,,,,,,,,,,,,,,,,,,,
100,100,Ferme de floe - EARL Le Chant du Coq,,,,,,,2024-03-01,Animal Production,,,,Unknown,48.1905043,2.8353091,,,,,,,,,,,,,,,,,,,,,,,,,,,,,,,,,,,,,,,,,,,,,,,,,,,,,,,,,,,,,Unknown,Unknown,,,,,,,,,,,,,,,,,,,,,
101,101,EARL de la Masure,,,,,,,2024-03-01,Animal Production,,,,Unknown,48.5290846,3.0181949,,,,,,,,,,,,,,,,,,,,,,,,,,,,,,,,,,,,,,,,,,,,,,,,,,,,,,,,,,,,,Unknown,Unknown,,,,,,,,,,,,,,,,,,,,,
102,102,EARL Avicole Du Vivier,,,,,,,2024-03-01,Animal Production,,,,Unknown,48.5770153,3.3099598,,,,,,,,,,,,,,,,,,,,,,,,,,,,,,,,,,,,,,,,,,,,,,,,,,,,,,,,,,,,,Unknown,Unknown,,,,,,,,,,,,,,,,,,,,,
103,103,Philippe Aviculture,,,,,,,2024-03-01,Animal Production,,,,Unknown,48.6955104,3.3336472,,,,,,,,,,,,,,,,,,,,,,,,,,,,,,,,,,,,,,,,,,,,,,,,,,,,,,,,,,,,,Unknown,Unknown,,,,,,,,,,,,,,,,,,,,,
104,104,Ça roule ma poule,,,,,,,2024-03-01,Animal Production,,,,Unknown,48.1848111,2.8785278,,,,,,,,,,,,,,,,,,,,,,,,,,,,,,,,,,,,,,,,,,,,,,,,,,,,,,,,,,,,,Unknown,Unknown,,,,,,,,,,,,,,,,,,,,,
105,105,Elevage SABLONNIERES LUC,,,,,,,2024-03-01,Animal Production,,,,Unknown,48.8744983,3.1915879,,,,,,,,,,,,,,,,,,,,,,,,,,,,,,,,,,,,,,,,,,,,,,,,,,,,,,,,,,,,,Unknown,Unknown,,,,,,,,,,,,,,,,,,,,,
106,106,Ferme de la Couture,,,,,,,2024-03-01,Animal Production,,,,Unknown,49.048707,1.9573813,,,,,,,,,,,,,,,,,,,,,,,,,,,,,,,,,,,,,,,,,,,,,,,,,,,,,,,,,,,,,Unknown,Unknown,,,,,,,,,,,,,,,,,,,,,
107,107,Ferme de la Ruellette,,,,,,,2024-03-01,Animal Production,,,,Unknown,49.1280498,1.894512,,,,,,,,,,,,,,,,,,,,,,,,,,,,,,,,,,,,,,,,,,,,,,,,,,,,,,,,,,,,,Unknown,Unknown,,,,,,,,,,,,,,,,,,,,,
108,108,SARL FERME DU CHATEAU MAIGRET / SCAAB,,,,,,,2024-03-01,Animal Production,,,,Unknown,49.1271751,1.813741,,,,,,,,,,,,,,,,,,,,,,,,,,,,,,,,,,,,,,,,,,,,,,,,,,,,,,,,,,,,,Unknown,Unknown,,,,,,,,,,,,,,,,,,,,,
109,109,Elevage equestre,,,,,,,2024-03-01,Animal Production,,,,Unknown,48.54597,1.9970702,,,,,,,,,,,,,,,,,,,,,,,,,,,,,,,,,,,,,,,,,,,,,,,,,,,,,,,,,,,,,Unknown,Unknown,,,,,,,,,,,,,,,,,,,,,
110,110,Elevage du Haut de Crecy,,,,,,,2024-03-01,Animal Production,,,,Unknown,48.900506,2.98678199999995,,,,,,,,,,,,,,,,,,,,,,,,,,,,,,,,,,,,,,,,,,,,,,,,,,,,,,,,,,,,,Unknown,Unknown,,,,,,,,,,,,,,,,,,,,,
111,111,Comme à la Maison,,,,,,,2024-03-01,Animal Production,,,,Unknown,48.1973994,2.72299529999998,,,,,,,,,,,,,,,,,,,,,,,,,,,,,,,,,,,,,,,,,,,,,,,,,,,,,,,,,,,,,Unknown,Unknown,,,,,,,,,,,,,,,,,,,,,
112,112,Elevage du royaume des quatre pattes,,,,,,,2024-03-01,Animal Production,,,,Unknown,48.4653812,3.065843,,,,,,,,,,,,,,,,,,,,,,,,,,,,,,,,,,,,,,,,,,,,,,,,,,,,,,,,,,,,,Unknown,Unknown,,,,,,,,,,,,,,,,,,,,,
113,113,La Joly Cagouille - Héliciculture,,,,,,,2024-03-01,Animal Production,,,,Unknown,48.720015,2.9838675,,,,,,,,,,,,,,,,,,,,,,,,,,,,,,,,,,,,,,,,,,,,,,,,,,,,,,,,,,,,,Unknown,Unknown,,,,,,,,,,,,,,,,,,,,,
114,114,SAS GRAINS D'ORGE,,,,,,,2024-03-01,Animal Production,,,,Unknown,48.646039,3.2843921,,,,,,,,,,,,,,,,,,,,,,,,,,,,,,,,,,,,,,,,,,,,,,,,,,,,,,,,,,,,,Unknown,Unknown,,,,,,,,,,,,,,,,,,,,,
115,115,Elevage Golden Retriever et Labrador de la Corbeille de Vénus,,,,,,,2024-03-01,Animal Production,,,,Unknown,48.410744,3.40960199999995,,,,,,,,,,,,,,,,,,,,,,,,,,,,,,,,,,,,,,,,,,,,,,,,,,,,,,,,,,,,,Unknown,Unknown,,,,,,,,,,,,,,,,,,,,,
116,116,Élevage canin du Domaine d'Eily,,,,,,,2024-03-01,Animal Production,,,,Unknown,48.662882,3.29153740000004,,,,,,,,,,,,,,,,,,,,,,,,,,,,,,,,,,,,,,,,,,,,,,,,,,,,,,,,,,,,,Unknown,Unknown,,,,,,,,,,,,,,,,,,,,,
117,117,Elevage ?,,,,,,,2024-03-01,Animal Production,,,,Unknown,48.7522554,3.4211937,,,,,,,,,,,,,,,,,,,,,,,,,,,,,,,,,,,,,,,,,,,,,,,,,,,,,,,,,,,,,Unknown,Unknown,,,,,,,,,,,,,,,,,,,,,
118,118,Pension et élevage canin Les Eaux Vives,,,,,,,2024-03-01,Animal Production,,,,Unknown,48.3548415,2.58048400000007,,,,,,,,,,,,,,,,,,,,,,,,,,,,,,,,,,,,,,,,,,,,,,,,,,,,,,,,,,,,,Unknown,Unknown,,,,,,,,,,,,,,,,,,,,,
119,119,EARL DE LA TOUR,,,,,,,2024-03-01,Animal Production,,,,Unknown,48.558303,2.9191418,,,,,,,,,,,,,,,,,,,,,,,,,,,,,,,,,,,,,,,,,,,,,,,,,,,,,,,,,,,,,Unknown,Unknown,,,,,,,,,,,,,,,,,,,,,
120,120,GAEC RECONNU DES PATURAGES,,,,,,,2024-03-01,Animal Production,,,,Unknown,48.6379623,3.1121115,,,,,,,,,,,,,,,,,,,,,,,,,,,,,,,,,,,,,,,,,,,,,,,,,,,,,,,,,,,,,Unknown,Unknown,,,,,,,,,,,,,,,,,,,,,
121,121,Ferme des 4 étoiles,,,,,,,2024-03-01,Animal Production,,,,Unknown,48.6603348,1.8987381,,,,,,,,,,,,,,,,,,,,,,,,,,,,,,,,,,,,,,,,,,,,,,,,,,,,,,,,,,,,,Unknown,Unknown,,,,,,,,,,,,,,,,,,,,,
122,122,Earl Ferme D Haravilliers,,,,,,,2024-03-01,Animal Production,,,,Unknown,49.1741642,2.0521125,,,,,,,,,,,,,,,,,,,,,,,,,,,,,,,,,,,,,,,,,,,,,,,,,,,,,,,,,,,,,Unknown,Unknown,,,,,,,,,,,,,,,,,,,,,
123,123,Ferme de Mauperthuis G.A.E.C Paquet Frères,,,,,,,2024-03-01,Animal Production,,,,Unknown,48.8733317,2.97216660000004,,,,,,,,,,,,,,,,,,,,,,,,,,,,,,,,,,,,,,,,,,,,,,,,,,,,,,,,,,,,,Unknown,Unknown,,,,,,,,,,,,,,,,,,,,,
124,124,L'escargot de France Janic - Héliciculture,,,,,,,2024-03-01,Animal Production,,,,Unknown,48.4681967,2.8558329,,,,,,,,,,,,,,,,,,,,,,,,,,,,,,,,,,,,,,,,,,,,,,,,,,,,,,,,,,,,,Unknown,Unknown,,,,,,,,,,,,,,,,,,,,,
125,125,Distributeur automatique de Lait,,,,,,,2024-03-01,Animal Production,,,,Unknown,49.173778,2.05399,,,,,,,,,,,,,,,,,,,,,,,,,,,,,,,,,,,,,,,,,,,,,,,,,,,,,,,,,,,,,Unknown,Unknown,,,,,,,,,,,,,,,,,,,,,
126,126,Ferme de Grignon,,,,,,,2024-03-01,Animal Production,,,,Unknown,48.8417138,1.94924730000002,,,,,,,,,,,,,,,,,,,,,,,,,,,,,,,,,,,,,,,,,,,,,,,,,,,,,,,,,,,,,Unknown,Unknown,,,,,,,,,,,,,,,,,,,,,
127,127,La Ferme de Fanon,,,,,,,2024-03-01,Animal Production,,,,Unknown,48.6944085,1.9448,,,,,,,,,,,,,,,,,,,,,,,,,,,,,,,,,,,,,,,,,,,,,,,,,,,,,,,,,,,,,Unknown,Unknown,,,,,,,,,,,,,,,,,,,,,
128,128,Ferme de Sigy,,,,,,,2024-03-01,Animal Production,,,,Unknown,48.4790869,3.18157259999998,,,,,,,,,,,,,,,,,,,,,,,,,,,,,,,,,,,,,,,,,,,,,,,,,,,,,,,,,,,,,Unknown,Unknown,,,,,,,,,,,,,,,,,,,,,
129,129,Pêche truite Yvelines Ferme du Haubert,,,,,,,2024-03-01,Animal Production; Meat Slaughter,,,,Unknown,49.0335366,1.80877,,,,,,,,,,,,,,,,,,,,,,,,,,,,,,,,,,,,,,,,,,,,,,,,,,,,,,,,,,,,,Unknown,Unknown,,,,,,,,,,,,,,,,,,,,,
130,130,Petit élevage dans un jardin,,,,,,,2024-03-01,Animal Production,,,,Unknown,48.5343698,1.9940574,,,,,,,,,,,,,,,,,,,,,,,,,,,,,,,,,,,,,,,,,,,,,,,,,,,,,,,,,,,,,Unknown,Unknown,,,,,,,,,,,,,,,,,,,,,
131,131,GAEC du Pontot - Ferme du Pontot,,,,,,,2024-03-01,Animal Production,,,,Unknown,47.2302344148653,5.01075200736523,,,,,,,,,,,,,,,,,,,,,,,,,,,,,,,,,,,,,,,,,,,,,,,,,,,,,,,,,,,,,Unknown,Unknown,,,,,,,,,,,,,,,,,,,,,
132,132,Elevage de Vaches / Taureaux ?,,,,,,,2024-03-01,Animal Production,,,,Unknown,49.4413843119988,2.69919209182262,,,,,,,,,,,,,,,,,,,,,,,,,,,,,,,,,,,,,,,,,,,,,,,,,,,,,,,,,,,,,Unknown,Unknown,,,,,,,,,,,,,,,,,,,,,
133,133,Elevage de Vaches / Taureaux ?,,,,,,,2024-03-01,Animal Production,,,,Unknown,50.5205797377755,3.04177857935429,,,,,,,,,,,,,,,,,,,,,,,,,,,,,,,,,,,,,,,,,,,,,,,,,,,,,,,,,,,,,Unknown,Unknown,,,,,,,,,,,,,,,,,,,,,
134,134,"EARL SCHNEIDER, Schneider Freddy",,,,,,,2024-03-01,Animal Production,,,,Unknown,48.9385398,8.0900845,,,,,,,,,,,,,,,,,,,,,,,,,,,,,,,,,,,,,,,,,,,,,,,,,,,,,,,,,,,,,Unknown,Unknown,,,,,,,,,,,,,,,,,,,,,
135,135,Ferme Schafbusch,,,,,,,2024-03-01,Animal Production,,,,Unknown,49.0123271,7.9472589,,,,,,,,,,,,,,,,,,,,,,,,,,,,,,,,,,,,,,,,,,,,,,,,,,,,,,,,,,,,,Unknown,Unknown,,,,,,,,,,,,,,,,,,,,,
136,136,EARL ULRICH LAURENT,,,,,,,2024-03-01,Animal Production,,,,Unknown,48.6566567,7.5841826,,,,,,,,,,,,,,,,,,,,,,,,,,,,,,,,,,,,,,,,,,,,,,,,,,,,,,,,,,,,,Unknown,Unknown,,,,,,,,,,,,,,,,,,,,,
137,137,Earl Sorgius,,,,,,,2024-03-01,Animal Production,,,,Unknown,48.7049217,7.4550134,,,,,,,,,,,,,,,,,,,,,,,,,,,,,,,,,,,,,,,,,,,,,,,,,,,,,,,,,,,,,Unknown,Unknown,,,,,,,,,,,,,,,,,,,,,
138,138,EARL Carbiener,,,,,,,2024-03-01,Animal Production,,,,Unknown,48.7915859,7.4844308,,,,,,,,,,,,,,,,,,,,,,,,,,,,,,,,,,,,,,,,,,,,,,,,,,,,,,,,,,,,,Unknown,Unknown,,,,,,,,,,,,,,,,,,,,,
139,139,EARL WALDMUHLE,,,,,,,2024-03-01,Animal Production,,,,Unknown,48.932962,7.9471924,,,,,,,,,,,,,,,,,,,,,,,,,,,,,,,,,,,,,,,,,,,,,,,,,,,,,,,,,,,,,Unknown,Unknown,,,,,,,,,,,,,,,,,,,,,
140,140,EARL REINHART,,,,,,,2024-03-01,Animal Production,,,,Unknown,48.7846333,7.5575989,,,,,,,,,,,,,,,,,,,,,,,,,,,,,,,,,,,,,,,,,,,,,,,,,,,,,,,,,,,,,Unknown,Unknown,,,,,,,,,,,,,,,,,,,,,
141,141,Earl Fritsch,,,,,,,2024-03-01,Animal Production,,,,Unknown,48.3100286,7.6670383,,,,,,,,,,,,,,,,,,,,,,,,,,,,,,,,,,,,,,,,,,,,,,,,,,,,,,,,,,,,,Unknown,Unknown,,,,,,,,,,,,,,,,,,,,,
142,142,EARL ROTT ERNEST ET DIDIER,,,,,,,2024-03-01,Animal Production,,,,Unknown,48.9258895,7.9164357,,,,,,,,,,,,,,,,,,,,,,,,,,,,,,,,,,,,,,,,,,,,,,,,,,,,,,,,,,,,,Unknown,Unknown,,,,,,,,,,,,,,,,,,,,,
143,143,EARL FERME FIX,,,,,,,2024-03-01,Animal Production,,,,Unknown,48.6523003,7.6638643,,,,,,,,,,,,,,,,,,,,,,,,,,,,,,,,,,,,,,,,,,,,,,,,,,,,,,,,,,,,,Unknown,Unknown,,,,,,,,,,,,,,,,,,,,,
144,144,Enclos de pâturage de moutons / brebis d'Ouessant ?,,,,,,,2024-03-01,Animal Production,,,,Unknown,48.8493251827687,2.68212553113699,,,,,,,,,,,,,,,,,,,,,,,,,,,,,,,,,,,,,,,,,,,,,,,,,,,,,,,,,,,,,Unknown,Unknown,,,,,,,,,,,,,,,,,,,,,
145,145,Pâturage pour Chevaux / Juments ?,,,,,,,2024-03-01,Animal Production,,,,Unknown,48.8423802899432,2.67192844301462,,,,,,,,,,,,,,,,,,,,,,,,,,,,,,,,,,,,,,,,,,,,,,,,,,,,,,,,,,,,,Unknown,Unknown,,,,,,,,,,,,,,,,,,,,,
146,146,Cochonnailles du Haut-Bois,,,,,,,2024-03-01,Animal Production,,,,Unknown,48.1477568,0.9463071,,,,,,,,,,,,,,,,,,,,,,,,,,,,,,,,,,,,,,,,,,,,,,,,,,,,,,,,,,,,,Unknown,Unknown,,,,,,,,,,,,,,,,,,,,,
147,147,SARL PORC BEAUCE,,,,,,,2024-03-01,Animal Production,,,,Unknown,48.3345282,1.6304158,,,,,,,,,,,,,,,,,,,,,,,,,,,,,,,,,,,,,,,,,,,,,,,,,,,,,,,,,,,,,Unknown,Unknown,,,,,,,,,,,,,,,,,,,,,
148,148,Elevage,,,,,,,2024-03-01,Animal Production,,,,Unknown,48.3291012,1.6380764,,,,,,,,,,,,,,,,,,,,,,,,,,,,,,,,,,,,,,,,,,,,,,,,,,,,,,,,,,,,,Unknown,Unknown,,,,,,,,,,,,,,,,,,,,,
149,149,Elevage de cochons / truies,,,,,,,2024-03-01,Animal Production,,,,Unknown,48.2681299,0.8968714,,,,,,,,,,,,,,,,,,,,,,,,,,,,,,,,,,,,,,,,,,,,,,,,,,,,,,,,,,,,,Unknown,Unknown,,,,,,,,,,,,,,,,,,,,,
150,150,SCEA Le Dimna,,,,,,,2024-03-01,Animal Production,,,,Unknown,48.335418,1.271174,,,,,,,,,,,,,,,,,,,,,,,,,,,,,,,,,,,,,,,,,,,,,,,,,,,,,,,,,,,,,Unknown,Unknown,,,,,,,,,,,,,,,,,,,,,
151,151,EARL Brule,,,,,,,2024-03-01,Animal Production,,,,Unknown,48.303418,1.1875096,,,,,,,,,,,,,,,,,,,,,,,,,,,,,,,,,,,,,,,,,,,,,,,,,,,,,,,,,,,,,Unknown,Unknown,,,,,,,,,,,,,,,,,,,,,
152,152,Les Bonshommes,,,,,,,2024-03-01,Animal Production,,,,Unknown,48.2074562,0.9142749,,,,,,,,,,,,,,,,,,,,,,,,,,,,,,,,,,,,,,,,,,,,,,,,,,,,,,,,,,,,,Unknown,Unknown,,,,,,,,,,,,,,,,,,,,,
153,153,LOUVEAU PROVOOST ANNETTE,,,,,,,2024-03-01,Animal Production,,,,Unknown,48.3082975,0.9268971,,,,,,,,,,,,,,,,,,,,,,,,,,,,,,,,,,,,,,,,,,,,,,,,,,,,,,,,,,,,,Unknown,Unknown,,,,,,,,,,,,,,,,,,,,,
154,154,Terre Noire,,,,,,,2024-03-01,Animal Production,,,,Unknown,48.0447921,1.3107797,,,,,,,,,,,,,,,,,,,,,,,,,,,,,,,,,,,,,,,,,,,,,,,,,,,,,,,,,,,,,Unknown,Unknown,,,,,,,,,,,,,,,,,,,,,
155,155,Debray Bruno - Les Petites Guinières,,,,,,,2024-03-01,Animal Production,,,,Unknown,48.2919176,1.0009961,,,,,,,,,,,,,,,,,,,,,,,,,,,,,,,,,,,,,,,,,,,,,,,,,,,,,,,,,,,,,Unknown,Unknown,,,,,,,,,,,,,,,,,,,,,
156,156,SCEA La Mulotière,,,,,,,2024-03-01,Animal Production,,,,Unknown,48.6246712,0.956848,,,,,,,,,,,,,,,,,,,,,,,,,,,,,,,,,,,,,,,,,,,,,,,,,,,,,,,,,,,,,Unknown,Unknown,,,,,,,,,,,,,,,,,,,,,
157,157,SARL d'Emanville,,,,,,,2024-03-01,Animal Production,,,,Unknown,48.331325,1.6529807,,,,,,,,,,,,,,,,,,,,,,,,,,,,,,,,,,,,,,,,,,,,,,,,,,,,,,,,,,,,,Unknown,Unknown,,,,,,,,,,,,,,,,,,,,,
158,158,Les Ouches,,,,,,,2024-03-01,Animal Production,,,,Unknown,48.460478,1.3070287,,,,,,,,,,,,,,,,,,,,,,,,,,,,,,,,,,,,,,,,,,,,,,,,,,,,,,,,,,,,,Unknown,Unknown,,,,,,,,,,,,,,,,,,,,,
159,159,HUET Bernadette,,,,,,,2024-03-01,Animal Production,,,,Unknown,48.5386699,1.1245975,,,,,,,,,,,,,,,,,,,,,,,,,,,,,,,,,,,,,,,,,,,,,,,,,,,,,,,,,,,,,Unknown,Unknown,,,,,,,,,,,,,,,,,,,,,
160,160,EARL DE LA PETITE VILLE,,,,,,,2024-03-01,Animal Production,,,,Unknown,48.6369256,1.0381843,,,,,,,,,,,,,,,,,,,,,,,,,,,,,,,,,,,,,,,,,,,,,,,,,,,,,,,,,,,,,Unknown,Unknown,,,,,,,,,,,,,,,,,,,,,
161,161,SCEA DDM,,,,,,,2024-03-01,Animal Production,,,,Unknown,48.4153472,1.0063466,,,,,,,,,,,,,,,,,,,,,,,,,,,,,,,,,,,,,,,,,,,,,,,,,,,,,,,,,,,,,Unknown,Unknown,,,,,,,,,,,,,,,,,,,,,
162,162,EARL DU HARRIER,,,,,,,2024-03-01,Animal Production,,,,Unknown,48.6737779,1.08724,,,,,,,,,,,,,,,,,,,,,,,,,,,,,,,,,,,,,,,,,,,,,,,,,,,,,,,,,,,,,Unknown,Unknown,,,,,,,,,,,,,,,,,,,,,
163,163,EARL DES BOUVIERS,,,,,,,2024-03-01,Animal Production,,,,Unknown,48.6515126,0.843067,,,,,,,,,,,,,,,,,,,,,,,,,,,,,,,,,,,,,,,,,,,,,,,,,,,,,,,,,,,,,Unknown,Unknown,,,,,,,,,,,,,,,,,,,,,
164,164,Chambre d'Agriculture d'Eure et Loir,,,,,,,2024-03-01,Animal Production,,,,Unknown,48.2529978,0.9908538,,,,,,,,,,,,,,,,,,,,,,,,,,,,,,,,,,,,,,,,,,,,,,,,,,,,,,,,,,,,,Unknown,Unknown,,,,,,,,,,,,,,,,,,,,,
165,165,SCEA de la Maisonnette,,,,,,,2024-03-01,Animal Production,,,,Unknown,48.415046,1.8407341,,,,,,,,,,,,,,,,,,,,,,,,,,,,,,,,,,,,,,,,,,,,,,,,,,,,,,,,,,,,,Unknown,Unknown,,,,,,,,,,,,,,,,,,,,,
166,166,SARL du Brosseron,,,,,,,2024-03-01,Animal Production,,,,Unknown,48.4805704,1.2566559,,,,,,,,,,,,,,,,,,,,,,,,,,,,,,,,,,,,,,,,,,,,,,,,,,,,,,,,,,,,,Unknown,Unknown,,,,,,,,,,,,,,,,,,,,,
167,167,SAS LES ILOTS DE MORHIER,,,,,,,2024-03-01,Animal Production,,,,Unknown,48.6133034,1.5470383,,,,,,,,,,,,,,,,,,,,,,,,,,,,,,,,,,,,,,,,,,,,,,,,,,,,,,,,,,,,,Unknown,Unknown,,,,,,,,,,,,,,,,,,,,,
168,168,EARL PIGALE SEBASTIEN,,,,,,,2024-03-01,Animal Production,,,,Unknown,48.3425202,0.888744,,,,,,,,,,,,,,,,,,,,,,,,,,,,,,,,,,,,,,,,,,,,,,,,,,,,,,,,,,,,,Unknown,Unknown,,,,,,,,,,,,,,,,,,,,,
169,169,DES OEUFIERES,,,,,,,2024-03-01,Animal Production,,,,Unknown,48.2115064,1.0228142,,,,,,,,,,,,,,,,,,,,,,,,,,,,,,,,,,,,,,,,,,,,,,,,,,,,,,,,,,,,,Unknown,Unknown,,,,,,,,,,,,,,,,,,,,,
170,170,Les Produits de la Ferme Grandvillain,,,,,,,2024-03-01,Animal Production,,,,Unknown,48.1437746,1.68183,,,,,,,,,,,,,,,,,,,,,,,,,,,,,,,,,,,,,,,,,,,,,,,,,,,,,,,,,,,,,Unknown,Unknown,,,,,,,,,,,,,,,,,,,,,
171,171,SCEA MACREL,,,,,,,2024-03-01,Animal Production,,,,Unknown,48.6761925,0.9554003,,,,,,,,,,,,,,,,,,,,,,,,,,,,,,,,,,,,,,,,,,,,,,,,,,,,,,,,,,,,,Unknown,Unknown,,,,,,,,,,,,,,,,,,,,,
172,172,EARL MEGRET,,,,,,,2024-03-01,Animal Production,,,,Unknown,48.1649387,1.3846432,,,,,,,,,,,,,,,,,,,,,,,,,,,,,,,,,,,,,,,,,,,,,,,,,,,,,,,,,,,,,Unknown,Unknown,,,,,,,,,,,,,,,,,,,,,
173,173,EARL BOURNISIEN,,,,,,,2024-03-01,Animal Production,,,,Unknown,48.469336,1.1484818,,,,,,,,,,,,,,,,,,,,,,,,,,,,,,,,,,,,,,,,,,,,,,,,,,,,,,,,,,,,,Unknown,Unknown,,,,,,,,,,,,,,,,,,,,,
174,174,La Ferme des Champarts à Godonville,,,,,,,2024-03-01,Animal Production,,,,Unknown,48.1511402,1.4931374,,,,,,,,,,,,,,,,,,,,,,,,,,,,,,,,,,,,,,,,,,,,,,,,,,,,,,,,,,,,,Unknown,Unknown,,,,,,,,,,,,,,,,,,,,,
175,175,Ferme De La Belvindiere,,,,,,,2024-03-01,Animal Production,,,,Unknown,48.1597688,1.0111332,,,,,,,,,,,,,,,,,,,,,,,,,,,,,,,,,,,,,,,,,,,,,,,,,,,,,,,,,,,,,Unknown,Unknown,,,,,,,,,,,,,,,,,,,,,
176,176,SAS DU BOIS LAURIN,,,,,,,2024-03-01,Animal Production,,,,Unknown,48.5461884,1.2192651,,,,,,,,,,,,,,,,,,,,,,,,,,,,,,,,,,,,,,,,,,,,,,,,,,,,,,,,,,,,,Unknown,Unknown,,,,,,,,,,,,,,,,,,,,,
177,177,DES CHAMPS,,,,,,,2024-03-01,Animal Production,,,,Unknown,48.2686832,0.8831851,,,,,,,,,,,,,,,,,,,,,,,,,,,,,,,,,,,,,,,,,,,,,,,,,,,,,,,,,,,,,Unknown,Unknown,,,,,,,,,,,,,,,,,,,,,
178,178,Earl D'oeuville,,,,,,,2024-03-01,Animal Production,,,,Unknown,48.1231806,1.3272255,,,,,,,,,,,,,,,,,,,,,,,,,,,,,,,,,,,,,,,,,,,,,,,,,,,,,,,,,,,,,Unknown,Unknown,,,,,,,,,,,,,,,,,,,,,
179,179,SCEA AVICOLE MAISONS,,,,,,,2024-03-01,Animal Production,,,,Unknown,48.6178236,1.1011121,,,,,,,,,,,,,,,,,,,,,,,,,,,,,,,,,,,,,,,,,,,,,,,,,,,,,,,,,,,,,Unknown,Unknown,,,,,,,,,,,,,,,,,,,,,
180,180,FERME ET TOURISME,,,,,,,2024-03-01,Animal Production,,,,Unknown,48.150298,1.3876569,,,,,,,,,,,,,,,,,,,,,,,,,,,,,,,,,,,,,,,,,,,,,,,,,,,,,,,,,,,,,Unknown,Unknown,,,,,,,,,,,,,,,,,,,,,
181,181,HUARD MICHEL,,,,,,,2024-03-01,Animal Production,,,,Unknown,48.3019787,0.8903195,,,,,,,,,,,,,,,,,,,,,,,,,,,,,,,,,,,,,,,,,,,,,,,,,,,,,,,,,,,,,Unknown,Unknown,,,,,,,,,,,,,,,,,,,,,
182,182,FORTIN BRUNO,,,,,,,2024-03-01,Animal Production,,,,Unknown,48.5687346,1.0536321,,,,,,,,,,,,,,,,,,,,,,,,,,,,,,,,,,,,,,,,,,,,,,,,,,,,,,,,,,,,,Unknown,Unknown,,,,,,,,,,,,,,,,,,,,,
183,183,GEOFFROY DELPHINE,,,,,,,2024-03-01,Animal Production,,,,Unknown,48.6996701,0.9575976,,,,,,,,,,,,,,,,,,,,,,,,,,,,,,,,,,,,,,,,,,,,,,,,,,,,,,,,,,,,,Unknown,Unknown,,,,,,,,,,,,,,,,,,,,,
184,184,VASSOR NATHALIE,,,,,,,2024-03-01,Animal Production,,,,Unknown,48.1955442,1.315799,,,,,,,,,,,,,,,,,,,,,,,,,,,,,,,,,,,,,,,,,,,,,,,,,,,,,,,,,,,,,Unknown,Unknown,,,,,,,,,,,,,,,,,,,,,
185,185,FRANCHET ROMAIN RAYMOND MICHEL,,,,,,,2024-03-01,Animal Production,,,,Unknown,48.1173659,1.2741132,,,,,,,,,,,,,,,,,,,,,,,,,,,,,,,,,,,,,,,,,,,,,,,,,,,,,,,,,,,,,Unknown,Unknown,,,,,,,,,,,,,,,,,,,,,
186,186,DEBIEE TALBOT NADINE MAURICETTE GE,,,,,,,2024-03-01,Animal Production,,,,Unknown,48.1278946,1.0628487,,,,,,,,,,,,,,,,,,,,,,,,,,,,,,,,,,,,,,,,,,,,,,,,,,,,,,,,,,,,,Unknown,Unknown,,,,,,,,,,,,,,,,,,,,,
187,187,Goupil Christophe,,,,,,,2024-03-01,Animal Production,,,,Unknown,48.2900732,0.8603699,,,,,,,,,,,,,,,,,,,,,,,,,,,,,,,,,,,,,,,,,,,,,,,,,,,,,,,,,,,,,Unknown,Unknown,,,,,,,,,,,,,,,,,,,,,
188,188,LES VOLAILLES DES HARANGERES,,,,,,,2024-03-01,Animal Production,,,,Unknown,48.7033994,0.913816,,,,,,,,,,,,,,,,,,,,,,,,,,,,,,,,,,,,,,,,,,,,,,,,,,,,,,,,,,,,,Unknown,Unknown,,,,,,,,,,,,,,,,,,,,,
189,189,VOLLET JEAN-MARIE,,,,,,,2024-03-01,Animal Production,,,,Unknown,48.2912682,0.8312025,,,,,,,,,,,,,,,,,,,,,,,,,,,,,,,,,,,,,,,,,,,,,,,,,,,,,,,,,,,,,Unknown,Unknown,,,,,,,,,,,,,,,,,,,,,
190,190,Pichard Thierry LA FERME DU GRANDFRENE,,,,,,,2024-03-01,Animal Production,,,,Unknown,48.7497228,1.5467854,,,,,,,,,,,,,,,,,,,,,,,,,,,,,,,,,,,,,,,,,,,,,,,,,,,,,,,,,,,,,Unknown,Unknown,,,,,,,,,,,,,,,,,,,,,
191,191,POMMERET ADRIEN,,,,,,,2024-03-01,Animal Production,,,,Unknown,48.2379053,0.9994218,,,,,,,,,,,,,,,,,,,,,,,,,,,,,,,,,,,,,,,,,,,,,,,,,,,,,,,,,,,,,Unknown,Unknown,,,,,,,,,,,,,,,,,,,,,
192,192,HELIER CHARLES,,,,,,,2024-03-01,Animal Production,,,,Unknown,48.1620563,1.4265281,,,,,,,,,,,,,,,,,,,,,,,,,,,,,,,,,,,,,,,,,,,,,,,,,,,,,,,,,,,,,Unknown,Unknown,,,,,,,,,,,,,,,,,,,,,
193,193,HELIER CHARLES,,,,,,,2024-03-01,Animal Production,,,,Unknown,48.1589609,1.429487,,,,,,,,,,,,,,,,,,,,,,,,,,,,,,,,,,,,,,,,,,,,,,,,,,,,,,,,,,,,,Unknown,Unknown,,,,,,,,,,,,,,,,,,,,,
194,194,Le Chesne Château,,,,,,,2024-03-01,Animal Production,,,,Unknown,48.4258900822059,1.85398578643799,,,,,,,,,,,,,,,,,,,,,,,,,,,,,,,,,,,,,,,,,,,,,,,,,,,,,,,,,,,,,Unknown,Unknown,,,,,,,,,,,,,,,,,,,,,
195,195,Elevage de Chevaux / Juments ?,,,,,,,2024-03-01,Animal Production,,,,Unknown,48.5438742,2.1647374,,,,,,,,,,,,,,,,,,,,,,,,,,,,,,,,,,,,,,,,,,,,,,,,,,,,,,,,,,,,,Unknown,Unknown,,,,,,,,,,,,,,,,,,,,,
196,196,Elevage avicole d'Ile-de-France (CAIF),,,,,,,2024-03-01,Animal Production,,,,Unknown,48.6021391,2.2664616,,,,,,,,,,,,,,,,,,,,,,,,,,,,,,,,,,,,,,,,,,,,,,,,,,,,,,,,,,,,,Unknown,Unknown,,,,,,,,,,,,,,,,,,,,,
197,197,Ferme pédagogique de Gally,,,,,,,2024-03-01,Exhibition,,,,Unknown,48.817828,2.0824937,,,,,,,,,,,,,,,,,,,,,,,,,,,,,,,,,,,,,,,,,,,,,,,,,,,,,,,,,,,,,Unknown,Unknown,,,,,,,,,,,,,,,,,,,,,
198,198,Elevage de Moutons / Brebis,,,,,,,2024-03-01,Animal Production,,,,Unknown,48.705034,2.74794499999996,,,,,,,,,,,,,,,,,,,,,,,,,,,,,,,,,,,,,,,,,,,,,,,,,,,,,,,,,,,,,Unknown,Unknown,,,,,,,,,,,,,,,,,,,,,
199,199,Centre de Production et de Distribution Avicole Boulajeri SAS,,,,,,,2024-03-01,Animal Production,,,,Unknown,48.7100893,2.7412973,,,,,,,,,,,,,,,,,,,,,,,,,,,,,,,,,,,,,,,,,,,,,,,,,,,,,,,,,,,,,Unknown,Unknown,,,,,,,,,,,,,,,,,,,,,
200,200,Élevage MAHE Michel (GAEC),,,,,,,2024-03-01,Animal Production,,,,Unknown,48.9063614,2.9156181,,,,,,,,,,,,,,,,,,,,,,,,,,,,,,,,,,,,,,,,,,,,,,,,,,,,,,,,,,,,,Unknown,Unknown,,,,,,,,,,,,,,,,,,,,,
201,201,Elevage ?,,,,,,,2024-03-01,Animal Production,,,,Unknown,48.185665,2.37374699999998,,,,,,,,,,,,,,,,,,,,,,,,,,,,,,,,,,,,,,,,,,,,,,,,,,,,,,,,,,,,,Unknown,Unknown,,,,,,,,,,,,,,,,,,,,,
202,202,Elevage ?,,,,,,,2024-03-01,Animal Production,,,,Unknown,48.1857592,2.3747277,,,,,,,,,,,,,,,,,,,,,,,,,,,,,,,,,,,,,,,,,,,,,,,,,,,,,,,,,,,,,Unknown,Unknown,,,,,,,,,,,,,,,,,,,,,
203,203,Elevage ?,,,,,,,2024-03-01,Animal Production,,,,Unknown,48.1842749,2.3741834,,,,,,,,,,,,,,,,,,,,,,,,,,,,,,,,,,,,,,,,,,,,,,,,,,,,,,,,,,,,,Unknown,Unknown,,,,,,,,,,,,,,,,,,,,,
204,204,Élevage de Poules / Coqs,,,,,,,2024-03-01,Animal Production,,,,Unknown,48.1840997,2.373807,,,,,,,,,,,,,,,,,,,,,,,,,,,,,,,,,,,,,,,,,,,,,,,,,,,,,,,,,,,,,Unknown,Unknown,,,,,,,,,,,,,,,,,,,,,
205,205,Elevage ?,,,,,,,2024-03-01,Animal Production,,,,Unknown,48.184258,2.3748356,,,,,,,,,,,,,,,,,,,,,,,,,,,,,,,,,,,,,,,,,,,,,,,,,,,,,,,,,,,,,Unknown,Unknown,,,,,,,,,,,,,,,,,,,,,
206,206,Elevage Chevaux / Juments ?,,,,,,,2024-03-01,Animal Production,,,,Unknown,48.372066,2.23756000000003,,,,,,,,,,,,,,,,,,,,,,,,,,,,,,,,,,,,,,,,,,,,,,,,,,,,,,,,,,,,,Unknown,Unknown,,,,,,,,,,,,,,,,,,,,,
207,207,Écurie des 7 Ormes,,,,,,,2024-03-01,Animal Production,,,,Unknown,48.5777609,2.341658,,,,,,,,,,,,,,,,,,,,,,,,,,,,,,,,,,,,,,,,,,,,,,,,,,,,,,,,,,,,,Unknown,Unknown,,,,,,,,,,,,,,,,,,,,,
208,208,Elevage de Chevaux / Juments ?,,,,,,,2024-03-01,Animal Production,,,,Unknown,48.55918,2.27269100000001,,,,,,,,,,,,,,,,,,,,,,,,,,,,,,,,,,,,,,,,,,,,,,,,,,,,,,,,,,,,,Unknown,Unknown,,,,,,,,,,,,,,,,,,,,,
209,209,Élevage la Doudou,,,,,,,2024-03-01,Animal Production,,,,Unknown,48.5470004,2.2668795,,,,,,,,,,,,,,,,,,,,,,,,,,,,,,,,,,,,,,,,,,,,,,,,,,,,,,,,,,,,,Unknown,Unknown,,,,,,,,,,,,,,,,,,,,,
210,210,Élevage la Doudou,,,,,,,2024-03-01,Animal Production,,,,Unknown,48.5472508,2.2670404,,,,,,,,,,,,,,,,,,,,,,,,,,,,,,,,,,,,,,,,,,,,,,,,,,,,,,,,,,,,,Unknown,Unknown,,,,,,,,,,,,,,,,,,,,,
211,211,Elevage de Vaches / Taureaux ?,,,,,,,2024-03-01,Animal Production,,,,Unknown,48.656577,2.814213,,,,,,,,,,,,,,,,,,,,,,,,,,,,,,,,,,,,,,,,,,,,,,,,,,,,,,,,,,,,,Unknown,Unknown,,,,,,,,,,,,,,,,,,,,,
212,212,Ferme des Beurreries,,,,,,,2024-03-01,Animal Production,,,,Unknown,48.8932137,1.9685354,,,,,,,,,,,,,,,,,,,,,,,,,,,,,,,,,,,,,,,,,,,,,,,,,,,,,,,,,,,,,Unknown,Unknown,,,,,,,,,,,,,,,,,,,,,
213,213,Le Côteau des Cerfs Mouroux,,,,,,,2024-03-01,Animal Production,,,,Unknown,48.8258001,3.070063,,,,,,,,,,,,,,,,,,,,,,,,,,,,,,,,,,,,,,,,,,,,,,,,,,,,,,,,,,,,,Unknown,Unknown,,,,,,,,,,,,,,,,,,,,,
214,214,La Ferme de Moigny,,,,,,,2024-03-01,Animal Production,,,,Unknown,48.4404659,2.4587825,,,,,,,,,,,,,,,,,,,,,,,,,,,,,,,,,,,,,,,,,,,,,,,,,,,,,,,,,,,,,Unknown,Unknown,,,,,,,,,,,,,,,,,,,,,
215,215,La Ferme du Moulin,,,,,,,2024-03-01,Animal Production,,,,Unknown,48.8018668,1.5902925,,,,,,,,,,,,,,,,,,,,,,,,,,,,,,,,,,,,,,,,,,,,,,,,,,,,,,,,,,,,,Unknown,Unknown,,,,,,,,,,,,,,,,,,,,,
216,216,Élevage de Moutons / Brebis,,,,,,,2024-03-01,Animal Production,,,,Unknown,48.651147,2.94784700000002,,,,,,,,,,,,,,,,,,,,,,,,,,,,,,,,,,,,,,,,,,,,,,,,,,,,,,,,,,,,,Unknown,Unknown,,,,,,,,,,,,,,,,,,,,,
217,217,Lecuyer R P SCEA,,,,,,,2024-03-01,Animal Production,,,,Unknown,49.1337471,2.42753319999997,,,,,,,,,,,,,,,,,,,,,,,,,,,,,,,,,,,,,,,,,,,,,,,,,,,,,,,,,,,,,Unknown,Unknown,,,,,,,,,,,,,,,,,,,,,
218,218,Earl Du Bois de la Noue,,,,,,,2024-03-01,Animal Production,,,,Unknown,49.1266272,2.4190598,,,,,,,,,,,,,,,,,,,,,,,,,,,,,,,,,,,,,,,,,,,,,,,,,,,,,,,,,,,,,Unknown,Unknown,,,,,,,,,,,,,,,,,,,,,
219,219,Elevage ?,,,,,,,2024-03-01,Animal Production,,,,Unknown,48.703185,2.7642977,,,,,,,,,,,,,,,,,,,,,,,,,,,,,,,,,,,,,,,,,,,,,,,,,,,,,,,,,,,,,Unknown,Unknown,,,,,,,,,,,,,,,,,,,,,
220,220,Ferme Larvor,,,,,,,2024-03-01,Animal Production,,,,Unknown,49.1126184,2.4441685,,,,,,,,,,,,,,,,,,,,,,,,,,,,,,,,,,,,,,,,,,,,,,,,,,,,,,,,,,,,,Unknown,Unknown,,,,,,,,,,,,,,,,,,,,,
221,221,Elevage ?,,,,,,,2024-03-01,Animal Production,,,,Unknown,49.043535,1.8834851,,,,,,,,,,,,,,,,,,,,,,,,,,,,,,,,,,,,,,,,,,,,,,,,,,,,,,,,,,,,,Unknown,Unknown,,,,,,,,,,,,,,,,,,,,,
222,222,Ovi-Metha,,,,,,,2024-03-01,Animal Production,,,,Unknown,44.147584,2.4721792,,,,,,,,,,,,,,,,,,,,,,,,,,,,,,,,,,,,,,,,,,,,,,,,,,,,,,,,,,,,,Unknown,Unknown,,,,,,,,,,,,,,,,,,,,,
223,223,La Chatterie Des Aristos-Dolls Élevage Familial De Ragdoll,,,,,,,2024-03-01,Animal Production,,,,Unknown,48.6390323,2.58686650000004,,,,,,,,,,,,,,,,,,,,,,,,,,,,,,,,,,,,,,,,,,,,,,,,,,,,,,,,,,,,,Unknown,Unknown,,,,,,,,,,,,,,,,,,,,,
224,224,Elevage de Vaches / Taureaux ?,,,,,,,2024-03-01,Animal Production,,,,Unknown,48.669122,2.64375500000006,,,,,,,,,,,,,,,,,,,,,,,,,,,,,,,,,,,,,,,,,,,,,,,,,,,,,,,,,,,,,Unknown,Unknown,,,,,,,,,,,,,,,,,,,,,
225,225,Elevage de Vaches / Taureaux,,,,,,,2024-03-01,Animal Production,,,,Unknown,48.683684,2.77215799999999,,,,,,,,,,,,,,,,,,,,,,,,,,,,,,,,,,,,,,,,,,,,,,,,,,,,,,,,,,,,,Unknown,Unknown,,,,,,,,,,,,,,,,,,,,,
226,226,GAEC du Grand Christ,,,,,,,2024-03-01,Animal Production,,,,Unknown,50.8068212,2.6994159,,,,,,,,,,,,,,,,,,,,,,,,,,,,,,,,,,,,,,,,,,,,,,,,,,,,,,,,,,,,,Unknown,Unknown,,,,,,,,,,,,,,,,,,,,,
227,227,Elevage de Poules / Coqs,,,,,,,2024-03-01,Animal Production,,,,Unknown,50.713365,2.8438461,,,,,,,,,,,,,,,,,,,,,,,,,,,,,,,,,,,,,,,,,,,,,,,,,,,,,,,,,,,,,Unknown,Unknown,,,,,,,,,,,,,,,,,,,,,
228,228,Ferme d'Egreville EARL,,,,,,,2024-03-01,Animal Production,,,,Unknown,48.5835787,2.7098023,,,,,,,,,,,,,,,,,,,,,,,,,,,,,,,,,,,,,,,,,,,,,,,,,,,,,,,,,,,,,Unknown,Unknown,,,,,,,,,,,,,,,,,,,,,
229,229,Le Poulailler d'Havelu (Phillipe Duval),,,,,,,2024-03-01,Animal Production,,,,Unknown,48.790313,1.523368,,,,,,,,,,,,,,,,,,,,,,,,,,,,,,,,,,,,,,,,,,,,,,,,,,,,,,,,,,,,,Unknown,Unknown,,,,,,,,,,,,,,,,,,,,,
230,230,Elevage d'oiseaux / oiselles,,,,,,,2024-03-01,Animal Production,,,,Unknown,48.734581,1.56972199999996,,,,,,,,,,,,,,,,,,,,,,,,,,,,,,,,,,,,,,,,,,,,,,,,,,,,,,,,,,,,,Unknown,Unknown,,,,,,,,,,,,,,,,,,,,,
231,231,Ecuries Elevage de Voise,,,,,,,2024-03-01,Animal Production,,,,Unknown,48.677542,1.47296000000006,,,,,,,,,,,,,,,,,,,,,,,,,,,,,,,,,,,,,,,,,,,,,,,,,,,,,,,,,,,,,Unknown,Unknown,,,,,,,,,,,,,,,,,,,,,
232,232,Earl Deulet,,,,,,,2024-03-01,Animal Production,,,,Unknown,48.7148212,1.3841555,,,,,,,,,,,,,,,,,,,,,,,,,,,,,,,,,,,,,,,,,,,,,,,,,,,,,,,,,,,,,Unknown,Unknown,,,,,,,,,,,,,,,,,,,,,
233,233,Élevage de Vaches / Taureaux,,,,,,,2024-03-01,Animal Production,,,,Unknown,49.1239939121376,1.8422045186162,,,,,,,,,,,,,,,,,,,,,,,,,,,,,,,,,,,,,,,,,,,,,,,,,,,,,,,,,,,,,Unknown,Unknown,,,,,,,,,,,,,,,,,,,,,
234,234,Elevage,,,,,,,2024-03-01,Animal Production,,,,Unknown,48.512455,1.3505407,,,,,,,,,,,,,,,,,,,,,,,,,,,,,,,,,,,,,,,,,,,,,,,,,,,,,,,,,,,,,Unknown,Unknown,,,,,,,,,,,,,,,,,,,,,
235,235,Elevage,,,,,,,2024-03-01,Animal Production,,,,Unknown,50.79248,3.14636199999995,,,,,,,,,,,,,,,,,,,,,,,,,,,,,,,,,,,,,,,,,,,,,,,,,,,,,,,,,,,,,Unknown,Unknown,,,,,,,,,,,,,,,,,,,,,
236,236,EARL Montgermont,,,,,,,2024-03-01,Animal Production,,,,Unknown,48.045431,-1.77485300000001,,,,,,,,,,,,,,,,,,,,,,,,,,,,,,,,,,,,,,,,,,,,,,,,,,,,,,,,,,,,,Unknown,Unknown,,,,,,,,,,,,,,,,,,,,,
237,237,Elevage de Vaches / Taureaux,,,,,,,2024-03-01,Animal Production,,,,Unknown,50.291276,2.70161600000006,,,,,,,,,,,,,,,,,,,,,,,,,,,,,,,,,,,,,,,,,,,,,,,,,,,,,,,,,,,,,Unknown,Unknown,,,,,,,,,,,,,,,,,,,,,
238,238,Pisciculture d'Anzin-Saint-Aubin,,,,,,,2024-03-01,Animal Production,,,,Unknown,50.3080978,2.7480096,,,,,,,,,,,,,,,,,,,,,,,,,,,,,,,,,,,,,,,,,,,,,,,,,,,,,,,,,,,,,Unknown,Unknown,,,,,,,,,,,,,,,,,,,,,
239,239,Pisciculture d'Étrun,,,,,,,2024-03-01,Animal Production,,,,Unknown,50.3135604,2.7053448,,,,,,,,,,,,,,,,,,,,,,,,,,,,,,,,,,,,,,,,,,,,,,,,,,,,,,,,,,,,,Unknown,Unknown,,,,,,,,,,,,,,,,,,,,,
240,240,Pisciculture d'Étrun,,,,,,,2024-03-01,Animal Production,,,,Unknown,50.3121873,2.7017935,,,,,,,,,,,,,,,,,,,,,,,,,,,,,,,,,,,,,,,,,,,,,,,,,,,,,,,,,,,,,Unknown,Unknown,,,,,,,,,,,,,,,,,,,,,
241,241,S.A.R.L. La Bussière,,,,,,,2024-03-01,Animal Production,,,,Unknown,47.4330433,3.4835586,,,,,,,,,,,,,,,,,,,,,,,,,,,,,,,,,,,,,,,,,,,,,,,,,,,,,,,,,,,,,Unknown,Unknown,,,,,,,,,,,,,,,,,,,,,
242,242,EARL ROUCOU,,,,,,,2024-03-01,Animal Production,,,,Unknown,46.9943561,3.6702284,,,,,,,,,,,,,,,,,,,,,,,,,,,,,,,,,,,,,,,,,,,,,,,,,,,,,,,,,,,,,Unknown,Unknown,,,,,,,,,,,,,,,,,,,,,
243,243,G.a.e.c Soulangy,,,,,,,2024-03-01,Animal Production,,,,Unknown,47.0571374,3.0556981,,,,,,,,,,,,,,,,,,,,,,,,,,,,,,,,,,,,,,,,,,,,,,,,,,,,,,,,,,,,,Unknown,Unknown,,,,,,,,,,,,,,,,,,,,,
244,244,Gaec Des Plots,,,,,,,2024-03-01,Animal Production,,,,Unknown,46.8056684,3.5592356,,,,,,,,,,,,,,,,,,,,,,,,,,,,,,,,,,,,,,,,,,,,,,,,,,,,,,,,,,,,,Unknown,Unknown,,,,,,,,,,,,,,,,,,,,,
245,245,PAYEN CHARLES,,,,,,,2024-03-01,Animal Production,,,,Unknown,47.2075449,3.2689173,,,,,,,,,,,,,,,,,,,,,,,,,,,,,,,,,,,,,,,,,,,,,,,,,,,,,,,,,,,,,Unknown,Unknown,,,,,,,,,,,,,,,,,,,,,
246,246,Roche Murielle,,,,,,,2024-03-01,Animal Production,,,,Unknown,47.2411302,3.3692369,,,,,,,,,,,,,,,,,,,,,,,,,,,,,,,,,,,,,,,,,,,,,,,,,,,,,,,,,,,,,Unknown,Unknown,,,,,,,,,,,,,,,,,,,,,
247,247,MAITRE RICHARD PHILIPPE,,,,,,,2024-03-01,Animal Production,,,,Unknown,46.729267,3.8678334,,,,,,,,,,,,,,,,,,,,,,,,,,,,,,,,,,,,,,,,,,,,,,,,,,,,,,,,,,,,,Unknown,Unknown,,,,,,,,,,,,,,,,,,,,,
248,248,SCEA Bouche Freres,,,,,,,2024-03-01,Animal Production,,,,Unknown,47.2803087,3.9507127,,,,,,,,,,,,,,,,,,,,,,,,,,,,,,,,,,,,,,,,,,,,,,,,,,,,,,,,,,,,,Unknown,Unknown,,,,,,,,,,,,,,,,,,,,,
249,249,Elevage de Vaches / Taureaux.,,,,,,,2024-03-01,Animal Production,,,,Unknown,46.9933404,3.8560663,,,,,,,,,,,,,,,,,,,,,,,,,,,,,,,,,,,,,,,,,,,,,,,,,,,,,,,,,,,,,Unknown,Unknown,,,,,,,,,,,,,,,,,,,,,
250,250,Aurousseau Dumaret Bernadette,,,,,,,2024-03-01,Animal Production,,,,Unknown,46.9927933,3.85448,,,,,,,,,,,,,,,,,,,,,,,,,,,,,,,,,,,,,,,,,,,,,,,,,,,,,,,,,,,,,Unknown,Unknown,,,,,,,,,,,,,,,,,,,,,
251,251,SARL LE MARRONNIER DE CODDES,,,,,,,2024-03-01,Animal Production,,,,Unknown,46.8386591,3.6746884,,,,,,,,,,,,,,,,,,,,,,,,,,,,,,,,,,,,,,,,,,,,,,,,,,,,,,,,,,,,,Unknown,Unknown,,,,,,,,,,,,,,,,,,,,,
252,252,Elevage,,,,,,,2024-03-01,Animal Production,,,,Unknown,47.223121,3.36075099999994,,,,,,,,,,,,,,,,,,,,,,,,,,,,,,,,,,,,,,,,,,,,,,,,,,,,,,,,,,,,,Unknown,Unknown,,,,,,,,,,,,,,,,,,,,,
253,253,Elevage de Vaches / Taureaux,,,,,,,2024-03-01,Animal Production,,,,Unknown,47.06619,3.06429300000002,,,,,,,,,,,,,,,,,,,,,,,,,,,,,,,,,,,,,,,,,,,,,,,,,,,,,,,,,,,,,Unknown,Unknown,,,,,,,,,,,,,,,,,,,,,
254,254,Elevage de Vaches / Taureaux ?,,,,,,,2024-03-01,Animal Production,,,,Unknown,47.111169,3.05250799999999,,,,,,,,,,,,,,,,,,,,,,,,,,,,,,,,,,,,,,,,,,,,,,,,,,,,,,,,,,,,,Unknown,Unknown,,,,,,,,,,,,,,,,,,,,,
255,255,Elevage de Vaches / Taureaux,,,,,,,2024-03-01,Animal Production,,,,Unknown,46.8139104,3.5576857,,,,,,,,,,,,,,,,,,,,,,,,,,,,,,,,,,,,,,,,,,,,,,,,,,,,,,,,,,,,,Unknown,Unknown,,,,,,,,,,,,,,,,,,,,,
256,256,Elevage de Vaches / Taureaux,,,,,,,2024-03-01,Animal Production,,,,Unknown,46.8099192,3.5308797,,,,,,,,,,,,,,,,,,,,,,,,,,,,,,,,,,,,,,,,,,,,,,,,,,,,,,,,,,,,,Unknown,Unknown,,,,,,,,,,,,,,,,,,,,,
257,257,GAEC des 2 Hameaux,,,,,,,2024-03-01,Animal Production,,,,Unknown,50.6602955,2.0930643,,,,,,,,,,,,,,,,,,,,,,,,,,,,,,,,,,,,,,,,,,,,,,,,,,,,,,,,,,,,,Unknown,Unknown,,,,,,,,,,,,,,,,,,,,,
258,258,SCEA du Roussard,,,,,,,2024-03-01,Animal Production,,,,Unknown,50.5301102,2.4020662,,,,,,,,,,,,,,,,,,,,,,,,,,,,,,,,,,,,,,,,,,,,,,,,,,,,,,,,,,,,,Unknown,Unknown,,,,,,,,,,,,,,,,,,,,,
259,259,Elevage de Vaches / Taureaux,,,,,,,2024-03-01,Animal Production,,,,Unknown,50.5256771,2.3796442,,,,,,,,,,,,,,,,,,,,,,,,,,,,,,,,,,,,,,,,,,,,,,,,,,,,,,,,,,,,,Unknown,Unknown,,,,,,,,,,,,,,,,,,,,,
260,260,Ö D'Alice,,,,,,,2024-03-01,Animal Production,,,,Unknown,48.4873941,1.2150258,,,,,,,,,,,,,,,,,,,,,,,,,,,,,,,,,,,,,,,,,,,,,,,,,,,,,,,,,,,,,Unknown,Unknown,,,,,,,,,,,,,,,,,,,,,
261,261,EARL Les Bruyères,,,,,,,2024-03-01,Animal Production,,,,Unknown,48.5102141,1.3509439,,,,,,,,,,,,,,,,,,,,,,,,,,,,,,,,,,,,,,,,,,,,,,,,,,,,,,,,,,,,,Unknown,Unknown,,,,,,,,,,,,,,,,,,,,,
262,262,Ferme Du Bois Des Louvières,,,,,,,2024-03-01,Animal Production,,,,Unknown,48.7320724,1.4362293,,,,,,,,,,,,,,,,,,,,,,,,,,,,,,,,,,,,,,,,,,,,,,,,,,,,,,,,,,,,,Unknown,Unknown,,,,,,,,,,,,,,,,,,,,,
263,263,Elevage de Vaches / Taureaux,,,,,,,2024-03-01,Animal Production,,,,Unknown,48.799536,0.572186999999985,,,,,,,,,,,,,,,,,,,,,,,,,,,,,,,,,,,,,,,,,,,,,,,,,,,,,,,,,,,,,Unknown,Unknown,,,,,,,,,,,,,,,,,,,,,
264,264,Ferme de la Sapaie,,,,,,,2024-03-01,Animal Production,,,,Unknown,48.7891506,0.6152068,,,,,,,,,,,,,,,,,,,,,,,,,,,,,,,,,,,,,,,,,,,,,,,,,,,,,,,,,,,,,Unknown,Unknown,,,,,,,,,,,,,,,,,,,,,
265,265,Elevage ?,,,,,,,2024-03-01,Animal Production,,,,Unknown,48.801189,0.676435999999967,,,,,,,,,,,,,,,,,,,,,,,,,,,,,,,,,,,,,,,,,,,,,,,,,,,,,,,,,,,,,Unknown,Unknown,,,,,,,,,,,,,,,,,,,,,
266,266,Elevage ?,,,,,,,2024-03-01,Animal Production,,,,Unknown,48.789043,0.67469200000005,,,,,,,,,,,,,,,,,,,,,,,,,,,,,,,,,,,,,,,,,,,,,,,,,,,,,,,,,,,,,Unknown,Unknown,,,,,,,,,,,,,,,,,,,,,
267,267,Zone de pâturage pour Vaches / Taureaux,,,,,,,2024-03-01,Animal Production,,,,Unknown,48.867541,1.611403,,,,,,,,,,,,,,,,,,,,,,,,,,,,,,,,,,,,,,,,,,,,,,,,,,,,,,,,,,,,,Unknown,Unknown,,,,,,,,,,,,,,,,,,,,,
268,268,La Ferme de Malaguet,,,,,,,2024-03-01,Animal Production; Meat Slaughter,,,,Unknown,48.361089,1.6352256,,,,,,,,,,,,,,,,,,,,,,,,,,,,,,,,,,,,,,,,,,,,,,,,,,,,,,,,,,,,,Unknown,Unknown,,,,,,,,,,,,,,,,,,,,,
269,269,Elevage,,,,,,,2024-03-01,Animal Production,,,,Unknown,48.752346,1.586905,,,,,,,,,,,,,,,,,,,,,,,,,,,,,,,,,,,,,,,,,,,,,,,,,,,,,,,,,,,,,Unknown,Unknown,,,,,,,,,,,,,,,,,,,,,
270,270,Elevage de Vaches laitières,,,,,,,2024-03-01,Animal Production,,,,Unknown,48.753365,1.60578299999997,,,,,,,,,,,,,,,,,,,,,,,,,,,,,,,,,,,,,,,,,,,,,,,,,,,,,,,,,,,,,Unknown,Unknown,,,,,,,,,,,,,,,,,,,,,
271,271,Elevage de Vaches laitières,,,,,,,2024-03-01,Animal Production,,,,Unknown,48.7456432,1.6082325,,,,,,,,,,,,,,,,,,,,,,,,,,,,,,,,,,,,,,,,,,,,,,,,,,,,,,,,,,,,,Unknown,Unknown,,,,,,,,,,,,,,,,,,,,,
272,272,Elevage de Vaches / Taureaux,,,,,,,2024-03-01,Animal Production,,,,Unknown,48.6715853,1.494391,,,,,,,,,,,,,,,,,,,,,,,,,,,,,,,,,,,,,,,,,,,,,,,,,,,,,,,,,,,,,Unknown,Unknown,,,,,,,,,,,,,,,,,,,,,
273,273,Elevage de Vaches / Taureaux,,,,,,,2024-03-01,Animal Production,,,,Unknown,48.8695408,1.6339527,,,,,,,,,,,,,,,,,,,,,,,,,,,,,,,,,,,,,,,,,,,,,,,,,,,,,,,,,,,,,Unknown,Unknown,,,,,,,,,,,,,,,,,,,,,
274,274,Elevage,,,,,,,2024-03-01,Animal Production,,,,Unknown,48.618825,1.38847499999997,,,,,,,,,,,,,,,,,,,,,,,,,,,,,,,,,,,,,,,,,,,,,,,,,,,,,,,,,,,,,Unknown,Unknown,,,,,,,,,,,,,,,,,,,,,
275,275,Cholin Earl,,,,,,,2024-03-01,Animal Production,,,,Unknown,48.8854087,2.9731315,,,,,,,,,,,,,,,,,,,,,,,,,,,,,,,,,,,,,,,,,,,,,,,,,,,,,,,,,,,,,Unknown,Unknown,,,,,,,,,,,,,,,,,,,,,
276,276,Ruysschaert Andre,,,,,,,2024-03-01,Animal Production,,,,Unknown,48.5586018,3.2168545,,,,,,,,,,,,,,,,,,,,,,,,,,,,,,,,,,,,,,,,,,,,,,,,,,,,,,,,,,,,,Unknown,Unknown,,,,,,,,,,,,,,,,,,,,,
277,277,Elevage ?,,,,,,,2024-03-01,Animal Production,,,,Unknown,48.565144,3.20574899999997,,,,,,,,,,,,,,,,,,,,,,,,,,,,,,,,,,,,,,,,,,,,,,,,,,,,,,,,,,,,,Unknown,Unknown,,,,,,,,,,,,,,,,,,,,,
278,278,Joubert Catherine,,,,,,,2024-03-01,Animal Production,,,,Unknown,48.2512399,2.8273934,,,,,,,,,,,,,,,,,,,,,,,,,,,,,,,,,,,,,,,,,,,,,,,,,,,,,,,,,,,,,Unknown,Unknown,,,,,,,,,,,,,,,,,,,,,
279,279,Lycée agricole de Bougainville,,,,,,,2024-03-01,Animal Production,,,,Unknown,48.6737758,2.6477802,,,,,,,,,,,,,,,,,,,,,,,,,,,,,,,,,,,,,,,,,,,,,,,,,,,,,,,,,,,,,Unknown,Unknown,,,,,,,,,,,,,,,,,,,,,
280,280,Haras de Fontaineliveau,,,,,,,2024-03-01,Animal Production,,,,Unknown,48.4755886,2.18451879999998,,,,,,,,,,,,,,,,,,,,,,,,,,,,,,,,,,,,,,,,,,,,,,,,,,,,,,,,,,,,,Unknown,Unknown,,,,,,,,,,,,,,,,,,,,,
281,281,Elevage ?,,,,,,,2024-03-01,Animal Production,,,,Unknown,48.5430379,2.0760073,,,,,,,,,,,,,,,,,,,,,,,,,,,,,,,,,,,,,,,,,,,,,,,,,,,,,,,,,,,,,Unknown,Unknown,,,,,,,,,,,,,,,,,,,,,
282,282,Ferme des Sueurs,,,,,,,2024-03-01,Animal Production,,,,Unknown,48.5544035,2.0692117,,,,,,,,,,,,,,,,,,,,,,,,,,,,,,,,,,,,,,,,,,,,,,,,,,,,,,,,,,,,,Unknown,Unknown,,,,,,,,,,,,,,,,,,,,,
283,283,Ferme des Sueurs,,,,,,,2024-03-01,Animal Production,,,,Unknown,48.5550951,2.0700852,,,,,,,,,,,,,,,,,,,,,,,,,,,,,,,,,,,,,,,,,,,,,,,,,,,,,,,,,,,,,Unknown,Unknown,,,,,,,,,,,,,,,,,,,,,
284,284,Elevage ?,,,,,,,2024-03-01,Animal Production,,,,Unknown,48.1863421,2.0956075,,,,,,,,,,,,,,,,,,,,,,,,,,,,,,,,,,,,,,,,,,,,,,,,,,,,,,,,,,,,,Unknown,Unknown,,,,,,,,,,,,,,,,,,,,,
285,285,Ferme de Bel Air - Grand Est,,,,,,,2024-03-01,Animal Production,,,,Unknown,48.7535699,3.51496840000004,,,,,,,,,,,,,,,,,,,,,,,,,,,,,,,,,,,,,,,,,,,,,,,,,,,,,,,,,,,,,Unknown,Unknown,,,,,,,,,,,,,,,,,,,,,
286,286,Elevage,,,,,,,2024-03-01,Animal Production,,,,Unknown,48.79848,3.46174700000006,,,,,,,,,,,,,,,,,,,,,,,,,,,,,,,,,,,,,,,,,,,,,,,,,,,,,,,,,,,,,Unknown,Unknown,,,,,,,,,,,,,,,,,,,,,
287,287,Les Caillots,,,,,,,2024-03-01,Animal Production,,,,Unknown,46.7015771,1.4608867,,,,,,,,,,,,,,,,,,,,,,,,,,,,,,,,,,,,,,,,,,,,,,,,,,,,,,,,,,,,,Unknown,Unknown,,,,,,,,,,,,,,,,,,,,,
288,288,Elevage de Vaches / Taureaux,,,,,,,2024-03-01,Animal Production,,,,Unknown,48.831471,3.35779600000001,,,,,,,,,,,,,,,,,,,,,,,,,,,,,,,,,,,,,,,,,,,,,,,,,,,,,,,,,,,,,Unknown,Unknown,,,,,,,,,,,,,,,,,,,,,
289,289,Birckel (EARL),,,,,,,2024-03-01,Animal Production,,,,Unknown,48.9153059,2.9872476,,,,,,,,,,,,,,,,,,,,,,,,,,,,,,,,,,,,,,,,,,,,,,,,,,,,,,,,,,,,,Unknown,Unknown,,,,,,,,,,,,,,,,,,,,,
290,290,SARL le KEILER DU BOURBONNAIS,,,,,,,2024-03-01,Animal Production; Hunting/Game,,,,Unknown,46.6570443,3.3797619,,,,,,,,,,,,,,,,,,,,,,,,,,,,,,,,,,,,,,,,,,,,,,,,,,,,,,,,,,,,,Unknown,Unknown,,,,,,,,,,,,,,,,,,,,,
291,291,Gronnier Meplain Dominique Marie Mart,,,,,,,2024-03-01,Animal Production; Hunting/Game,,,,Unknown,46.2964036,3.7620894,,,,,,,,,,,,,,,,,,,,,,,,,,,,,,,,,,,,,,,,,,,,,,,,,,,,,,,,,,,,,Unknown,Unknown,,,,,,,,,,,,,,,,,,,,,
292,292,PELLETIER Paul,,,,,,,2024-03-01,Animal Production; Hunting/Game,,,,Unknown,46.5532711,3.4743259,,,,,,,,,,,,,,,,,,,,,,,,,,,,,,,,,,,,,,,,,,,,,,,,,,,,,,,,,,,,,Unknown,Unknown,,,,,,,,,,,,,,,,,,,,,
293,293,"GFR LES BARREAUX
ROUX Jean Michel",,,,,,,2024-03-01,Animal Production; Hunting/Game,,,,Unknown,46.4989428,3.4701467,,,,,,,,,,,,,,,,,,,,,,,,,,,,,,,,,,,,,,,,,,,,,,,,,,,,,,,,,,,,,Unknown,Unknown,,,,,,,,,,,,,,,,,,,,,
294,294,Ferme de l'Auray,,,,,,,2024-03-01,Animal Production,,,,Unknown,48.767458,1.8399884,,,,,,,,,,,,,,,,,,,,,,,,,,,,,,,,,,,,,,,,,,,,,,,,,,,,,,,,,,,,,Unknown,Unknown,,,,,,,,,,,,,,,,,,,,,
295,295,Elevage ?,,,,,,,2024-03-01,Animal Production,,,,Unknown,48.7587432,1.267461,,,,,,,,,,,,,,,,,,,,,,,,,,,,,,,,,,,,,,,,,,,,,,,,,,,,,,,,,,,,,Unknown,Unknown,,,,,,,,,,,,,,,,,,,,,
296,296,Elevage de Vaches / Taureaux,,,,,,,2024-03-01,Animal Production,,,,Unknown,48.767094,1.28882999999996,,,,,,,,,,,,,,,,,,,,,,,,,,,,,,,,,,,,,,,,,,,,,,,,,,,,,,,,,,,,,Unknown,Unknown,,,,,,,,,,,,,,,,,,,,,
297,297,Elevage ?,,,,,,,2024-03-01,Animal Production,,,,Unknown,48.84289,1.03851699999996,,,,,,,,,,,,,,,,,,,,,,,,,,,,,,,,,,,,,,,,,,,,,,,,,,,,,,,,,,,,,Unknown,Unknown,,,,,,,,,,,,,,,,,,,,,
298,298,Elevage de Vaches / Taureaux,,,,,,,2024-03-01,Animal Production,,,,Unknown,48.843803,0.998862000000031,,,,,,,,,,,,,,,,,,,,,,,,,,,,,,,,,,,,,,,,,,,,,,,,,,,,,,,,,,,,,Unknown,Unknown,,,,,,,,,,,,,,,,,,,,,
299,299,Élevage et Maraichage les Grands Prés.,,,,,,,2024-03-01,Animal Production,,,,Unknown,48.9217781,2.9235617,,,,,,,,,,,,,,,,,,,,,,,,,,,,,,,,,,,,,,,,,,,,,,,,,,,,,,,,,,,,,Unknown,Unknown,,,,,,,,,,,,,,,,,,,,,
300,300,Elevage d'Anthalex,,,,,,,2024-03-01,Animal Production,,,,Unknown,48.5000707,2.228182,,,,,,,,,,,,,,,,,,,,,,,,,,,,,,,,,,,,,,,,,,,,,,,,,,,,,,,,,,,,,Unknown,Unknown,,,,,,,,,,,,,,,,,,,,,
301,301,G.a.e.c de la Lande,,,,,,,2024-03-01,Animal Production,,,,Unknown,48.727269,0.5984849,,,,,,,,,,,,,,,,,,,,,,,,,,,,,,,,,,,,,,,,,,,,,,,,,,,,,,,,,,,,,Unknown,Unknown,,,,,,,,,,,,,,,,,,,,,
302,302,Gaec Cevilait,,,,,,,2024-03-01,Animal Production,,,,Unknown,48.6857849,0.6988764,,,,,,,,,,,,,,,,,,,,,,,,,,,,,,,,,,,,,,,,,,,,,,,,,,,,,,,,,,,,,Unknown,Unknown,,,,,,,,,,,,,,,,,,,,,
303,303,O Pré,,,,,,,2024-03-01,Animal Production,,,,Unknown,48.2131387,-3.2534514,,,,,,,,,,,,,,,,,,,,,,,,,,,,,,,,,,,,,,,,,,,,,,,,,,,,,,,,,,,,,Unknown,Unknown,,,,,,,,,,,,,,,,,,,,,
304,304,Ferme Le Buis Sonnant - Charcuterie et Produits laitiers,,,,,,,2024-03-01,Animal Production,,,,Unknown,48.2325815,-3.2728239,,,,,,,,,,,,,,,,,,,,,,,,,,,,,,,,,,,,,,,,,,,,,,,,,,,,,,,,,,,,,Unknown,Unknown,,,,,,,,,,,,,,,,,,,,,
305,305,ELEVAGE DE MAGELINE,,,,,,,2024-03-01,Animal Production,,,,Unknown,44.9734228,5.6686136,,,,,,,,,,,,,,,,,,,,,,,,,,,,,,,,,,,,,,,,,,,,,,,,,,,,,,,,,,,,,Unknown,Unknown,,,,,,,,,,,,,,,,,,,,,
306,306,GAEC des Coursons,,,,,,,2024-03-01,Animal Production,,,,Unknown,48.8944898,1.1302381,,,,,,,,,,,,,,,,,,,,,,,,,,,,,,,,,,,,,,,,,,,,,,,,,,,,,,,,,,,,,Unknown,Unknown,,,,,,,,,,,,,,,,,,,,,
307,307,Y Le Goff SCEA,,,,,,,2024-03-01,Animal Production,,,,Unknown,48.2643432,-3.3341273,,,,,,,,,,,,,,,,,,,,,,,,,,,,,,,,,,,,,,,,,,,,,,,,,,,,,,,,,,,,,Unknown,Unknown,,,,,,,,,,,,,,,,,,,,,
308,308,SARL GHS,,,,,,,2024-03-01,Animal Production; Hunting/Game,,,,Unknown,46.5952579,3.5773992,,,,,,,,,,,,,,,,,,,,,,,,,,,,,,,,,,,,,,,,,,,,,,,,,,,,,,,,,,,,,Unknown,Unknown,,,,,,,,,,,,,,,,,,,,,
309,309,DELASERRE,,,,,,,2024-03-01,Animal Production; Hunting/Game,,,,Unknown,46.5693354,3.5015218,,,,,,,,,,,,,,,,,,,,,,,,,,,,,,,,,,,,,,,,,,,,,,,,,,,,,,,,,,,,,Unknown,Unknown,,,,,,,,,,,,,,,,,,,,,
310,310,GAEC de Beauregard,,,,,,,2024-03-01,Animal Production,,,,Unknown,46.5669776,3.49892,,,,,,,,,,,,,,,,,,,,,,,,,,,,,,,,,,,,,,,,,,,,,,,,,,,,,,,,,,,,,Unknown,Unknown,,,,,,,,,,,,,,,,,,,,,
311,311,COZENOT HERVE,,,,,,,2024-03-01,Animal Production; Hunting/Game,,,,Unknown,46.3752825,3.9645432,,,,,,,,,,,,,,,,,,,,,,,,,,,,,,,,,,,,,,,,,,,,,,,,,,,,,,,,,,,,,Unknown,Unknown,,,,,,,,,,,,,,,,,,,,,
312,312,Elevage de Vaches / Taureaux,,,,,,,2024-03-01,Animal Production,,,,Unknown,46.4956133,3.313736,,,,,,,,,,,,,,,,,,,,,,,,,,,,,,,,,,,,,,,,,,,,,,,,,,,,,,,,,,,,,Unknown,Unknown,,,,,,,,,,,,,,,,,,,,,
313,313,Gaec Des Cotais,,,,,,,2024-03-01,Animal Production,,,,Unknown,46.4904032,3.3089936,,,,,,,,,,,,,,,,,,,,,,,,,,,,,,,,,,,,,,,,,,,,,,,,,,,,,,,,,,,,,Unknown,Unknown,,,,,,,,,,,,,,,,,,,,,
314,314,Elevage de Vaches / Taureaux,,,,,,,2024-03-01,Animal Production,,,,Unknown,46.4790145,3.2965784,,,,,,,,,,,,,,,,,,,,,,,,,,,,,,,,,,,,,,,,,,,,,,,,,,,,,,,,,,,,,Unknown,Unknown,,,,,,,,,,,,,,,,,,,,,
315,315,Gaec de L'Ecorchie,,,,,,,2024-03-01,Animal Production,,,,Unknown,47.3142435,3.8224212,,,,,,,,,,,,,,,,,,,,,,,,,,,,,,,,,,,,,,,,,,,,,,,,,,,,,,,,,,,,,Unknown,Unknown,,,,,,,,,,,,,,,,,,,,,
316,316,Elevage de Vaches / Taureaux,,,,,,,2024-03-01,Animal Production,,,,Unknown,47.3127868,3.8238494,,,,,,,,,,,,,,,,,,,,,,,,,,,,,,,,,,,,,,,,,,,,,,,,,,,,,,,,,,,,,Unknown,Unknown,,,,,,,,,,,,,,,,,,,,,
317,317,Voillot Jean-Claude,,,,,,,2024-03-01,Animal Production,,,,Unknown,47.3091111,3.9904536,,,,,,,,,,,,,,,,,,,,,,,,,,,,,,,,,,,,,,,,,,,,,,,,,,,,,,,,,,,,,Unknown,Unknown,,,,,,,,,,,,,,,,,,,,,
318,318,Elevage de Vaches / Taureaux.,,,,,,,2024-03-01,Animal Production,,,,Unknown,47.2085166,3.2694206,,,,,,,,,,,,,,,,,,,,,,,,,,,,,,,,,,,,,,,,,,,,,,,,,,,,,,,,,,,,,Unknown,Unknown,,,,,,,,,,,,,,,,,,,,,
319,319,L'escargot sur Loire,,,,,,,2024-03-01,Animal Production,,,,Unknown,47.1793108,3.0029876,,,,,,,,,,,,,,,,,,,,,,,,,,,,,,,,,,,,,,,,,,,,,,,,,,,,,,,,,,,,,Unknown,Unknown,,,,,,,,,,,,,,,,,,,,,
320,320,La Ferme Sainte Colombe Camille et Nicolas GRYMONPREZ,,,,,,,2024-03-01,Animal Production,,,,Unknown,48.7265596,3.3406513,,,,,,,,,,,,,,,,,,,,,,,,,,,,,,,,,,,,,,,,,,,,,,,,,,,,,,,,,,,,,Unknown,Unknown,,,,,,,,,,,,,,,,,,,,,
321,321,Ferme Paysanne des Cheigneux,,,,,,,2024-03-01,Animal Production,,,,Unknown,48.7825624,3.4825833,,,,,,,,,,,,,,,,,,,,,,,,,,,,,,,,,,,,,,,,,,,,,,,,,,,,,,,,,,,,,Unknown,Unknown,,,,,,,,,,,,,,,,,,,,,
322,322,Canardises des Trois Vallées,,,,,,,2024-03-01,Animal Production,,,,Unknown,49.0037635,3.55563499999994,,,,,,,,,,,,,,,,,,,,,,,,,,,,,,,,,,,,,,,,,,,,,,,,,,,,,,,,,,,,,Unknown,Unknown,,,,,,,,,,,,,,,,,,,,,
323,323,Les ânes de l'Omois,,,,,,,2024-03-01,Animal Production,,,,Unknown,48.9970373,3.53854980000006,,,,,,,,,,,,,,,,,,,,,,,,,,,,,,,,,,,,,,,,,,,,,,,,,,,,,,,,,,,,,Unknown,Unknown,,,,,,,,,,,,,,,,,,,,,
324,324,La ferme de Richemont,,,,,,,2024-03-01,Exhibition,,,,Unknown,49.2571151,2.227736,,,,,,,,,,,,,,,,,,,,,,,,,,,,,,,,,,,,,,,,,,,,,,,,,,,,,,,,,,,,,Unknown,Unknown,,,,,,,,,,,,,,,,,,,,,
325,325,EARL La ferme de prelide,,,,,,,2024-03-01,Animal Production,,,,Unknown,46.0839433,-0.8242551,,,,,,,,,,,,,,,,,,,,,,,,,,,,,,,,,,,,,,,,,,,,,,,,,,,,,,,,,,,,,Unknown,Unknown,,,,,,,,,,,,,,,,,,,,,
326,326,Les Ânes de Marolles,,,,,,,2024-03-01,Animal Production,,,,Unknown,48.569427,1.68774800000006,,,,,,,,,,,,,,,,,,,,,,,,,,,,,,,,,,,,,,,,,,,,,,,,,,,,,,,,,,,,,Unknown,Unknown,,,,,,,,,,,,,,,,,,,,,
327,327,Ferme d'Hermeray,,,,,,,2024-03-01,Animal Production,,,,Unknown,48.7483488,1.6524049,,,,,,,,,,,,,,,,,,,,,,,,,,,,,,,,,,,,,,,,,,,,,,,,,,,,,,,,,,,,,Unknown,Unknown,,,,,,,,,,,,,,,,,,,,,
328,328,FERNAND RAUX,,,,,,,2024-03-01,Animal Production,,,,Unknown,48.9554649,1.6668477,,,,,,,,,,,,,,,,,,,,,,,,,,,,,,,,,,,,,,,,,,,,,,,,,,,,,,,,,,,,,Unknown,Unknown,,,,,,,,,,,,,,,,,,,,,
329,329,Les Escargots de Monsieur Devaux,,,,,,,2024-03-01,Animal Production,,,,Unknown,48.9465567,1.6448855,,,,,,,,,,,,,,,,,,,,,,,,,,,,,,,,,,,,,,,,,,,,,,,,,,,,,,,,,,,,,Unknown,Unknown,,,,,,,,,,,,,,,,,,,,,
330,330,Les Poulettes de Mirbel,,,,,,,2024-03-01,Animal Production,,,,Unknown,48.923391,1.5567406,,,,,,,,,,,,,,,,,,,,,,,,,,,,,,,,,,,,,,,,,,,,,,,,,,,,,,,,,,,,,Unknown,Unknown,,,,,,,,,,,,,,,,,,,,,
331,331,Elevage ?,,,,,,,2024-03-01,Animal Production,,,,Unknown,48.9378076,1.5749569,,,,,,,,,,,,,,,,,,,,,,,,,,,,,,,,,,,,,,,,,,,,,,,,,,,,,,,,,,,,,Unknown,Unknown,,,,,,,,,,,,,,,,,,,,,
332,332,Ferme de la Faisanderie,,,,,,,2024-03-01,Animal Production; Meat Slaughter,,,,Unknown,48.8340309,2.031412,,,,,,,,,,,,,,,,,,,,,,,,,,,,,,,,,,,,,,,,,,,,,,,,,,,,,,,,,,,,,Unknown,Unknown,,,,,,,,,,,,,,,,,,,,,
333,333,Elevage de Vaches / Taureaux,,,,,,,2024-03-01,Animal Production,,,,Unknown,49.3011442,0.9332505,,,,,,,,,,,,,,,,,,,,,,,,,,,,,,,,,,,,,,,,,,,,,,,,,,,,,,,,,,,,,Unknown,Unknown,,,,,,,,,,,,,,,,,,,,,
334,334,Elevage de Vaches / Taureaux,,,,,,,2024-03-01,Animal Production,,,,Unknown,49.286983,0.920659000000001,,,,,,,,,,,,,,,,,,,,,,,,,,,,,,,,,,,,,,,,,,,,,,,,,,,,,,,,,,,,,Unknown,Unknown,,,,,,,,,,,,,,,,,,,,,
335,335,Elevage de Vaches / Taureaux,,,,,,,2024-03-01,Animal Production,,,,Unknown,49.0143451,0.6162747,,,,,,,,,,,,,,,,,,,,,,,,,,,,,,,,,,,,,,,,,,,,,,,,,,,,,,,,,,,,,Unknown,Unknown,,,,,,,,,,,,,,,,,,,,,
336,336,Elevage ?,,,,,,,2024-03-01,Animal Production,,,,Unknown,49.0156633,0.6163654,,,,,,,,,,,,,,,,,,,,,,,,,,,,,,,,,,,,,,,,,,,,,,,,,,,,,,,,,,,,,Unknown,Unknown,,,,,,,,,,,,,,,,,,,,,
337,337,Elevage de Vaches / Taureaux,,,,,,,2024-03-01,Animal Production,,,,Unknown,49.001939,0.619509999999991,,,,,,,,,,,,,,,,,,,,,,,,,,,,,,,,,,,,,,,,,,,,,,,,,,,,,,,,,,,,,Unknown,Unknown,,,,,,,,,,,,,,,,,,,,,
338,338,Elevage ?,,,,,,,2024-03-01,Animal Production,,,,Unknown,48.8946537,0.9987383,,,,,,,,,,,,,,,,,,,,,,,,,,,,,,,,,,,,,,,,,,,,,,,,,,,,,,,,,,,,,Unknown,Unknown,,,,,,,,,,,,,,,,,,,,,
339,339,Elevage ?,,,,,,,2024-03-01,Animal Production,,,,Unknown,48.8933108,0.9822485,,,,,,,,,,,,,,,,,,,,,,,,,,,,,,,,,,,,,,,,,,,,,,,,,,,,,,,,,,,,,Unknown,Unknown,,,,,,,,,,,,,,,,,,,,,
340,340,Elevage de poules / coqs,,,,,,,2024-03-01,Animal Production,,,,Unknown,48.8868252,0.9904035,,,,,,,,,,,,,,,,,,,,,,,,,,,,,,,,,,,,,,,,,,,,,,,,,,,,,,,,,,,,,Unknown,Unknown,,,,,,,,,,,,,,,,,,,,,
341,341,Elevage de poules / coqs,,,,,,,2024-03-01,Animal Production,,,,Unknown,47.6001408,-0.8071698,,,,,,,,,,,,,,,,,,,,,,,,,,,,,,,,,,,,,,,,,,,,,,,,,,,,,,,,,,,,,Unknown,Unknown,,,,,,,,,,,,,,,,,,,,,
342,342,Elevage,,,,,,,2024-03-01,Animal Production,,,,Unknown,47.6000513,-0.8051729,,,,,,,,,,,,,,,,,,,,,,,,,,,,,,,,,,,,,,,,,,,,,,,,,,,,,,,,,,,,,Unknown,Unknown,,,,,,,,,,,,,,,,,,,,,
343,343,Elevage de Vaches / Taureaux,,,,,,,2024-03-01,Animal Production,,,,Unknown,47.599639,-0.7934974,,,,,,,,,,,,,,,,,,,,,,,,,,,,,,,,,,,,,,,,,,,,,,,,,,,,,,,,,,,,,Unknown,Unknown,,,,,,,,,,,,,,,,,,,,,
344,344,Earl Passelande,,,,,,,2024-03-01,Animal Production,,,,Unknown,47.6006855,-0.7864039,,,,,,,,,,,,,,,,,,,,,,,,,,,,,,,,,,,,,,,,,,,,,,,,,,,,,,,,,,,,,Unknown,Unknown,,,,,,,,,,,,,,,,,,,,,
345,345,Richard Philippe,,,,,,,2024-03-01,Animal Production,,,,Unknown,47.5999259,-0.7848496,,,,,,,,,,,,,,,,,,,,,,,,,,,,,,,,,,,,,,,,,,,,,,,,,,,,,,,,,,,,,Unknown,Unknown,,,,,,,,,,,,,,,,,,,,,
346,346,Elevage de Vaches / Taureaux,,,,,,,2024-03-01,Animal Production,,,,Unknown,47.5965033,-0.7793337,,,,,,,,,,,,,,,,,,,,,,,,,,,,,,,,,,,,,,,,,,,,,,,,,,,,,,,,,,,,,Unknown,Unknown,,,,,,,,,,,,,,,,,,,,,
347,347,Des Chênes,,,,,,,2024-03-01,Animal Production,,,,Unknown,47.5885114,-0.798244,,,,,,,,,,,,,,,,,,,,,,,,,,,,,,,,,,,,,,,,,,,,,,,,,,,,,,,,,,,,,Unknown,Unknown,,,,,,,,,,,,,,,,,,,,,
348,348,Elevage de Vaches / Taureaux,,,,,,,2024-03-01,Animal Production,,,,Unknown,47.5804863,-0.7844037,,,,,,,,,,,,,,,,,,,,,,,,,,,,,,,,,,,,,,,,,,,,,,,,,,,,,,,,,,,,,Unknown,Unknown,,,,,,,,,,,,,,,,,,,,,
349,349,Elevage de Vaches / Taureaux,,,,,,,2024-03-01,Animal Production,,,,Unknown,47.5766241,-0.7859258,,,,,,,,,,,,,,,,,,,,,,,,,,,,,,,,,,,,,,,,,,,,,,,,,,,,,,,,,,,,,Unknown,Unknown,,,,,,,,,,,,,,,,,,,,,
350,350,Elevage ?,,,,,,,2024-03-01,Animal Production,,,,Unknown,47.5758581,-0.7524477,,,,,,,,,,,,,,,,,,,,,,,,,,,,,,,,,,,,,,,,,,,,,,,,,,,,,,,,,,,,,Unknown,Unknown,,,,,,,,,,,,,,,,,,,,,
351,351,Elevage ?,,,,,,,2024-03-01,Animal Production,,,,Unknown,48.6001051,1.0979312,,,,,,,,,,,,,,,,,,,,,,,,,,,,,,,,,,,,,,,,,,,,,,,,,,,,,,,,,,,,,Unknown,Unknown,,,,,,,,,,,,,,,,,,,,,
352,352,Elevage de Vaches / Taureaux,,,,,,,2024-03-01,Animal Production,,,,Unknown,48.6647365,1.6107602,,,,,,,,,,,,,,,,,,,,,,,,,,,,,,,,,,,,,,,,,,,,,,,,,,,,,,,,,,,,,Unknown,Unknown,,,,,,,,,,,,,,,,,,,,,
353,353,Elevage de Vaches / Taureaux,,,,,,,2024-03-01,Animal Production,,,,Unknown,48.7678746,1.116836,,,,,,,,,,,,,,,,,,,,,,,,,,,,,,,,,,,,,,,,,,,,,,,,,,,,,,,,,,,,,Unknown,Unknown,,,,,,,,,,,,,,,,,,,,,
354,354,Elevage,,,,,,,2024-03-01,Animal Production,,,,Unknown,47.4924885,-1.2258858,,,,,,,,,,,,,,,,,,,,,,,,,,,,,,,,,,,,,,,,,,,,,,,,,,,,,,,,,,,,,Unknown,Unknown,,,,,,,,,,,,,,,,,,,,,
355,355,Elevage,,,,,,,2024-03-01,Animal Production,,,,Unknown,47.4973692,-1.2262456,,,,,,,,,,,,,,,,,,,,,,,,,,,,,,,,,,,,,,,,,,,,,,,,,,,,,,,,,,,,,Unknown,Unknown,,,,,,,,,,,,,,,,,,,,,
356,356,Elevage d'ois-eaux/elles,,,,,,,2024-03-01,Animal Production,,,,Unknown,47.4972489,-1.2053421,,,,,,,,,,,,,,,,,,,,,,,,,,,,,,,,,,,,,,,,,,,,,,,,,,,,,,,,,,,,,Unknown,Unknown,,,,,,,,,,,,,,,,,,,,,
357,357,Elevage de Vaches / Taureaux,,,,,,,2024-03-01,Animal Production,,,,Unknown,47.4979294,-1.1888319,,,,,,,,,,,,,,,,,,,,,,,,,,,,,,,,,,,,,,,,,,,,,,,,,,,,,,,,,,,,,Unknown,Unknown,,,,,,,,,,,,,,,,,,,,,
358,358,Elevage ?,,,,,,,2024-03-01,Animal Production,,,,Unknown,47.4970396,-1.1865789,,,,,,,,,,,,,,,,,,,,,,,,,,,,,,,,,,,,,,,,,,,,,,,,,,,,,,,,,,,,,Unknown,Unknown,,,,,,,,,,,,,,,,,,,,,
359,359,Elevage de Vaches / Taureaux,,,,,,,2024-03-01,Animal Production,,,,Unknown,47.4977463,-1.1709089,,,,,,,,,,,,,,,,,,,,,,,,,,,,,,,,,,,,,,,,,,,,,,,,,,,,,,,,,,,,,Unknown,Unknown,,,,,,,,,,,,,,,,,,,,,
360,360,Ferme de Rotsy Gaec,,,,,,,2024-03-01,Animal Production,,,,Unknown,46.8955099,5.9615194,,,,,,,,,,,,,,,,,,,,,,,,,,,,,,,,,,,,,,,,,,,,,,,,,,,,,,,,,,,,,Unknown,Unknown,,,,,,,,,,,,,,,,,,,,,
361,361,Elevage de Vaches / Taureaux ?,,,,,,,2024-03-01,Animal Production,,,,Unknown,46.895092,5.9643857,,,,,,,,,,,,,,,,,,,,,,,,,,,,,,,,,,,,,,,,,,,,,,,,,,,,,,,,,,,,,Unknown,Unknown,,,,,,,,,,,,,,,,,,,,,
362,362,Elevage de Vaches / Taureaux,,,,,,,2024-03-01,Animal Production,,,,Unknown,46.8927178,5.9732648,,,,,,,,,,,,,,,,,,,,,,,,,,,,,,,,,,,,,,,,,,,,,,,,,,,,,,,,,,,,,Unknown,Unknown,,,,,,,,,,,,,,,,,,,,,
363,363,Elevage de Vaches / Taureaux,,,,,,,2024-03-01,Animal Production,,,,Unknown,46.9025511,5.9745724,,,,,,,,,,,,,,,,,,,,,,,,,,,,,,,,,,,,,,,,,,,,,,,,,,,,,,,,,,,,,Unknown,Unknown,,,,,,,,,,,,,,,,,,,,,
364,364,Elevage Du Preamont,,,,,,,2024-03-01,Animal Production,,,,Unknown,48.8681006,0.5782141,,,,,,,,,,,,,,,,,,,,,,,,,,,,,,,,,,,,,,,,,,,,,,,,,,,,,,,,,,,,,Unknown,Unknown,,,,,,,,,,,,,,,,,,,,,
365,365,Elevage de Vaches / Taureaux,,,,,,,2024-03-01,Animal Production,,,,Unknown,49.2992312,-1.1777872,,,,,,,,,,,,,,,,,,,,,,,,,,,,,,,,,,,,,,,,,,,,,,,,,,,,,,,,,,,,,Unknown,Unknown,,,,,,,,,,,,,,,,,,,,,
366,366,ELEVAGE CHEVRES CHEVENET,,,,,,,2024-03-01,Animal Production,,,,Unknown,46.3978133,4.7906972,,,,,,,,,,,,,,,,,,,,,,,,,,,,,,,,,,,,,,,,,,,,,,,,,,,,,,,,,,,,,Unknown,Unknown,,,,,,,,,,,,,,,,,,,,,
367,367,Earl Brishoual,,,,,,,2024-03-01,Animal Production,,,,Unknown,47.9021578,-3.5081962,,,,,,,,,,,,,,,,,,,,,,,,,,,,,,,,,,,,,,,,,,,,,,,,,,,,,,,,,,,,,Unknown,Unknown,,,,,,,,,,,,,,,,,,,,,
368,368,Elevage de Vaches / Taureaux,,,,,,,2024-03-01,Animal Production,,,,Unknown,48.7120564,2.6421073,,,,,,,,,,,,,,,,,,,,,,,,,,,,,,,,,,,,,,,,,,,,,,,,,,,,,,,,,,,,,Unknown,Unknown,,,,,,,,,,,,,,,,,,,,,
369,369,Elevade de moutons / brebis,,,,,,,2024-03-01,Animal Production,,,,Unknown,48.7711323093228,3.04446179419756,,,,,,,,,,,,,,,,,,,,,,,,,,,,,,,,,,,,,,,,,,,,,,,,,,,,,,,,,,,,,Unknown,Unknown,,,,,,,,,,,,,,,,,,,,,
370,370,Oeufs Matines - Ets Carlier,,,,,,,2024-03-01,Animal Production,,,,Unknown,49.8800598,3.2372949,,,,,,,,,,,,,,,,,,,,,,,,,,,,,,,,,,,,,,,,,,,,,,,,,,,,,,,,,,,,,Unknown,Unknown,,,,,,,,,,,,,,,,,,,,,
371,371,EARL Armaine,,,,,,,2024-03-01,Animal Production,,,,Unknown,47.9191163,0.5802026,,,,,,,,,,,,,,,,,,,,,,,,,,,,,,,,,,,,,,,,,,,,,,,,,,,,,,,,,,,,,Unknown,Unknown,,,,,,,,,,,,,,,,,,,,,
372,372,Elevage,,,,,,,2024-03-01,Animal Production,,,,Unknown,47.9171103,0.5763899,,,,,,,,,,,,,,,,,,,,,,,,,,,,,,,,,,,,,,,,,,,,,,,,,,,,,,,,,,,,,Unknown,Unknown,,,,,,,,,,,,,,,,,,,,,
373,373,Elevage de Vaches / Taureaux.,,,,,,,2024-03-01,Animal Production,,,,Unknown,48.6274873988127,1.98660492897034,,,,,,,,,,,,,,,,,,,,,,,,,,,,,,,,,,,,,,,,,,,,,,,,,,,,,,,,,,,,,Unknown,Unknown,,,,,,,,,,,,,,,,,,,,,
374,374,Ferme de Brandelles,,,,,,,2024-03-01,Animal Production,,,,Unknown,48.509342,1.9353249,,,,,,,,,,,,,,,,,,,,,,,,,,,,,,,,,,,,,,,,,,,,,,,,,,,,,,,,,,,,,Unknown,Unknown,,,,,,,,,,,,,,,,,,,,,
375,375,Élevage,,,,,,,2024-03-01,Animal Production,,,,Unknown,48.3263155346611,1.65438048541546,,,,,,,,,,,,,,,,,,,,,,,,,,,,,,,,,,,,,,,,,,,,,,,,,,,,,,,,,,,,,Unknown,Unknown,,,,,,,,,,,,,,,,,,,,,
376,376,Élevage de Vaches / Taureaux ?,,,,,,,2024-03-01,Animal Production,,,,Unknown,49.137919,2.165466,,,,,,,,,,,,,,,,,,,,,,,,,,,,,,,,,,,,,,,,,,,,,,,,,,,,,,,,,,,,,Unknown,Unknown,,,,,,,,,,,,,,,,,,,,,
377,377,Les Hautes Marettes GAEC,,,,,,,2024-03-01,Animal Production,,,,Unknown,48.0359345,-1.4980293,,,,,,,,,,,,,,,,,,,,,,,,,,,,,,,,,,,,,,,,,,,,,,,,,,,,,,,,,,,,,Unknown,Unknown,,,,,,,,,,,,,,,,,,,,,
378,378,Elevage de Vaches / Taureaux,,,,,,,2024-03-01,Animal Production,,,,Unknown,48.074436,-1.137397,,,,,,,,,,,,,,,,,,,,,,,,,,,,,,,,,,,,,,,,,,,,,,,,,,,,,,,,,,,,,Unknown,Unknown,,,,,,,,,,,,,,,,,,,,,
379,379,Elevage de Vaches / Taureaux,,,,,,,2024-03-01,Animal Production,,,,Unknown,48.0727632833951,-1.12289641052485,,,,,,,,,,,,,,,,,,,,,,,,,,,,,,,,,,,,,,,,,,,,,,,,,,,,,,,,,,,,,Unknown,Unknown,,,,,,,,,,,,,,,,,,,,,
380,380,INRAE,,,,,,,2024-03-01,Animal Production,,,,Unknown,48.7639261840226,2.17355489730835,,,,,,,,,,,,,,,,,,,,,,,,,,,,,,,,,,,,,,,,,,,,,,,,,,,,,,,,,,,,,Unknown,Unknown,,,,,,,,,,,,,,,,,,,,,
381,381,Elevage ?,,,,,,,2024-03-01,Animal Production,,,,Unknown,48.5888399516077,2.34960906207561,,,,,,,,,,,,,,,,,,,,,,,,,,,,,,,,,,,,,,,,,,,,,,,,,,,,,,,,,,,,,Unknown,Unknown,,,,,,,,,,,,,,,,,,,,,
382,382,Elevage,,,,,,,2024-03-01,Animal Production,,,,Unknown,48.100146,2.4737494,,,,,,,,,,,,,,,,,,,,,,,,,,,,,,,,,,,,,,,,,,,,,,,,,,,,,,,,,,,,,Unknown,Unknown,,,,,,,,,,,,,,,,,,,,,
383,383,ELEVAGE DE BELLEVUE,,,,,,,2024-03-01,Animal Production,,,,Unknown,48.5619867,3.0493267,,,,,,,,,,,,,,,,,,,,,,,,,,,,,,,,,,,,,,,,,,,,,,,,,,,,,,,,,,,,,Unknown,Unknown,,,,,,,,,,,,,,,,,,,,,
384,384,Elevage ?,,,,,,,2024-03-01,Animal Production,,,,Unknown,48.358702,1.706484,,,,,,,,,,,,,,,,,,,,,,,,,,,,,,,,,,,,,,,,,,,,,,,,,,,,,,,,,,,,,Unknown,Unknown,,,,,,,,,,,,,,,,,,,,,
385,385,Elevage ?,,,,,,,2024-03-01,Animal Production,,,,Unknown,48.4756359,3.0318677,,,,,,,,,,,,,,,,,,,,,,,,,,,,,,,,,,,,,,,,,,,,,,,,,,,,,,,,,,,,,Unknown,Unknown,,,,,,,,,,,,,,,,,,,,,
386,386,Earl Ferme de la Quoiqueterie,,,,,,,2024-03-01,Animal Production,,,,Unknown,48.6770191,1.8729687,,,,,,,,,,,,,,,,,,,,,,,,,,,,,,,,,,,,,,,,,,,,,,,,,,,,,,,,,,,,,Unknown,Unknown,,,,,,,,,,,,,,,,,,,,,
387,387,De Brouville,,,,,,,2024-03-01,Animal Production,,,,Unknown,48.5360029,1.9086218,,,,,,,,,,,,,,,,,,,,,,,,,,,,,,,,,,,,,,,,,,,,,,,,,,,,,,,,,,,,,Unknown,Unknown,,,,,,,,,,,,,,,,,,,,,
388,388,Les lamas de Brandacot,,,,,,,2024-03-01,Animal Production,,,,Unknown,45.1500374,-0.5768914,,,,,,,,,,,,,,,,,,,,,,,,,,,,,,,,,,,,,,,,,,,,,,,,,,,,,,,,,,,,,Unknown,Unknown,,,,,,,,,,,,,,,,,,,,,
389,389,Elevage de Vaches / Taureaux,,,,,,,2024-03-01,Animal Production,,,,Unknown,45.1467887,-0.5759453,,,,,,,,,,,,,,,,,,,,,,,,,,,,,,,,,,,,,,,,,,,,,,,,,,,,,,,,,,,,,Unknown,Unknown,,,,,,,,,,,,,,,,,,,,,
390,390,Elevage de Vaches / Taureaux,,,,,,,2024-03-01,Animal Production,,,,Unknown,45.114372,-0.472699,,,,,,,,,,,,,,,,,,,,,,,,,,,,,,,,,,,,,,,,,,,,,,,,,,,,,,,,,,,,,Unknown,Unknown,,,,,,,,,,,,,,,,,,,,,
391,391,Elevage de Chien-ne-s (Beagles),,,,,,,2024-03-01,Animal Production,,,,Unknown,45.1305729,-0.4729313,,,,,,,,,,,,,,,,,,,,,,,,,,,,,,,,,,,,,,,,,,,,,,,,,,,,,,,,,,,,,Unknown,Unknown,,,,,,,,,,,,,,,,,,,,,
392,392,Elevage de Moutons / Brebis,,,,,,,2024-03-01,Animal Production,,,,Unknown,45.131044,-0.473119,,,,,,,,,,,,,,,,,,,,,,,,,,,,,,,,,,,,,,,,,,,,,,,,,,,,,,,,,,,,,Unknown,Unknown,,,,,,,,,,,,,,,,,,,,,
393,393,La Ferme du Domaine des Faures,,,,,,,2024-03-01,Animal Production,,,,Unknown,45.1310508,-0.4713129,,,,,,,,,,,,,,,,,,,,,,,,,,,,,,,,,,,,,,,,,,,,,,,,,,,,,,,,,,,,,Unknown,Unknown,,,,,,,,,,,,,,,,,,,,,
394,394,Elevage de Vaches / Taureaux,,,,,,,2024-03-01,Animal Production,,,,Unknown,45.121414,-0.454059,,,,,,,,,,,,,,,,,,,,,,,,,,,,,,,,,,,,,,,,,,,,,,,,,,,,,,,,,,,,,Unknown,Unknown,,,,,,,,,,,,,,,,,,,,,
395,395,Elevage de Vaches / Taureaux,,,,,,,2024-03-01,Animal Production,,,,Unknown,45.146751,-0.445383,,,,,,,,,,,,,,,,,,,,,,,,,,,,,,,,,,,,,,,,,,,,,,,,,,,,,,,,,,,,,Unknown,Unknown,,,,,,,,,,,,,,,,,,,,,
396,396,Elevage de Vaches / Taureaux,,,,,,,2024-03-01,Animal Production,,,,Unknown,45.1488025,-0.4267774,,,,,,,,,,,,,,,,,,,,,,,,,,,,,,,,,,,,,,,,,,,,,,,,,,,,,,,,,,,,,Unknown,Unknown,,,,,,,,,,,,,,,,,,,,,
397,397,Elevage de Vaches / Taureaux,,,,,,,2024-03-01,Animal Production,,,,Unknown,45.182959,-0.442164,,,,,,,,,,,,,,,,,,,,,,,,,,,,,,,,,,,,,,,,,,,,,,,,,,,,,,,,,,,,,Unknown,Unknown,,,,,,,,,,,,,,,,,,,,,
398,398,Elevage de Vaches / Taureaux,,,,,,,2024-03-01,Animal Production,,,,Unknown,45.2212677,-0.5323195,,,,,,,,,,,,,,,,,,,,,,,,,,,,,,,,,,,,,,,,,,,,,,,,,,,,,,,,,,,,,Unknown,Unknown,,,,,,,,,,,,,,,,,,,,,
399,399,Elevage de Vaches / Taureaux,,,,,,,2024-03-01,Animal Production,,,,Unknown,45.2345581,-0.552961,,,,,,,,,,,,,,,,,,,,,,,,,,,,,,,,,,,,,,,,,,,,,,,,,,,,,,,,,,,,,Unknown,Unknown,,,,,,,,,,,,,,,,,,,,,
400,400,Elevage de Vaches / Taureaux,,,,,,,2024-03-01,Animal Production,,,,Unknown,45.250858,-0.522611,,,,,,,,,,,,,,,,,,,,,,,,,,,,,,,,,,,,,,,,,,,,,,,,,,,,,,,,,,,,,Unknown,Unknown,,,,,,,,,,,,,,,,,,,,,
401,401,Elevage de Vaches / Taureaux,,,,,,,2024-03-01,Animal Production,,,,Unknown,45.287157,-0.700375,,,,,,,,,,,,,,,,,,,,,,,,,,,,,,,,,,,,,,,,,,,,,,,,,,,,,,,,,,,,,Unknown,Unknown,,,,,,,,,,,,,,,,,,,,,
402,402,Elevage de Vaches / Taureaux,,,,,,,2024-03-01,Animal Production,,,,Unknown,45.446332,-0.648982,,,,,,,,,,,,,,,,,,,,,,,,,,,,,,,,,,,,,,,,,,,,,,,,,,,,,,,,,,,,,Unknown,Unknown,,,,,,,,,,,,,,,,,,,,,
403,403,Elevage de Vaches / Taureaux,,,,,,,2024-03-01,Animal Production,,,,Unknown,45.066614,-0.126718,,,,,,,,,,,,,,,,,,,,,,,,,,,,,,,,,,,,,,,,,,,,,,,,,,,,,,,,,,,,,Unknown,Unknown,,,,,,,,,,,,,,,,,,,,,
404,404,Elevage de Vaches / Taureaux,,,,,,,2024-03-01,Animal Production,,,,Unknown,45.095794,-0.171662,,,,,,,,,,,,,,,,,,,,,,,,,,,,,,,,,,,,,,,,,,,,,,,,,,,,,,,,,,,,,Unknown,Unknown,,,,,,,,,,,,,,,,,,,,,
405,405,Elevage de Vaches / Taureaux,,,,,,,2024-03-01,Animal Production,,,,Unknown,45.106822,-0.191399,,,,,,,,,,,,,,,,,,,,,,,,,,,,,,,,,,,,,,,,,,,,,,,,,,,,,,,,,,,,,Unknown,Unknown,,,,,,,,,,,,,,,,,,,,,
406,406,Elevage de Vaches / Taureaux,,,,,,,2024-03-01,Animal Production,,,,Unknown,45.28301,-0.333709,,,,,,,,,,,,,,,,,,,,,,,,,,,,,,,,,,,,,,,,,,,,,,,,,,,,,,,,,,,,,Unknown,Unknown,,,,,,,,,,,,,,,,,,,,,
407,407,Elevage de Vaches / Taureaux,,,,,,,2024-03-01,Animal Production,,,,Unknown,45.249771,-0.457183,,,,,,,,,,,,,,,,,,,,,,,,,,,,,,,,,,,,,,,,,,,,,,,,,,,,,,,,,,,,,Unknown,Unknown,,,,,,,,,,,,,,,,,,,,,
408,408,Elevage de Vaches / Taureaux,,,,,,,2024-03-01,Animal Production,,,,Unknown,48.383843,-2.918303,,,,,,,,,,,,,,,,,,,,,,,,,,,,,,,,,,,,,,,,,,,,,,,,,,,,,,,,,,,,,Unknown,Unknown,,,,,,,,,,,,,,,,,,,,,
409,409,Elevage de Vaches / Taureaux,,,,,,,2024-03-01,Animal Production,,,,Unknown,48.40253,-2.942113,,,,,,,,,,,,,,,,,,,,,,,,,,,,,,,,,,,,,,,,,,,,,,,,,,,,,,,,,,,,,Unknown,Unknown,,,,,,,,,,,,,,,,,,,,,
410,410,Elevage ?,,,,,,,2024-03-01,Animal Production,,,,Unknown,48.407199,-2.940485,,,,,,,,,,,,,,,,,,,,,,,,,,,,,,,,,,,,,,,,,,,,,,,,,,,,,,,,,,,,,Unknown,Unknown,,,,,,,,,,,,,,,,,,,,,
411,411,Des Ajoncs d'Or Earl,,,,,,,2024-03-01,Animal Production,,,,Unknown,48.2972288,-1.9172041,,,,,,,,,,,,,,,,,,,,,,,,,,,,,,,,,,,,,,,,,,,,,,,,,,,,,,,,,,,,,Unknown,Unknown,,,,,,,,,,,,,,,,,,,,,
412,412,Riou Bernard,,,,,,,2024-03-01,Animal Production,,,,Unknown,48.4030562,-2.9348102,,,,,,,,,,,,,,,,,,,,,,,,,,,,,,,,,,,,,,,,,,,,,,,,,,,,,,,,,,,,,Unknown,Unknown,,,,,,,,,,,,,,,,,,,,,
413,413,Elevage de Cochons / Truies ?,,,,,,,2024-03-01,Animal Production,,,,Unknown,48.3963695,-2.9239519,,,,,,,,,,,,,,,,,,,,,,,,,,,,,,,,,,,,,,,,,,,,,,,,,,,,,,,,,,,,,Unknown,Unknown,,,,,,,,,,,,,,,,,,,,,
414,414,Elevage de Vaches / Taureaux,,,,,,,2024-03-01,Animal Production,,,,Unknown,48.3990984,-2.9091935,,,,,,,,,,,,,,,,,,,,,,,,,,,,,,,,,,,,,,,,,,,,,,,,,,,,,,,,,,,,,Unknown,Unknown,,,,,,,,,,,,,,,,,,,,,
415,415,Crézé Hervé,,,,,,,2024-03-01,Animal Production,,,,Unknown,48.4039148,-2.9272179,,,,,,,,,,,,,,,,,,,,,,,,,,,,,,,,,,,,,,,,,,,,,,,,,,,,,,,,,,,,,Unknown,Unknown,,,,,,,,,,,,,,,,,,,,,
416,416,Elevage de Vaches / Taureaux,,,,,,,2024-03-01,Animal Production,,,,Unknown,48.4155793,-2.932875,,,,,,,,,,,,,,,,,,,,,,,,,,,,,,,,,,,,,,,,,,,,,,,,,,,,,,,,,,,,,Unknown,Unknown,,,,,,,,,,,,,,,,,,,,,
417,417,Elevage ?,,,,,,,2024-03-01,Animal Production,,,,Unknown,48.4187606,-2.9437869,,,,,,,,,,,,,,,,,,,,,,,,,,,,,,,,,,,,,,,,,,,,,,,,,,,,,,,,,,,,,Unknown,Unknown,,,,,,,,,,,,,,,,,,,,,
418,418,Elevage de Vaches / Taureaux,,,,,,,2024-03-01,Animal Production,,,,Unknown,48.3955831,-3.2328471,,,,,,,,,,,,,,,,,,,,,,,,,,,,,,,,,,,,,,,,,,,,,,,,,,,,,,,,,,,,,Unknown,Unknown,,,,,,,,,,,,,,,,,,,,,
419,419,Elevage ?,,,,,,,2024-03-01,Animal Production,,,,Unknown,48.3981141,-3.2171717,,,,,,,,,,,,,,,,,,,,,,,,,,,,,,,,,,,,,,,,,,,,,,,,,,,,,,,,,,,,,Unknown,Unknown,,,,,,,,,,,,,,,,,,,,,
420,420,Elevage de Vaches / Taureaux,,,,,,,2024-03-01,Animal Production,,,,Unknown,48.386075,-2.901277,,,,,,,,,,,,,,,,,,,,,,,,,,,,,,,,,,,,,,,,,,,,,,,,,,,,,,,,,,,,,Unknown,Unknown,,,,,,,,,,,,,,,,,,,,,
421,421,Elevage de Vaches / Taureaux,,,,,,,2024-03-01,Animal Production,,,,Unknown,48.38979,-2.907024,,,,,,,,,,,,,,,,,,,,,,,,,,,,,,,,,,,,,,,,,,,,,,,,,,,,,,,,,,,,,Unknown,Unknown,,,,,,,,,,,,,,,,,,,,,
422,422,Earl 1001 Pattes,,,,,,,2024-03-01,Animal Production,,,,Unknown,48.1718352,-1.6192607,,,,,,,,,,,,,,,,,,,,,,,,,,,,,,,,,,,,,,,,,,,,,,,,,,,,,,,,,,,,,Unknown,Unknown,,,,,,,,,,,,,,,,,,,,,
423,423,Elevage de Vaches / Taureaux,,,,,,,2024-03-01,Animal Production,,,,Unknown,48.1785645,-1.7515728,,,,,,,,,,,,,,,,,,,,,,,,,,,,,,,,,,,,,,,,,,,,,,,,,,,,,,,,,,,,,Unknown,Unknown,,,,,,,,,,,,,,,,,,,,,
424,424,MON COCHON SARL PLESSIPOR,,,,,,,2024-03-01,Animal Production,,,,Unknown,48.1818769,-1.7423662,,,,,,,,,,,,,,,,,,,,,,,,,,,,,,,,,,,,,,,,,,,,,,,,,,,,,,,,,,,,,Unknown,Unknown,,,,,,,,,,,,,,,,,,,,,
425,425,Elevage de Vaches / Taureaux,,,,,,,2024-03-01,Animal Production,,,,Unknown,48.1959823,-1.7064233,,,,,,,,,,,,,,,,,,,,,,,,,,,,,,,,,,,,,,,,,,,,,,,,,,,,,,,,,,,,,Unknown,Unknown,,,,,,,,,,,,,,,,,,,,,
426,426,Elevage de Vaches / Taureaux,,,,,,,2024-03-01,Animal Production,,,,Unknown,48.1997396,-1.7159209,,,,,,,,,,,,,,,,,,,,,,,,,,,,,,,,,,,,,,,,,,,,,,,,,,,,,,,,,,,,,Unknown,Unknown,,,,,,,,,,,,,,,,,,,,,
427,427,La ferme de Millé,,,,,,,2024-03-01,Animal Production,,,,Unknown,48.2079174,-1.7157763,,,,,,,,,,,,,,,,,,,,,,,,,,,,,,,,,,,,,,,,,,,,,,,,,,,,,,,,,,,,,Unknown,Unknown,,,,,,,,,,,,,,,,,,,,,
428,428,Elevage de Vaches / Taureaux,,,,,,,2024-03-01,Animal Production,,,,Unknown,48.210815,-1.7179706,,,,,,,,,,,,,,,,,,,,,,,,,,,,,,,,,,,,,,,,,,,,,,,,,,,,,,,,,,,,,Unknown,Unknown,,,,,,,,,,,,,,,,,,,,,
429,429,Elevage de Vaches / Taureaux,,,,,,,2024-03-01,Animal Production,,,,Unknown,48.2172963,-1.7322737,,,,,,,,,,,,,,,,,,,,,,,,,,,,,,,,,,,,,,,,,,,,,,,,,,,,,,,,,,,,,Unknown,Unknown,,,,,,,,,,,,,,,,,,,,,
430,430,Elevage de Vaches / Taureaux,,,,,,,2024-03-01,Animal Production,,,,Unknown,48.2302986,-1.7306152,,,,,,,,,,,,,,,,,,,,,,,,,,,,,,,,,,,,,,,,,,,,,,,,,,,,,,,,,,,,,Unknown,Unknown,,,,,,,,,,,,,,,,,,,,,
431,431,La Ferme Sigaud,,,,,,,2024-03-01,Animal Production,,,,Unknown,44.765303,0.2500885,,,,,,,,,,,,,,,,,,,,,,,,,,,,,,,,,,,,,,,,,,,,,,,,,,,,,,,,,,,,,Unknown,Unknown,,,,,,,,,,,,,,,,,,,,,
432,432,Elevage des Barthes,,,,,,,2024-03-01,Animal Production,,,,Unknown,44.8232188,-0.3585024,,,,,,,,,,,,,,,,,,,,,,,,,,,,,,,,,,,,,,,,,,,,,,,,,,,,,,,,,,,,,Unknown,Unknown,,,,,,,,,,,,,,,,,,,,,
433,433,Elevage des Barthes,,,,,,,2024-03-01,Animal Production,,,,Unknown,44.8245543,-0.3594949,,,,,,,,,,,,,,,,,,,,,,,,,,,,,,,,,,,,,,,,,,,,,,,,,,,,,,,,,,,,,Unknown,Unknown,,,,,,,,,,,,,,,,,,,,,
434,434,Elevage des Barthes,,,,,,,2024-03-01,Animal Production,,,,Unknown,44.8238428,-0.3587814,,,,,,,,,,,,,,,,,,,,,,,,,,,,,,,,,,,,,,,,,,,,,,,,,,,,,,,,,,,,,Unknown,Unknown,,,,,,,,,,,,,,,,,,,,,
435,435,Elevage des Barthes,,,,,,,2024-03-01,Animal Production,,,,Unknown,44.8238979,-0.3583549,,,,,,,,,,,,,,,,,,,,,,,,,,,,,,,,,,,,,,,,,,,,,,,,,,,,,,,,,,,,,Unknown,Unknown,,,,,,,,,,,,,,,,,,,,,
436,436,Elevage des Barthes,,,,,,,2024-03-01,Animal Production,,,,Unknown,44.8242784,-0.3576361,,,,,,,,,,,,,,,,,,,,,,,,,,,,,,,,,,,,,,,,,,,,,,,,,,,,,,,,,,,,,Unknown,Unknown,,,,,,,,,,,,,,,,,,,,,
437,437,Elevage des Barthes,,,,,,,2024-03-01,Animal Production,,,,Unknown,44.8234889,-0.3594519,,,,,,,,,,,,,,,,,,,,,,,,,,,,,,,,,,,,,,,,,,,,,,,,,,,,,,,,,,,,,Unknown,Unknown,,,,,,,,,,,,,,,,,,,,,
438,438,Elevage des Barthes,,,,,,,2024-03-01,Animal Production,,,,Unknown,44.8239607,-0.3727235,,,,,,,,,,,,,,,,,,,,,,,,,,,,,,,,,,,,,,,,,,,,,,,,,,,,,,,,,,,,,Unknown,Unknown,,,,,,,,,,,,,,,,,,,,,
439,439,la ferme aux traits,,,,,,,2024-03-01,Animal Production,,,,Unknown,45.2188455,-0.4839579,,,,,,,,,,,,,,,,,,,,,,,,,,,,,,,,,,,,,,,,,,,,,,,,,,,,,,,,,,,,,Unknown,Unknown,,,,,,,,,,,,,,,,,,,,,
440,440,Agneau de l'estuaire élevé au naturel,,,,,,,2024-03-01,Animal Production,,,,Unknown,45.3776927,-0.6785168,,,,,,,,,,,,,,,,,,,,,,,,,,,,,,,,,,,,,,,,,,,,,,,,,,,,,,,,,,,,,Unknown,Unknown,,,,,,,,,,,,,,,,,,,,,
441,441,Bergerie de l'estuaire,,,,,,,2024-03-01,Animal Production,,,,Unknown,45.3764298,-0.6793637,,,,,,,,,,,,,,,,,,,,,,,,,,,,,,,,,,,,,,,,,,,,,,,,,,,,,,,,,,,,,Unknown,Unknown,,,,,,,,,,,,,,,,,,,,,
442,442,Bergerie Du Marais,,,,,,,2024-03-01,Animal Production,,,,Unknown,45.2259966,-0.6659262,,,,,,,,,,,,,,,,,,,,,,,,,,,,,,,,,,,,,,,,,,,,,,,,,,,,,,,,,,,,,Unknown,Unknown,,,,,,,,,,,,,,,,,,,,,
443,443,Elevage de Vaches / Taureaux ?,,,,,,,2024-03-01,Animal Production,,,,Unknown,45.0517502836781,-0.474033504724503,,,,,,,,,,,,,,,,,,,,,,,,,,,,,,,,,,,,,,,,,,,,,,,,,,,,,,,,,,,,,Unknown,Unknown,,,,,,,,,,,,,,,,,,,,,
444,444,Elevage de Moutons / Brebis ?,,,,,,,2024-03-01,Animal Production,,,,Unknown,45.1312986869596,-0.564234852790833,,,,,,,,,,,,,,,,,,,,,,,,,,,,,,,,,,,,,,,,,,,,,,,,,,,,,,,,,,,,,Unknown,Unknown,,,,,,,,,,,,,,,,,,,,,
445,445,Haras de Piques,,,,,,,2024-03-01,Animal Production,,,,Unknown,44.917770831099,-0.772631764411926,,,,,,,,,,,,,,,,,,,,,,,,,,,,,,,,,,,,,,,,,,,,,,,,,,,,,,,,,,,,,Unknown,Unknown,,,,,,,,,,,,,,,,,,,,,
446,446,Élevage de Moutons / Brebis ?,,,,,,,2024-03-01,Animal Production,,,,Unknown,44.9252864559802,-0.794374421238899,,,,,,,,,,,,,,,,,,,,,,,,,,,,,,,,,,,,,,,,,,,,,,,,,,,,,,,,,,,,,Unknown,Unknown,,,,,,,,,,,,,,,,,,,,,
447,447,Elevage de Moutons / Brebis ?,,,,,,,2024-03-01,Animal Production,,,,Unknown,44.9555894335791,-0.862523652613163,,,,,,,,,,,,,,,,,,,,,,,,,,,,,,,,,,,,,,,,,,,,,,,,,,,,,,,,,,,,,Unknown,Unknown,,,,,,,,,,,,,,,,,,,,,
448,448,Elevage de Chien-ne-s,,,,,,,2024-03-01,Animal Production,,,,Unknown,44.9728892268431,-0.978789702057839,,,,,,,,,,,,,,,,,,,,,,,,,,,,,,,,,,,,,,,,,,,,,,,,,,,,,,,,,,,,,Unknown,Unknown,,,,,,,,,,,,,,,,,,,,,
449,449,Elevage de Moutons / Brebis ?,,,,,,,2024-03-01,Animal Production,,,,Unknown,44.9755506535881,-1.03013254702091,,,,,,,,,,,,,,,,,,,,,,,,,,,,,,,,,,,,,,,,,,,,,,,,,,,,,,,,,,,,,Unknown,Unknown,,,,,,,,,,,,,,,,,,,,,
450,450,Ferme du Bois de la ville,,,,,,,2024-03-01,Animal Production,,,,Unknown,49.78166,1.7335355,,,,,,,,,,,,,,,,,,,,,,,,,,,,,,,,,,,,,,,,,,,,,,,,,,,,,,,,,,,,,Unknown,Unknown,,,,,,,,,,,,,,,,,,,,,
451,451,Ferme du Bois de la ville,,,,,,,2024-03-01,Animal Production,,,,Unknown,49.7820896,1.735067,,,,,,,,,,,,,,,,,,,,,,,,,,,,,,,,,,,,,,,,,,,,,,,,,,,,,,,,,,,,,Unknown,Unknown,,,,,,,,,,,,,,,,,,,,,
452,452,gaec de rivery,,,,,,,2024-03-01,Animal Production,,,,Unknown,49.7805974,1.7514592,,,,,,,,,,,,,,,,,,,,,,,,,,,,,,,,,,,,,,,,,,,,,,,,,,,,,,,,,,,,,Unknown,Unknown,,,,,,,,,,,,,,,,,,,,,
453,453,Elevage de Vaches / Taureaux,,,,,,,2024-03-01,Animal Production,,,,Unknown,49.009786,5.892391,,,,,,,,,,,,,,,,,,,,,,,,,,,,,,,,,,,,,,,,,,,,,,,,,,,,,,,,,,,,,Unknown,Unknown,,,,,,,,,,,,,,,,,,,,,
454,454,Elevage de Vaches / Taureaux,,,,,,,2024-03-01,Animal Production,,,,Unknown,49.00401,5.878467,,,,,,,,,,,,,,,,,,,,,,,,,,,,,,,,,,,,,,,,,,,,,,,,,,,,,,,,,,,,,Unknown,Unknown,,,,,,,,,,,,,,,,,,,,,
455,455,La Fourgonnerie,,,,,,,2024-03-01,Animal Production,,,,Unknown,49.2385681,2.1825685,,,,,,,,,,,,,,,,,,,,,,,,,,,,,,,,,,,,,,,,,,,,,,,,,,,,,,,,,,,,,Unknown,Unknown,,,,,,,,,,,,,,,,,,,,,
456,456,La Fourgonnerie,,,,,,,2024-03-01,Animal Production,,,,Unknown,49.2402527,2.1764263,,,,,,,,,,,,,,,,,,,,,,,,,,,,,,,,,,,,,,,,,,,,,,,,,,,,,,,,,,,,,Unknown,Unknown,,,,,,,,,,,,,,,,,,,,,
457,457,Ferme de Plume et Laine,,,,,,,2024-03-01,Animal Production,,,,Unknown,47.4107929,-1.5586185,,,,,,,,,,,,,,,,,,,,,,,,,,,,,,,,,,,,,,,,,,,,,,,,,,,,,,,,,,,,,Unknown,Unknown,,,,,,,,,,,,,,,,,,,,,
458,458,Elevage de Vaches / Taureaux ?,,,,,,,2024-03-01,Animal Production,,,,Unknown,47.4096168,-1.5571628,,,,,,,,,,,,,,,,,,,,,,,,,,,,,,,,,,,,,,,,,,,,,,,,,,,,,,,,,,,,,Unknown,Unknown,,,,,,,,,,,,,,,,,,,,,
459,459,GAEC NOELYS,,,,,,,2024-03-01,Animal Production,,,,Unknown,47.4072354,-1.5525741,,,,,,,,,,,,,,,,,,,,,,,,,,,,,,,,,,,,,,,,,,,,,,,,,,,,,,,,,,,,,Unknown,Unknown,,,,,,,,,,,,,,,,,,,,,
460,460,Jahan Jean-Paul,,,,,,,2024-03-01,Animal Production,,,,Unknown,47.4074225,-1.5434464,,,,,,,,,,,,,,,,,,,,,,,,,,,,,,,,,,,,,,,,,,,,,,,,,,,,,,,,,,,,,Unknown,Unknown,,,,,,,,,,,,,,,,,,,,,
461,461,Le blanc glacé,,,,,,,2024-03-01,Animal Production,,,,Unknown,47.3338215,-1.5050857,,,,,,,,,,,,,,,,,,,,,,,,,,,,,,,,,,,,,,,,,,,,,,,,,,,,,,,,,,,,,Unknown,Unknown,,,,,,,,,,,,,,,,,,,,,
462,462,Bonenfant Daniel,,,,,,,2024-03-01,Animal Production,,,,Unknown,47.427873,-1.7860329,,,,,,,,,,,,,,,,,,,,,,,,,,,,,,,,,,,,,,,,,,,,,,,,,,,,,,,,,,,,,Unknown,Unknown,,,,,,,,,,,,,,,,,,,,,
463,463,EARL DU BAS LINTIN,,,,,,,2024-03-01,Animal Production,,,,Unknown,47.4088589,-1.6842262,,,,,,,,,,,,,,,,,,,,,,,,,,,,,,,,,,,,,,,,,,,,,,,,,,,,,,,,,,,,,Unknown,Unknown,,,,,,,,,,,,,,,,,,,,,
464,464,Elevage du Jariel,,,,,,,2024-03-01,Animal Production,,,,Unknown,48.8174609,2.825946,,,,,,,,,,,,,,,,,,,,,,,,,,,,,,,,,,,,,,,,,,,,,,,,,,,,,,,,,,,,,Unknown,Unknown,,,,,,,,,,,,,,,,,,,,,
465,465,Elevage de Vaches / Taureaux ?,,,,,,,2024-03-01,Animal Production,,,,Unknown,49.1361616,2.4007814,,,,,,,,,,,,,,,,,,,,,,,,,,,,,,,,,,,,,,,,,,,,,,,,,,,,,,,,,,,,,Unknown,Unknown,,,,,,,,,,,,,,,,,,,,,
466,466,Élevage et vente de chiots Jack Russel et Akita Inu : Élevage du monde des aulnettes,,,,,,,2024-03-01,Animal Production,,,,Unknown,48.829459,3.439724,,,,,,,,,,,,,,,,,,,,,,,,,,,,,,,,,,,,,,,,,,,,,,,,,,,,,,,,,,,,,Unknown,Unknown,,,,,,,,,,,,,,,,,,,,,
467,467,Pique Suzanne,,,,,,,2024-03-01,Animal Production,,,,Unknown,48.9305172,2.1636258,,,,,,,,,,,,,,,,,,,,,,,,,,,,,,,,,,,,,,,,,,,,,,,,,,,,,,,,,,,,,Unknown,Unknown,,,,,,,,,,,,,,,,,,,,,
468,468,La Ferme Des Limousines,,,,,,,2024-03-01,Animal Production,,,,Unknown,48.8282605,1.8198882,,,,,,,,,,,,,,,,,,,,,,,,,,,,,,,,,,,,,,,,,,,,,,,,,,,,,,,,,,,,,Unknown,Unknown,,,,,,,,,,,,,,,,,,,,,
469,469,Ferme de Maurepas : La boutique,,,,,,,2024-03-01,Animal Production,,,,Unknown,48.7658407,1.9163989,,,,,,,,,,,,,,,,,,,,,,,,,,,,,,,,,,,,,,,,,,,,,,,,,,,,,,,,,,,,,Unknown,Unknown,,,,,,,,,,,,,,,,,,,,,
470,470,Ferme d'Aubetin,,,,,,,2024-03-01,Animal Production,,,,Unknown,48.7062767,3.1736502,,,,,,,,,,,,,,,,,,,,,,,,,,,,,,,,,,,,,,,,,,,,,,,,,,,,,,,,,,,,,Unknown,Unknown,,,,,,,,,,,,,,,,,,,,,
471,471,Haras des Saules,,,,,,,2024-03-01,Animal Production,,,,Unknown,48.725101,2.6474501,,,,,,,,,,,,,,,,,,,,,,,,,,,,,,,,,,,,,,,,,,,,,,,,,,,,,,,,,,,,,Unknown,Unknown,,,,,,,,,,,,,,,,,,,,,
472,472,SCEA DU PRE DEVANT,,,,,,,2024-03-01,Animal Production,,,,Unknown,48.5309828,6.8360939,,,,,,,,,,,,,,,,,,,,,,,,,,,,,,,,,,,,,,,,,,,,,,,,,,,,,,,,,,,,,Unknown,Unknown,,,,,,,,,,,,,,,,,,,,,
473,473,Elevage de Vaches / Taureaux,,,,,,,2024-03-01,Animal Production,,,,Unknown,48.5293429,6.8394746,,,,,,,,,,,,,,,,,,,,,,,,,,,,,,,,,,,,,,,,,,,,,,,,,,,,,,,,,,,,,Unknown,Unknown,,,,,,,,,,,,,,,,,,,,,
474,474,Ferme de la Perdrière,,,,,,,2024-03-01,Animal Production,,,,Unknown,48.8656371,-1.024935,,,,,,,,,,,,,,,,,,,,,,,,,,,,,,,,,,,,,,,,,,,,,,,,,,,,,,,,,,,,,Unknown,Unknown,,,,,,,,,,,,,,,,,,,,,
475,475,Centre de conditionnement d'oeufs - Ferme de la Perdrière,,,,,,,2024-03-01,Animal Production,,,,Unknown,48.8646807,-1.024994,,,,,,,,,,,,,,,,,,,,,,,,,,,,,,,,,,,,,,,,,,,,,,,,,,,,,,,,,,,,,Unknown,Unknown,,,,,,,,,,,,,,,,,,,,,
476,476,Elevage de Vaches / Taureaux,,,,,,,2024-03-01,Animal Production,,,,Unknown,48.862527,-1.0248558,,,,,,,,,,,,,,,,,,,,,,,,,,,,,,,,,,,,,,,,,,,,,,,,,,,,,,,,,,,,,Unknown,Unknown,,,,,,,,,,,,,,,,,,,,,
477,477,Elevage de Vaches / Taureaux,,,,,,,2024-03-01,Animal Production,,,,Unknown,48.8628966,-1.0127251,,,,,,,,,,,,,,,,,,,,,,,,,,,,,,,,,,,,,,,,,,,,,,,,,,,,,,,,,,,,,Unknown,Unknown,,,,,,,,,,,,,,,,,,,,,
478,478,Elevage de Vaches / Taureaux,,,,,,,2024-03-01,Animal Production,,,,Unknown,48.860192,-1.0003409,,,,,,,,,,,,,,,,,,,,,,,,,,,,,,,,,,,,,,,,,,,,,,,,,,,,,,,,,,,,,Unknown,Unknown,,,,,,,,,,,,,,,,,,,,,
479,479,Elevage de Vaches / Taureaux,,,,,,,2024-03-01,Animal Production,,,,Unknown,48.8089313,-0.8050488,,,,,,,,,,,,,,,,,,,,,,,,,,,,,,,,,,,,,,,,,,,,,,,,,,,,,,,,,,,,,Unknown,Unknown,,,,,,,,,,,,,,,,,,,,,
480,480,Earl la Dienne,,,,,,,2024-03-01,Animal Production,,,,Unknown,48.801065,-0.7887459,,,,,,,,,,,,,,,,,,,,,,,,,,,,,,,,,,,,,,,,,,,,,,,,,,,,,,,,,,,,,Unknown,Unknown,,,,,,,,,,,,,,,,,,,,,
481,481,EARL Le Costil,,,,,,,2024-03-01,Animal Production,,,,Unknown,48.7999042,-0.7789073,,,,,,,,,,,,,,,,,,,,,,,,,,,,,,,,,,,,,,,,,,,,,,,,,,,,,,,,,,,,,Unknown,Unknown,,,,,,,,,,,,,,,,,,,,,
482,482,Gaec Vallée,,,,,,,2024-03-01,Animal Production,,,,Unknown,48.8076391,-0.771278,,,,,,,,,,,,,,,,,,,,,,,,,,,,,,,,,,,,,,,,,,,,,,,,,,,,,,,,,,,,,Unknown,Unknown,,,,,,,,,,,,,,,,,,,,,
483,483,Lebaudy Guy,,,,,,,2024-03-01,Animal Production,,,,Unknown,48.800687,-0.7328721,,,,,,,,,,,,,,,,,,,,,,,,,,,,,,,,,,,,,,,,,,,,,,,,,,,,,,,,,,,,,Unknown,Unknown,,,,,,,,,,,,,,,,,,,,,
484,484,Noes Père et Fils (EARL),,,,,,,2024-03-01,Animal Production,,,,Unknown,48.8044716,-0.6819081,,,,,,,,,,,,,,,,,,,,,,,,,,,,,,,,,,,,,,,,,,,,,,,,,,,,,,,,,,,,,Unknown,Unknown,,,,,,,,,,,,,,,,,,,,,
485,485,Gaec de Lingrie,,,,,,,2024-03-01,Animal Production,,,,Unknown,48.8038625,-0.7034375,,,,,,,,,,,,,,,,,,,,,,,,,,,,,,,,,,,,,,,,,,,,,,,,,,,,,,,,,,,,,Unknown,Unknown,,,,,,,,,,,,,,,,,,,,,
486,486,GAEC LENORMAND,,,,,,,2024-03-01,Animal Production,,,,Unknown,48.8011565,-0.7040879,,,,,,,,,,,,,,,,,,,,,,,,,,,,,,,,,,,,,,,,,,,,,,,,,,,,,,,,,,,,,Unknown,Unknown,,,,,,,,,,,,,,,,,,,,,
487,487,Elevage de Vaches / Taureaux ?,,,,,,,2024-03-01,Animal Production,,,,Unknown,49.0635924,1.939802,,,,,,,,,,,,,,,,,,,,,,,,,,,,,,,,,,,,,,,,,,,,,,,,,,,,,,,,,,,,,Unknown,Unknown,,,,,,,,,,,,,,,,,,,,,
488,488,Boucherie Benz Frères,,,,,,,2024-03-01,Animal Production,,,,Unknown,49.0886109,1.8082738,,,,,,,,,,,,,,,,,,,,,,,,,,,,,,,,,,,,,,,,,,,,,,,,,,,,,,,,,,,,,Unknown,Unknown,,,,,,,,,,,,,,,,,,,,,
489,489,Elevage ?,,,,,,,2024-03-01,Animal Production,,,,Unknown,49.0686076,1.8676605,,,,,,,,,,,,,,,,,,,,,,,,,,,,,,,,,,,,,,,,,,,,,,,,,,,,,,,,,,,,,Unknown,Unknown,,,,,,,,,,,,,,,,,,,,,
490,490,Elevage de Vaches / Taureaux,,,,,,,2024-03-01,Animal Production,,,,Unknown,49.1016958,2.1403119,,,,,,,,,,,,,,,,,,,,,,,,,,,,,,,,,,,,,,,,,,,,,,,,,,,,,,,,,,,,,Unknown,Unknown,,,,,,,,,,,,,,,,,,,,,
491,491,Ferme Cuypers (Bergerie),,,,,,,2024-03-01,Animal Production,,,,Unknown,49.2352057,1.964051,,,,,,,,,,,,,,,,,,,,,,,,,,,,,,,,,,,,,,,,,,,,,,,,,,,,,,,,,,,,,Unknown,Unknown,,,,,,,,,,,,,,,,,,,,,
492,492,Earl Des Kroumirs,,,,,,,2024-03-01,Animal Production,,,,Unknown,49.2974861,1.805446,,,,,,,,,,,,,,,,,,,,,,,,,,,,,,,,,,,,,,,,,,,,,,,,,,,,,,,,,,,,,Unknown,Unknown,,,,,,,,,,,,,,,,,,,,,
493,493,La Maison Delamarre - Eleveur de bœuf bio,,,,,,,2024-03-01,Animal Production,,,,Unknown,49.3243669,2.0682119,,,,,,,,,,,,,,,,,,,,,,,,,,,,,,,,,,,,,,,,,,,,,,,,,,,,,,,,,,,,,Unknown,Unknown,,,,,,,,,,,,,,,,,,,,,
494,494,Ferme Friancourt EARL,,,,,,,2024-03-01,Animal Production,,,,Unknown,49.3748172,1.9784225,,,,,,,,,,,,,,,,,,,,,,,,,,,,,,,,,,,,,,,,,,,,,,,,,,,,,,,,,,,,,Unknown,Unknown,,,,,,,,,,,,,,,,,,,,,
495,495,Ecurie de Commerce Tison,,,,,,,2024-03-01,Animal Production,,,,Unknown,49.2408392,1.9456494,,,,,,,,,,,,,,,,,,,,,,,,,,,,,,,,,,,,,,,,,,,,,,,,,,,,,,,,,,,,,Unknown,Unknown,,,,,,,,,,,,,,,,,,,,,
496,496,Elevage de Moutons / Brebis ?,,,,,,,2024-03-01,Animal Production,,,,Unknown,48.711207,2.725851,,,,,,,,,,,,,,,,,,,,,,,,,,,,,,,,,,,,,,,,,,,,,,,,,,,,,,,,,,,,,Unknown,Unknown,,,,,,,,,,,,,,,,,,,,,
497,497,Elevage de Vaches / Taureaux,,,,,,,2024-03-01,Animal Production,,,,Unknown,46.230835,5.014208,,,,,,,,,,,,,,,,,,,,,,,,,,,,,,,,,,,,,,,,,,,,,,,,,,,,,,,,,,,,,Unknown,Unknown,,,,,,,,,,,,,,,,,,,,,
498,498,Elevage de Vaches / Taureaux,,,,,,,2024-03-01,Animal Production,,,,Unknown,46.2265719,5.0125447,,,,,,,,,,,,,,,,,,,,,,,,,,,,,,,,,,,,,,,,,,,,,,,,,,,,,,,,,,,,,Unknown,Unknown,,,,,,,,,,,,,,,,,,,,,
499,499,Elevage de Vaches / Taureaux,,,,,,,2024-03-01,Animal Production,,,,Unknown,46.2246368,5.0170119,,,,,,,,,,,,,,,,,,,,,,,,,,,,,,,,,,,,,,,,,,,,,,,,,,,,,,,,,,,,,Unknown,Unknown,,,,,,,,,,,,,,,,,,,,,
