id,slug,shortDescription,latitude,longitude,locationAccuracy,address,county,country,operator,name,classifications,icon,operational,permittedInstallationLicenseIssued,firstImportedAt,lastImportedAt
"121","4276-a-j-green-sons","A cow, bull, calf, goat, pig, sheep and lamb slaughterhouse in Staffordshire","53.081637","-2.237357","Address","Ravenscliffe House Farm, Goldenhill, Stoke-on-Trent, ST6 4QH, United Kingdom","Staffordshire","England","A J Green & Sons","A J Green & Sons","CowSlaughterhouse, GoatSlaughterhouse, PigSlaughterhouse, SheepAndLambSlaughterhouse","https://transparentfarms.org.uk/images/animals/slaughterhouse.png","1","","2018-01-01T00:00:00.000000Z","2024-05-01T00:00:00.000000Z"
"240","8061-pilgrims-pride-ltd-westerleigh","A pig slaughterhouse in South Gloucestershire","51.510272","-2.448218","Coordinates","Oakleigh Green Farm, Westerleigh, Bristol, BS37 8QZ, United Kingdom","South Gloucestershire","England","Pilgrims Pride Ltd - Westerleigh","Pilgrims Pride Ltd - Westerleigh","PigSlaughterhouse","https://transparentfarms.org.uk/images/animals/slaughterhouse.png","1","","2018-01-01T00:00:00.000000Z","2024-05-01T00:00:00.000000Z"
"116","4227-manchester-abattoir-ltd","A goat, sheep and lamb slaughterhouse in Greater Manchester","53.412165","-2.171729","Address","The Abattoir 2 Higher Bury Str, Heaton Norris, Stockport, SK4 1BJ, United Kingdom","Greater Manchester","England","Manchester Abattoir Ltd","Manchester Abattoir Ltd","GoatSlaughterhouse, SheepAndLambSlaughterhouse","https://transparentfarms.org.uk/images/animals/slaughterhouse.png","1","","2018-01-01T00:00:00.000000Z","2024-05-01T00:00:00.000000Z"
"143","4496-birmingham-halal-abattoir-ltd","A cow, bull, calf, goat, sheep and lamb slaughterhouse in West Midlands","52.469864","-1.893673","Address","162 - 194 Bishops Street, Highgate, Birmingham, B5 7EJ, United Kingdom","West Midlands","England","Birmingham Halal Abattoir Ltd","Birmingham Halal Abattoir Ltd","CowSlaughterhouse, GoatSlaughterhouse, SheepAndLambSlaughterhouse","https://transparentfarms.org.uk/images/animals/slaughterhouse.png","1","","2018-01-01T00:00:00.000000Z","2024-05-01T00:00:00.000000Z"
"134","4367-t-g-sargeant-and-sons","A cow, bull, calf, goat, sheep and lamb slaughterhouse in Staffordshire","52.895439","-1.907145","Coordinates","Roycroft Farm, Bramshall, Uttoxeter, ST14 5BG, United Kingdom","Staffordshire","England","T G Sargeant And Sons","T G Sargeant And Sons","CowSlaughterhouse, GoatSlaughterhouse, SheepAndLambSlaughterhouse","https://transparentfarms.org.uk/images/animals/slaughterhouse.png","1","","2018-01-01T00:00:00.000000Z","2024-05-01T00:00:00.000000Z"
"244","8072-p-j-king-son","A cow, bull, calf, goat, pig, sheep and lamb slaughterhouse in Gloucestershire","51.841765","-2.243757","Address","Court Farm, Stroud Road, Whaddon, Gloucester, GL4 0UG, United Kingdom","Gloucestershire","England","P J King & Sons","P J King & Sons","CowSlaughterhouse, GoatSlaughterhouse, PigSlaughterhouse, SheepAndLambSlaughterhouse","https://transparentfarms.org.uk/images/animals/slaughterhouse.png","1","","2018-01-01T00:00:00.000000Z","2024-05-01T00:00:00.000000Z"
"123","4294-e-t-jackson-sons","A cow, bull, calf, goat, pig, sheep and lamb slaughterhouse in Cheshire East","53.307019","-2.430653","Coordinates","Tabley Brook Farm, Tabley, Knutsford, WA16 0JA, United Kingdom","Cheshire East","England","E & T Jackson & Sons","E & T Jackson & Sons","CowSlaughterhouse, GoatSlaughterhouse, PigSlaughterhouse, SheepAndLambSlaughterhouse","https://transparentfarms.org.uk/images/animals/slaughterhouse.png","1","","2018-01-01T00:00:00.000000Z","2024-05-01T00:00:00.000000Z"
"207","6207-mutchmeats-ltd","A cow, bull, calf, goat, other mammal, sheep and lamb slaughterhouse in Oxfordshire","51.771642","-1.49809","Coordinates","Newclose Lane, Witney, OX29 7GX, United Kingdom","Oxfordshire","England","Mutchmeats Ltd","Mutchmeats Ltd","CowSlaughterhouse, GoatSlaughterhouse, OtherMammalSlaughterhouse, SheepAndLambSlaughterhouse","https://transparentfarms.org.uk/images/animals/slaughterhouse.png","1","","2018-01-01T00:00:00.000000Z","2024-05-01T00:00:00.000000Z"
"234","7226-euro-farm-wales","A cow, bull, calf, sheep and lamb slaughterhouse in Pembrokeshire","51.827694","-4.956605","Coordinates","Unit 7-8, Withy Bush Trading Estate, Haverfordwest, SA62 4BS, United Kingdom","Pembrokeshire","Wales","Euro Farm Wales","Euro Farm Wales","CowSlaughterhouse, SheepAndLambSlaughterhouse","https://transparentfarms.org.uk/images/animals/slaughterhouse.png","1","","2019-07-01T00:00:00.000000Z","2024-05-01T00:00:00.000000Z"
"172","5067-ihp-ltd","A poultry slaughterhouse in Hertfordshire","51.71201","-0.544522","Address","Bell Farm, Shantock Hall Lane, Bovingdon, HP3 0NQ, United Kingdom","Hertfordshire","England","IHP LImited","IHP LImited","PoultrySlaughterhouse","https://transparentfarms.org.uk/images/animals/slaughterhouse.png","1","","2018-01-01T00:00:00.000000Z","2024-05-01T00:00:00.000000Z"
"12491","g-t-l-spence-DL6","A dairy farm in North Yorkshire","54.373601","-1.414308","Address","Lowfield Farm, Brompton, Northallerton, North Yorkshire, DL6 2RW, United Kingdom","North Yorkshire","England","G T &  L Spence","Lowfield Farm","DairyFarm","https://transparentfarms.org.uk/images/animals/cow.png","","","2018-01-01T00:00:00.000000Z","2022-03-01T00:00:00.000000Z"
"211","6342-stm-sussex-ltd","A cow, bull, calf, goat, other mammal, pig, sheep and lamb slaughterhouse in West Sussex","50.946301","-0.254653","Address","Morley Farm, Wheatsheaf Road, Woodmancote, Henfield, BN5 9BB, United Kingdom","West Sussex","England","Down Land Traditional Meats Ltd","Down Land Traditional Meats Ltd","CowSlaughterhouse, GoatSlaughterhouse, OtherMammalSlaughterhouse, PigSlaughterhouse, SheepAndLambSlaughterhouse","https://transparentfarms.org.uk/images/animals/slaughterhouse.png","1","","2018-01-01T00:00:00.000000Z","2024-05-01T00:00:00.000000Z"
"61","2285-john-penny-and-sons","A cow, bull, calf, goat, pig, sheep and lamb slaughterhouse in West Yorkshire","53.848323","-1.674192","Coordinates","Low Green Farm, 40 Leeds Road, Rawdon, Leeds, LS19 6NU, United Kingdom","West Yorkshire","England","John Penny And Sons","John Penny And Sons","CowSlaughterhouse, GoatSlaughterhouse, PigSlaughterhouse, SheepAndLambSlaughterhouse","https://transparentfarms.org.uk/images/animals/slaughterhouse.png","1","","2018-01-01T00:00:00.000000Z","2024-05-01T00:00:00.000000Z"
"46","2138-west-scottish-lamb-ltd","A cow, bull, calf, sheep and lamb slaughterhouse in Cumbria","54.923891","-2.957531","Address","The Abattoir, Brunthill Road, Kingstown Industrial Estate, Carlisle, CA3 0EH, United Kingdom","Cumbria","England","West Scottish Lamb Ltd","West Scottish Lamb Ltd","CowSlaughterhouse, SheepAndLambSlaughterhouse","https://transparentfarms.org.uk/images/animals/slaughterhouse.png","1","","2018-01-01T00:00:00.000000Z","2024-05-01T00:00:00.000000Z"
"282","9301-dmp-foods-ltd","A cow, bull, calf, goat, sheep and lamb slaughterhouse in Antrim and Newtownabbey","54.622277","-6.280906","Address","73 Largy Road, Crumlin, BT29 4RS, United Kingdom","Antrim and Newtownabbey","Northern Ireland","DMP Foods Ltd","DMP Foods Ltd","CowSlaughterhouse, GoatSlaughterhouse, SheepAndLambSlaughterhouse","https://transparentfarms.org.uk/images/animals/slaughterhouse.png","","","2019-08-01T00:00:00.000000Z","2022-04-01T00:00:00.000000Z"
"66","2368-j-s-quality-meats-limited","A cow, bull, calf, goat, pig, sheep and lamb slaughterhouse in Staffordshire","52.907959","-1.857257","Coordinates","Cotton Mill Farm, By Pass Road, Uttoxeter, ST14 5AA, United Kingdom","Staffordshire","England","J S Quality Meats Limited","J S Quality Meats Limited","CowSlaughterhouse, GoatSlaughterhouse, PigSlaughterhouse, SheepAndLambSlaughterhouse","https://transparentfarms.org.uk/images/animals/slaughterhouse.png","1","","2019-06-01T00:00:00.000000Z","2024-05-01T00:00:00.000000Z"
"199","5513-woodhead-brothers","A cow, bull, calf, pig, sheep and lamb slaughterhouse in Lincolnshire","52.804373","-0.142252","Coordinates","Brunel Road, Wardentree Industrial Estate, Pinchbeck, Spalding, PE11 3YY, United Kingdom","Lincolnshire","England","Woodhead Bros. Spalding","Woodhead Bros. Spalding","CowSlaughterhouse, PigSlaughterhouse, SheepAndLambSlaughterhouse","https://transparentfarms.org.uk/images/animals/slaughterhouse.png","1","","2018-01-01T00:00:00.000000Z","2024-05-01T00:00:00.000000Z"
"32","2019-hcf-poultry-ltd","A poultry slaughterhouse in West Yorkshire","53.826405","-1.900951","Coordinates","Station Yard, Station Road, Cullingworth, Bradford, BD13 5HP, United Kingdom","West Yorkshire","England","HCF Poultry Ltd","HCF Poultry Ltd","PoultrySlaughterhouse","https://transparentfarms.org.uk/images/animals/slaughterhouse.png","1","","2018-01-01T00:00:00.000000Z","2024-05-01T00:00:00.000000Z"
"57","2199-e-v-slack-sons","A cow, bull, calf, goat, pig, sheep and lamb slaughterhouse in South Yorkshire","53.466123","-1.13675","Coordinates","Doncaster, United Kingdom","South Yorkshire","England","E V Slack & Sons","E V Slack & Sons","CowSlaughterhouse, GoatSlaughterhouse, PigSlaughterhouse, SheepAndLambSlaughterhouse","https://transparentfarms.org.uk/images/animals/slaughterhouse.png","1","","2018-01-01T00:00:00.000000Z","2024-05-01T00:00:00.000000Z"
"208","6238-abp-guildford","A cow, bull, calf, sheep and lamb slaughterhouse in Surrey","51.261603","-0.570216","Address","The Abattoir, Moorfield Road, Slyfield Industrial Estate, Guildford, GU1 1RP, United Kingdom","Surrey","England","Abp Guildford","Abp Guildford","CowSlaughterhouse, SheepAndLambSlaughterhouse","https://transparentfarms.org.uk/images/animals/slaughterhouse.png","1","","2018-01-01T00:00:00.000000Z","2024-05-01T00:00:00.000000Z"
"1175","rp3632mu-cross-and-beacon-farm","An intensive pig and intensive poultry farm in Devon","50.857388","-4.330412","Coordinates","Cross Farm, Cross And Beacon Farm, Holsworthy Beacon, Devon, EX22 7ND, United Kingdom","Devon","England","W.j. Watkins & Son Limited","Cross Farm, Cross And Beacon Farm","IntensivePigFarm, IntensivePoultryFarm","https://transparentfarms.org.uk/images/animals/pig.png","1","","2020-10-01T00:00:00.000000Z","2023-10-01T00:00:00.000000Z"
"40","2091-spenborough-abattoir-ltd","A cow, bull, calf, goat, sheep and lamb slaughterhouse in West Yorkshire","53.709963","-1.69446","Coordinates","Headlands Road, Liversedge, WF15 6PR, United Kingdom","West Yorkshire","England","Spenborough Abattoir Ltd","Spenborough Abattoir Ltd","CowSlaughterhouse, GoatSlaughterhouse, SheepAndLambSlaughterhouse","https://transparentfarms.org.uk/images/animals/slaughterhouse.png","1","","2018-01-01T00:00:00.000000Z","2024-05-01T00:00:00.000000Z"
"110","4168-r-b-elliott-son-ltd","A cow, bull, calf, goat, pig, sheep and lamb slaughterhouse in Derbyshire","53.2332","-1.373634","Address","Stud Farm, Calow, Chesterfield, S44 5UN, United Kingdom","Derbyshire","England","R B Elliott & Son Ltd","R B Elliott & Son Ltd","CowSlaughterhouse, GoatSlaughterhouse, PigSlaughterhouse, SheepAndLambSlaughterhouse","https://transparentfarms.org.uk/images/animals/slaughterhouse.png","1","","2018-01-01T00:00:00.000000Z","2024-05-01T00:00:00.000000Z"
"103","4109-abp-shrewsbury","A cow, bull, calf, sheep and lamb slaughterhouse in Shropshire","52.741662","-2.720306","Address","Battlefield Road, Harlescott, Shrewsbury, SY1 4AH, United Kingdom","Shropshire","England","Abp Shrewsbury","Abp Shrewsbury","CowSlaughterhouse, SheepAndLambSlaughterhouse","https://transparentfarms.org.uk/images/animals/slaughterhouse.png","1","","2018-01-01T00:00:00.000000Z","2024-05-01T00:00:00.000000Z"
"222","7084-huw-evans-morag-evans-ta-cig-oen-caron","A cow, bull, calf, pig, sheep and lamb slaughterhouse in Ceredigion","52.217161","-3.920343","Coordinates","The Abattoir, Tregaron, SY25 6NJ, United Kingdom","Ceredigion","Wales","Huw Evans & Rhys Evans (T/A Cig Oen Caron)","Huw Evans & Rhys Evans (T/A Cig Oen Caron)","CowSlaughterhouse, PigSlaughterhouse, SheepAndLambSlaughterhouse","https://transparentfarms.org.uk/images/animals/slaughterhouse.png","1","","2018-01-01T00:00:00.000000Z","2024-05-01T00:00:00.000000Z"
"135","4373-staffordshire-meat-packers-ltd","A cow, bull, calf, goat, pig, sheep and lamb slaughterhouse in Stoke-on-Trent","53.024531","-2.145255","Address","New House Farm Werrington Road, Bucknall, Stoke-on-Trent, ST2 9DL, United Kingdom","Stoke-on-Trent","England","Staffordshire Meat Packers Ltd","Staffordshire Meat Packers Ltd","CowSlaughterhouse, GoatSlaughterhouse, PigSlaughterhouse, SheepAndLambSlaughterhouse","https://transparentfarms.org.uk/images/animals/slaughterhouse.png","1","","2018-01-01T00:00:00.000000Z","2024-05-01T00:00:00.000000Z"
"13336","2870-ts-abattoir-ltd","A cow, bull, calf, goat, sheep and lamb slaughterhouse in Warwickshire","52.520452","-1.575235","Address","Ansley Lane, Old Arley, Coventry, CV78FU, United Kingdom","Warwickshire","England","T&S Abattoir Ltd","T&S Abattoir Ltd","CowSlaughterhouse, GoatSlaughterhouse, SheepAndLambSlaughterhouse","https://transparentfarms.org.uk/images/animals/slaughterhouse.png","1","","2024-04-01T00:00:00.000000Z","2024-05-01T00:00:00.000000Z"
"85","2690-simpson-sons","A cow, bull, calf, goat, sheep and lamb slaughterhouse in Worcestershire","52.255146","-1.953472","Address","Windy Bank, Astwood Lane, Astwood Bank, Redditch, B96 6HH, United Kingdom","Worcestershire","England","Simpson & Sons","Simpson & Sons","CowSlaughterhouse, GoatSlaughterhouse, SheepAndLambSlaughterhouse","https://transparentfarms.org.uk/images/animals/slaughterhouse.png","1","","2018-01-01T00:00:00.000000Z","2024-05-01T00:00:00.000000Z"
"201","6060-pcturner-wholesale-butcher","A cow, bull, calf, goat, pig, sheep and lamb slaughterhouse in Hampshire","51.278505","-0.742328","Coordinates","48-50 Sherborne Road, Northcamp, Farnborough, GU14 6JS, United Kingdom","Hampshire","England","P.C.Turner - Wholesale Butcher","P.C.Turner - Wholesale Butcher","CowSlaughterhouse, GoatSlaughterhouse, PigSlaughterhouse, SheepAndLambSlaughterhouse","https://transparentfarms.org.uk/images/animals/slaughterhouse.png","1","","2018-01-01T00:00:00.000000Z","2024-05-01T00:00:00.000000Z"
"210","6326-j-r-farm-meats-ltd","A cow, bull, calf, goat, pig, sheep and lamb slaughterhouse in Kent","51.230462","1.208033","Address","Ratling Court Farm, Ratling Road, Aylesham, Canterbury, CT3 3HN, United Kingdom","Kent","England","J R Farm Meats Ltd","J R Farm Meats Ltd","CowSlaughterhouse, GoatSlaughterhouse, PigSlaughterhouse, SheepAndLambSlaughterhouse","https://transparentfarms.org.uk/images/animals/slaughterhouse.png","1","","2018-01-01T00:00:00.000000Z","2024-05-01T00:00:00.000000Z"
"44","2102-n-bramall-son-ltd","A cow, bull, calf, goat, pig, sheep and lamb slaughterhouse in South Yorkshire","53.520978","-1.582204","Address","The Abattoir, Near Coates Farm, Oxspring, Sheffield, S36 8YB, United Kingdom","South Yorkshire","England","N Bramall & Son Ltd","N Bramall & Son Ltd","CowSlaughterhouse, GoatSlaughterhouse, PigSlaughterhouse, SheepAndLambSlaughterhouse","https://transparentfarms.org.uk/images/animals/slaughterhouse.png","1","","2018-01-01T00:00:00.000000Z","2024-05-01T00:00:00.000000Z"
"100","4085-pilgrims-pride-ltd-ashton","A pig slaughterhouse in Greater Manchester","53.484066","-2.090097","Coordinates","Bow Street, Dukinfield, SK16 4HY, United Kingdom","Greater Manchester","England","Pilgrims Pride Ltd - Ashton","Pilgrims Pride Ltd - Ashton","PigSlaughterhouse","https://transparentfarms.org.uk/images/animals/slaughterhouse.png","1","","2018-01-01T00:00:00.000000Z","2024-05-01T00:00:00.000000Z"
"196","5392-c-j-byford-son","A cow, bull, calf, goat, pig, sheep and lamb slaughterhouse in Essex","51.827731","1.174815","Coordinates","Bonds Farm, Holland Road, Little Clacton, CO16 9QE, United Kingdom","Essex","England","C J Byford & Son","C J Byford & Son","CowSlaughterhouse, GoatSlaughterhouse, PigSlaughterhouse, SheepAndLambSlaughterhouse","https://transparentfarms.org.uk/images/animals/slaughterhouse.png","1","","2018-01-01T00:00:00.000000Z","2024-05-01T00:00:00.000000Z"
"252","8165-universal-traders-gloucester-ltd","A cow, bull, calf, goat, sheep and lamb slaughterhouse in Gloucestershire","51.821225","-2.278908","Address","The Flatt, The Abattoir, Minsterworth, Gloucester, GL2 8JX, United Kingdom","Gloucestershire","England","Universal Traders Gloucester Ltd","Universal Traders Gloucester Ltd","CowSlaughterhouse, GoatSlaughterhouse, SheepAndLambSlaughterhouse","https://transparentfarms.org.uk/images/animals/slaughterhouse.png","1","","2018-01-01T00:00:00.000000Z","2024-05-01T00:00:00.000000Z"
"127","4326-c-s-morphet-and-sons-limited","A goat, pig, sheep and lamb slaughterhouse in Merseyside","53.385487","-2.784593","Address","Tan House Farm, Alder Lane, Cronton, Widnes, WA8 5PP, United Kingdom","Merseyside","England","C. S. Morphet and Sons Limited","C. S. Morphet and Sons Limited","GoatSlaughterhouse, PigSlaughterhouse, SheepAndLambSlaughterhouse","https://transparentfarms.org.uk/images/animals/slaughterhouse.png","1","","2018-01-01T00:00:00.000000Z","2024-05-01T00:00:00.000000Z"
"82","2660-riley-foods-limited","A cow, bull, calf, goat, sheep and lamb slaughterhouse in Lancashire","53.746571","-2.278068","Coordinates","Dunnockshaw Farm, Burnley Road, Dunnockshaw, Burnley, BB11 5PP, United Kingdom","Lancashire","England","Riley Foods Limited","Riley Foods Limited","CowSlaughterhouse, GoatSlaughterhouse, SheepAndLambSlaughterhouse","https://transparentfarms.org.uk/images/animals/slaughterhouse.png","1","","2018-01-01T00:00:00.000000Z","2024-05-01T00:00:00.000000Z"
"178","5116-dovecote-park-skellingthorpe-ltd","A cow, bull, calf, sheep and lamb slaughterhouse in Lincolnshire","53.240601","-0.602921","Address","Ferry Lane, Skellingthorpe, Lincoln, LN6 5TX, United Kingdom","Lincolnshire","England","Dovecote Park (Skellingthorpe) Ltd","Dovecote Park (Skellingthorpe) Ltd","CowSlaughterhouse, SheepAndLambSlaughterhouse","https://transparentfarms.org.uk/images/animals/slaughterhouse.png","1","","2018-01-01T00:00:00.000000Z","2024-05-01T00:00:00.000000Z"
"269","8357-j-and-j-farmers-abattoir","A cow, bull, calf, goat, other mammal, pig, sheep and lamb slaughterhouse in Cornwall","50.747954","-4.413516","Coordinates","Haydon Farm, North Tamerton, Holsworthy, EX22 6RL, United Kingdom","Cornwall","England","J And J Farmers Abattoir","J And J Farmers Abattoir","CowSlaughterhouse, GoatSlaughterhouse, OtherMammalSlaughterhouse, PigSlaughterhouse, SheepAndLambSlaughterhouse","https://transparentfarms.org.uk/images/animals/slaughterhouse.png","1","","2018-01-01T00:00:00.000000Z","2024-05-01T00:00:00.000000Z"
"47","2139-h-c-airey-sons-ltd","A cow, bull, calf, goat, pig, sheep and lamb slaughterhouse in Cumbria","54.240126","-2.923539","Coordinates","The Abattoir, Snowdrop Villa, Ayside, Grange over Sands, LA11 6JE, United Kingdom","Cumbria","England","H C Airey & Sons Ltd","H C Airey & Sons Ltd","CowSlaughterhouse, GoatSlaughterhouse, PigSlaughterhouse, SheepAndLambSlaughterhouse","https://transparentfarms.org.uk/images/animals/slaughterhouse.png","1","","2018-01-01T00:00:00.000000Z","2024-05-01T00:00:00.000000Z"
"1531","yp3432mk-longbelt-farm","An intensive poultry farm in Nottinghamshire","53.160714","-1.021742","Coordinates","Longbelt Farm Poultry Unit, Rufford Park, Newark, Nottinghamshire, NG22 9HB, United Kingdom","Nottinghamshire","England","Noble Foods Limited","Longbelt Farm Poultry Unit","IntensivePoultryFarm","https://transparentfarms.org.uk/images/animals/poultry.png","1","","2020-10-01T00:00:00.000000Z","2023-10-01T00:00:00.000000Z"
"177","5106-dunbia-cardington","A cow, bull, calf, sheep and lamb slaughterhouse in Bedford","52.129123","-0.410119","Coordinates","Meadow Lane, Cardington, Bedford, MK44 3SB, United Kingdom","Bedford","England","Dunbia Cardington","Dunbia Cardington","CowSlaughterhouse, SheepAndLambSlaughterhouse","https://transparentfarms.org.uk/images/animals/slaughterhouse.png","1","","2018-01-01T00:00:00.000000Z","2024-05-01T00:00:00.000000Z"
"8477","a-w-studley-sons-LL13","A dairy farm in Wrexham Principal Area","53.028864","-2.973035","Address","Bryn Newydd, Marchwiel, Wrexham, Clwyd, LL13 0SR, United Kingdom","Wrexham Principal Area","Wales","A W Studley & Sons","Bryn Newydd","DairyFarm","https://transparentfarms.org.uk/images/animals/cow.png","1","","2018-01-01T00:00:00.000000Z","2024-05-01T00:00:00.000000Z"
"58","2241-woolley-bros-wholesale-meats-ltd","A cow, bull, calf, sheep and lamb slaughterhouse in South Yorkshire","53.331566","-1.330892","Address","Rother Valley Way, Holbrook, Sheffield, S20 3RW, United Kingdom","South Yorkshire","England","Woolley Bros (Wholesale Meats) Ltd","Woolley Bros (Wholesale Meats) Ltd","CowSlaughterhouse, SheepAndLambSlaughterhouse","https://transparentfarms.org.uk/images/animals/slaughterhouse.png","1","","2018-01-01T00:00:00.000000Z","2024-05-01T00:00:00.000000Z"
"1018","np3636fs-north-moor-farm-pig-unit","An intensive pig and intensive sow pig farm in Lincolnshire","53.407306","-0.350937","Coordinates","North Moor Farm, Pig Unit, Caistor Road, Middle Rasen, Lincolnshire, LN8 3JF, United Kingdom","Lincolnshire","England","Elsham Linc Limited","North Moor Farm, Pig Unit","IntensivePigFarm, IntensiveSowPigFarm","https://transparentfarms.org.uk/images/animals/pig.png","1","","2020-10-01T00:00:00.000000Z","2023-10-01T00:00:00.000000Z"
"227","7135-randall-parker-foods-ltd","A goat, sheep and lamb slaughterhouse in Powys","52.456736","-3.478867","Coordinates","Dolwen, Oakley Park, Llanidloes, SY18 6LX, United Kingdom","Powys","Wales","Pilgrim's UK Lamb Ltd.","Pilgrim's UK Lamb Ltd.","GoatSlaughterhouse, SheepAndLambSlaughterhouse","https://transparentfarms.org.uk/images/animals/slaughterhouse.png","1","","2018-01-01T00:00:00.000000Z","2024-05-01T00:00:00.000000Z"
"136","4379-higginshaw-abattoir-ltd","A goat, sheep and lamb slaughterhouse in Greater Manchester","53.557685","-2.104485","Address","The Abattoir, Higginshaw Lane, Royton, Oldham, OL2 6HQ, United Kingdom","Greater Manchester","England","Higginshaw Abattoir Ltd","Higginshaw Abattoir Ltd","GoatSlaughterhouse, SheepAndLambSlaughterhouse","https://transparentfarms.org.uk/images/animals/slaughterhouse.png","1","","2018-01-01T00:00:00.000000Z","2024-05-01T00:00:00.000000Z"
"191","5269-c-humphreys-sons","A cow, bull, calf, goat, pig, sheep and lamb slaughterhouse in Essex","51.831272","0.543558","Address","Blixes Farm, Fairstead, Chelmsford, CM3 2BH, United Kingdom","Essex","England","C Humphreys & Sons","C Humphreys & Sons","CowSlaughterhouse, GoatSlaughterhouse, PigSlaughterhouse, SheepAndLambSlaughterhouse","https://transparentfarms.org.uk/images/animals/slaughterhouse.png","1","","2018-01-01T00:00:00.000000Z","2024-05-01T00:00:00.000000Z"
"62","2291-l-wood-sons","A cow, bull, calf, goat, other mammal, pig, sheep and lamb slaughterhouse in West Yorkshire","53.639952","-1.913309","Address","O'Cot Farm, Scammonden, Huddersfield, HD3 3FW, United Kingdom","West Yorkshire","England","L Wood & Sons","L Wood & Sons","CowSlaughterhouse, GoatSlaughterhouse, OtherMammalSlaughterhouse, PigSlaughterhouse, SheepAndLambSlaughterhouse","https://transparentfarms.org.uk/images/animals/slaughterhouse.png","1","","2018-01-01T00:00:00.000000Z","2024-05-01T00:00:00.000000Z"
"59","2248-melton-meat-limited","A goat, other mammal, sheep and lamb slaughterhouse in Leicestershire","52.701677","-0.821063","Coordinates","The Abattoir, Stygate Lane, Pickwell, Melton Mowbray, LE14 2QN, United Kingdom","Leicestershire","England","Melton Meat Limited","Melton Meat Limited","GoatSlaughterhouse, OtherMammalSlaughterhouse, SheepAndLambSlaughterhouse","https://transparentfarms.org.uk/images/animals/slaughterhouse.png","1","","2018-01-01T00:00:00.000000Z","2024-05-01T00:00:00.000000Z"
"43","2100-dunbia-carnaby","A cow, bull, calf, sheep and lamb slaughterhouse in East Riding of Yorkshire","54.059831","-0.25635","Coordinates","Bridlington, United Kingdom","East Riding of Yorkshire","England","Dunbia Carnaby","Dunbia Carnaby","CowSlaughterhouse, SheepAndLambSlaughterhouse","https://transparentfarms.org.uk/images/animals/slaughterhouse.png","1","","2018-01-01T00:00:00.000000Z","2024-05-01T00:00:00.000000Z"
"7009","s-d-withers-son-SN16","A dairy farm in Wiltshire","51.597949","-2.03502","Address","Little Lype Farm, Charlton, Malmesbury, Wiltshire, SN16 9DR, United Kingdom","Wiltshire","England","S D Withers & Son","Little Lype Farm","DairyFarm","https://transparentfarms.org.uk/images/animals/cow.png","","","2018-01-01T00:00:00.000000Z","2023-09-01T00:00:00.000000Z"
"231","7176-kepak-food-group-limited","A cow, bull, calf, sheep and lamb slaughterhouse in Merthyr Tydfil County Borough","51.768878","-3.336291","Coordinates","Pengarnddu Industrial Estate, Dowlais Top, Merthyr Tydfil, CF48 2TA, United Kingdom","Merthyr Tydfil County Borough","Wales","Kepak Food Group Limited","Kepak Food Group Limited","CowSlaughterhouse, SheepAndLambSlaughterhouse","https://transparentfarms.org.uk/images/animals/slaughterhouse.png","1","","2018-01-01T00:00:00.000000Z","2024-05-01T00:00:00.000000Z"
"193","5319-romford-halal-meats-ltd","A cow, bull, calf, goat, other mammal, sheep and lamb slaughterhouse in Greater London","51.575953","0.280531","Coordinates","The Abattoir, Beredens Farm Folkes Lane, Cranham, Upminster, RM14 1TH, United Kingdom","Greater London","England","Romford Halal Meats Ltd","Romford Halal Meats Ltd","CowSlaughterhouse, GoatSlaughterhouse, OtherMammalSlaughterhouse, SheepAndLambSlaughterhouse","https://transparentfarms.org.uk/images/animals/slaughterhouse.png","1","","2018-01-01T00:00:00.000000Z","2024-05-01T00:00:00.000000Z"
"1541","yp3532yj-pinchbeck-farm","An intensive poultry farm in Lincolnshire","52.827315","-0.192029","Coordinates","Pinchbeck Farm, Cowards Lane, Pinchbeck, Spalding, PE11 3SP, United Kingdom","Lincolnshire","England","Hook 2 Sisters Limited","Pinchbeck Farm","IntensivePoultryFarm","https://transparentfarms.org.uk/images/animals/poultry.png","1","","2020-10-01T00:00:00.000000Z","2023-10-01T00:00:00.000000Z"
"377","bp3709lb-wheaton-aston-farm","An intensive pig farm in Staffordshire","52.730167","-2.239924","Coordinates","Wheaton Aston Farm, Pig Unit, Little Onn, Church Eaton, Stafford, Staffordshire, ST20 0AU, United Kingdom","Staffordshire","England","Belmont Farms Limited","Wheaton Aston Farm, Pig Unit","IntensivePigFarm","https://transparentfarms.org.uk/images/animals/pig.png","1","","2021-01-01T00:00:00.000000Z","2023-10-01T00:00:00.000000Z"
"264","8285-abp-langport","A cow, bull, calf, sheep and lamb slaughterhouse in Somerset","51.031945","-2.814842","Coordinates","Muchelney Road, Huish Episcopi, Langport, TA10 9HG, United Kingdom","Somerset","England","Abp Langport","Abp Langport","CowSlaughterhouse, SheepAndLambSlaughterhouse","https://transparentfarms.org.uk/images/animals/slaughterhouse.png","1","","2018-01-01T00:00:00.000000Z","2024-05-01T00:00:00.000000Z"
"242","8070-p-j-hayman-sons","A cow, bull, calf, goat, horse, other mammal, pig, sheep and lamb slaughterhouse in Devon","50.761531","-3.241577","Coordinates","Grand View Abattoir, Holcombe Lane, Ottery St. Mary, EX11 1PQ, United Kingdom","Devon","England","P J Hayman Abattoir Ltd","P J Hayman Abattoir Ltd","CowSlaughterhouse, GoatSlaughterhouse, HorseSlaughterhouse, OtherMammalSlaughterhouse, PigSlaughterhouse, SheepAndLambSlaughterhouse","https://transparentfarms.org.uk/images/animals/slaughterhouse.png","1","","2018-01-01T00:00:00.000000Z","2024-05-01T00:00:00.000000Z"
"69","2399-chai-meats-limited","A poultry slaughterhouse in West Yorkshire","53.788855","-1.734609","Address","182 Hammerton Street, Bradford, BD3 9RD, United Kingdom","West Yorkshire","England","Chai Meats Limited","Chai Meats Limited","PoultrySlaughterhouse","https://transparentfarms.org.uk/images/animals/slaughterhouse.png","1","","2018-01-01T00:00:00.000000Z","2024-05-01T00:00:00.000000Z"
"978","np3030uw-killingholme-farm","An intensive poultry farm in North Lincolnshire","53.639471","-0.295297","Coordinates","Killingholme Farm, Killingholme Airfiield, North Killingholme, Immingham, South Humberside, DN40 3JY, United Kingdom","North Lincolnshire","England","Hook 2 Sisters Limited","Killingholme Farm","IntensivePoultryFarm","https://transparentfarms.org.uk/images/animals/poultry.png","1","","2020-10-01T00:00:00.000000Z","2023-10-01T00:00:00.000000Z"
"16","1505-vivers-scotlamb-ltd","A sheep and lamb slaughterhouse in Dumfries and Galloway","54.990246","-3.259773","Address","Annan, United Kingdom","Dumfries and Galloway","Scotland","Vivers Scotlamb Ltd.","Vivers Scotlamb Ltd.","SheepAndLambSlaughterhouse","https://transparentfarms.org.uk/images/animals/slaughterhouse.png","","","2018-01-01T00:00:00.000000Z","2022-04-01T00:00:00.000000Z"
"10162","gp3405mw-raynham-farm","An intensive poultry farm in Norfolk","52.802936","0.73003","Coordinates","Old Staion Building, Raynham Farm, Station Road, East Rudham, Norfolk, PE31 8SX, United Kingdom","Norfolk","England","Banham Poultry (2018) Limited","Old Staion Building, Raynham Farm","IntensivePoultryFarm","https://transparentfarms.org.uk/images/animals/poultry.png","1","","2022-01-01T00:00:00.000000Z","2023-10-01T00:00:00.000000Z"
"186","5204-l-brown-sons-wholesale-butchers-ltd","A cow, bull, calf, goat, pig, sheep and lamb slaughterhouse in Lincolnshire","53.232434","-0.507003","Address","City Abattoir, Allenby Road, Crofton Industrial Estate, Lincoln, LN3 4NL, United Kingdom","Lincolnshire","England","L Brown & Sons Wholesale Butchers Ltd","L Brown & Sons Wholesale Butchers Ltd","CowSlaughterhouse, GoatSlaughterhouse, PigSlaughterhouse, SheepAndLambSlaughterhouse","https://transparentfarms.org.uk/images/animals/slaughterhouse.png","1","","2018-01-01T00:00:00.000000Z","2024-05-01T00:00:00.000000Z"
"7091","m-p-mason-WV10","A dairy farm in West Midlands","52.62382","-2.110468","Address","Beeches Farm, Bushbury Lane, Bushbury, Wolverhampton, West Midlands, WV10 8JT, United Kingdom","West Midlands","England","M P Mason","Beeches Farm","DairyFarm","https://transparentfarms.org.uk/images/animals/cow.png","1","","2018-01-01T00:00:00.000000Z","2024-05-01T00:00:00.000000Z"
"50","2161-j-a-jewitt-meat-ltd","A cow, bull, calf, goat, pig, sheep and lamb slaughterhouse in County Durham","54.683948","-1.622735","Coordinates","Low House, Middlestone Moor, Spennymoor, Durham, DL16 7QD, United Kingdom","County Durham","England","J A Jewitt (Meat) Ltd","J A Jewitt (Meat) Ltd","CowSlaughterhouse, GoatSlaughterhouse, PigSlaughterhouse, SheepAndLambSlaughterhouse","https://transparentfarms.org.uk/images/animals/slaughterhouse.png","1","","2018-01-01T00:00:00.000000Z","2024-05-01T00:00:00.000000Z"
"482","dp3231za-hill-top-hoyle-mill-mill-road-railway-and-willow-tree-poultry-farms","An intensive poultry farm in West Yorkshire","53.634845","-1.352492","Coordinates","Hill Top Farm, Hoyle Mill Farm, Mill Road Farm, Railway Farm, Willow Tree Farm, Hoyle Mill Road Poultry Unit, Hoyle Mill Road, Hemsworth, Pontefract, Wakefield, WF9 5JB, United Kingdom","West Yorkshire","England","Mr Jonathan Hay","Hill Top Farm, Hoyle Mill Farm, Mill Road Farm, Railway Farm, Willow Tree Farm, Hoyle Mill Road Poultry Unit","IntensivePoultryFarm","https://transparentfarms.org.uk/images/animals/poultry.png","1","","2020-10-01T00:00:00.000000Z","2023-10-01T00:00:00.000000Z"
"656","gp3031mm-bickmarsh-hall-pig-farm","An intensive pig and intensive sow pig farm in Worcestershire","52.143816","-1.841722","Coordinates","Bickmarsh Hall Farm, Bickmarsh Hall Pig Farm, Honeybourne Road, Bidford-on-avon, Warwickshire, B50 4PE, United Kingdom","Worcestershire","England","Green; Green","Bickmarsh Hall Farm, Bickmarsh Hall Pig Farm","IntensivePigFarm, IntensiveSowPigFarm","https://transparentfarms.org.uk/images/animals/pig.png","1","","2020-10-01T00:00:00.000000Z","2023-10-01T00:00:00.000000Z"
"1733","up3836zt-kittle-hill-poultry-farm","An intensive poultry farm in Swansea","51.587561","-4.06151","Coordinates","Kittle Hill Poultry Farm Kittle Hill Lane, Kittle, Bishopston, Swansea, West Glamorgan, SA3 3JQ, United Kingdom","Swansea","Wales","Ridgeway Foods Ltd","Kittle Hill Poultry Farm","IntensivePoultryFarm","https://transparentfarms.org.uk/images/animals/poultry.png","1","","2020-01-01T00:00:00.000000Z","2021-06-01T00:00:00.000000Z"
"1518","yp3232yv-amber-hill-poultry-farm","An intensive poultry farm in Lincolnshire","52.984545","-0.160588","Coordinates","Amber Hill Farm, Amber Hill Poultry Farm, Ullyatts Drove, Amber Hill, Boston, Lincolnshire, PE20 3RE, United Kingdom","Lincolnshire","England","Hook 2 Sisters Limited","Amber Hill Farm, Amber Hill Poultry Farm","IntensivePoultryFarm","https://transparentfarms.org.uk/images/animals/poultry.png","1","","2020-10-01T00:00:00.000000Z","2023-10-01T00:00:00.000000Z"
"255","8193-strap-orchard-abattoir","A cow, bull, calf, goat, sheep and lamb slaughterhouse in Somerset","51.051041","-2.415617","Address","Hawker Bridge, Wincanton, BA9 9EE, United Kingdom","Somerset","England","Strap Orchard Abattoir","Strap Orchard Abattoir","CowSlaughterhouse, GoatSlaughterhouse, SheepAndLambSlaughterhouse","https://transparentfarms.org.uk/images/animals/slaughterhouse.png","1","","2018-01-01T00:00:00.000000Z","2024-05-01T00:00:00.000000Z"
"792","jp3433ul-stonebridge-farm-poultry-unit","An intensive poultry farm in Norfolk","52.669734","0.998224","Coordinates","Stonebridge Farm Poultry Unit, Mattishall Road, Stonebridge Farm, Dereham, Norfolk, NR20 3BZ, United Kingdom","Norfolk","England","Hook 2 Sisters Limited","Stonebridge Farm Poultry Unit","IntensivePoultryFarm","https://transparentfarms.org.uk/images/animals/poultry.png","1","","2020-10-01T00:00:00.000000Z","2023-10-01T00:00:00.000000Z"
"36","2056-linden-foods-burradon-limited","A cow, bull, calf, sheep and lamb slaughterhouse in Tyne and Wear","55.050436","-1.572649","Coordinates","Quarry Cottages, Burradon, Cramlington, NE23 7NB, United Kingdom","Tyne and Wear","England","Linden Foods Burradon","Linden Foods Burradon","CowSlaughterhouse, SheepAndLambSlaughterhouse","https://transparentfarms.org.uk/images/animals/slaughterhouse.png","1","","2018-01-01T00:00:00.000000Z","2024-05-01T00:00:00.000000Z"
"166","5011-2-sisters-food-group-ltd","A poultry slaughterhouse in Suffolk","52.422079","1.396435","Coordinates","The Factory, Grange Road, Flixton, Bungay, NR35 1NT, United Kingdom","Suffolk","England","2 Sisters Food Group Ltd","2 Sisters Food Group Ltd","PoultrySlaughterhouse","https://transparentfarms.org.uk/images/animals/slaughterhouse.png","1","","2018-01-01T00:00:00.000000Z","2024-05-01T00:00:00.000000Z"
"838","kp3133uj-chapel-ascote-farm","An intensive pig and intensive sow pig farm in Warwickshire","52.210593","-1.390378","Coordinates","Chapel Ascote Farm, Ladbroke, Warwickshire, CV47 2DB, United Kingdom","Warwickshire","England","Chapel Ascote Farms Limited","Chapel Ascote Farm","IntensivePigFarm, IntensiveSowPigFarm","https://transparentfarms.org.uk/images/animals/pig.png","1","","2020-10-01T00:00:00.000000Z","2023-10-01T00:00:00.000000Z"
"1512","yp3136zq-upper-and-lower-pig-units-at-crockway-farm","An intensive pig and intensive sow pig farm in Dorset","50.762284","-2.54594","Coordinates","Crockway Farm, Upper And Lower Pig Units At, Maiden Newton, Dorchester, Dorset, DT2 0BY, United Kingdom","Dorset","England","Crockway Farms Limited","Crockway Farm, Upper And Lower Pig Units At","IntensivePigFarm, IntensiveSowPigFarm","https://transparentfarms.org.uk/images/animals/pig.png","1","","2020-10-01T00:00:00.000000Z","2023-10-01T00:00:00.000000Z"
"260","8231-stillmans-somerset-ltd","A cow, bull, calf, goat, horse, pig, sheep and lamb slaughterhouse in Somerset","51.032767","-3.134027","Address","Staplegrove Mills, Staplegrove, Taunton, TA2 6PX, United Kingdom","Somerset","England","Stillmans (Somerset) Ltd","Stillmans (Somerset) Ltd","CowSlaughterhouse, GoatSlaughterhouse, HorseSlaughterhouse, PigSlaughterhouse, SheepAndLambSlaughterhouse","https://transparentfarms.org.uk/images/animals/slaughterhouse.png","1","","2018-01-01T00:00:00.000000Z","2024-05-01T00:00:00.000000Z"
"484","dp3235qw-stack-field-farm","An intensive poultry farm in Nottinghamshire","52.919611","-1.00279","Coordinates","Stack Field Farm, Fosse Way, Nottingham, Nottinghamshire, NG12 2JU, United Kingdom","Nottinghamshire","England","Moy Park Limited","Stack Field Farm","IntensivePoultryFarm","https://transparentfarms.org.uk/images/animals/poultry.png","1","","2020-10-01T00:00:00.000000Z","2023-10-01T00:00:00.000000Z"
"652","fp3934ml-edenford-poultry-unit","An intensive poultry farm in Cumbria","54.865843","-2.781614","Coordinates","Eden Ford Poultry Unit, Edenford, Poultry Unit, Randlaw Lane, Carlisle, Cumbria, CA8 2BZ, United Kingdom","Cumbria","England","Moy Park Limited","Eden Ford Poultry Unit, Edenford, Poultry Unit","IntensivePoultryFarm","https://transparentfarms.org.uk/images/animals/poultry.png","1","","2020-10-01T00:00:00.000000Z","2023-10-01T00:00:00.000000Z"
"3686","p-j-johnson-sons-HP18","A dairy farm in Buckinghamshire","51.795525","-1.038268","Address","Addingrove Farm, Brill, Aylesbury, Buckinghamshire, HP18 9SF, United Kingdom","Buckinghamshire","England","P J Johnson & Sons","Addingrove Farm","DairyFarm","https://transparentfarms.org.uk/images/animals/cow.png","1","","2018-01-01T00:00:00.000000Z","2024-05-01T00:00:00.000000Z"
"141","4471-woodhead-bros","A cow, bull, calf, goat, pig, sheep and lamb slaughterhouse in Lancashire","53.847544","-2.198292","Address","The Abattoir, Junction Street, Whitewalls Industrial Estate, Colne, BB8 8LH, United Kingdom","Lancashire","England","Woodhead Bros","Woodhead Bros","CowSlaughterhouse, GoatSlaughterhouse, PigSlaughterhouse, SheepAndLambSlaughterhouse","https://transparentfarms.org.uk/images/animals/slaughterhouse.png","1","","2018-01-01T00:00:00.000000Z","2024-05-01T00:00:00.000000Z"
"216","7036-m-k-wales-ltd-ta-maddock-kembery-meats","A cow, bull, calf, goat, pig, sheep and lamb slaughterhouse in Bridgend County Borough","51.605134","-3.643938","Coordinates","The Abattoir, Bridgend Road, Garth, Maesteg, CF34 0NW, United Kingdom","Bridgend County Borough","Wales","M K (Wales) Ltd T/A (Maddock Kembery Meats)","M K (Wales) Ltd T/A (Maddock Kembery Meats)","CowSlaughterhouse, GoatSlaughterhouse, PigSlaughterhouse, SheepAndLambSlaughterhouse","https://transparentfarms.org.uk/images/animals/slaughterhouse.png","1","","2018-01-01T00:00:00.000000Z","2024-05-01T00:00:00.000000Z"
"8125","griffiths-brothers-ltd-SA43","A dairy farm in Ceredigion","52.086396","-4.555053","Address","Tafarn-y-bugail, Llangoedmore, Cardigan, Ceredigion, SA43 2NA, United Kingdom","Ceredigion","Wales","Griffiths Brothers Ltd","Tafarn-y-bugail","DairyFarm","https://transparentfarms.org.uk/images/animals/cow.png","1","","2018-01-01T00:00:00.000000Z","2024-05-01T00:00:00.000000Z"
"109","4156-c-h-rowley-ltd","A cow, bull, calf, goat, pig, sheep and lamb slaughterhouse in Warwickshire","52.515897","-1.579254","Address","Glenside, Ansley Lane, Arley, Coventry, CV7 8FU, United Kingdom","Warwickshire","England","C H Rowley Ltd","C H Rowley Ltd","CowSlaughterhouse, GoatSlaughterhouse, PigSlaughterhouse, SheepAndLambSlaughterhouse","https://transparentfarms.org.uk/images/animals/slaughterhouse.png","","","2018-01-01T00:00:00.000000Z","2023-03-01T00:00:00.000000Z"
"333","ap3832ym-leverton-farm-poultry-unit","An intensive poultry farm in Lincolnshire","53.014911","0.121605","Coordinates","Leverton Farm, Poultry Unit, Oldfield Lane, Outgate, Boston, Lincolnshire, Pe22 Oag, United Kingdom","Lincolnshire","England","Hook 2 Sisters Limited","Leverton Farm, Poultry Unit","IntensivePoultryFarm","https://transparentfarms.org.uk/images/animals/poultry.png","1","","2020-10-01T00:00:00.000000Z","2023-10-01T00:00:00.000000Z"
"1379","vp3337zs-swanhams-poultry-unit","An intensive poultry farm in Devon","50.903929","-3.384229","Coordinates","Swanhams Farm, Swanhams Poultry Unit, Swanhams Lane, Sampford Peverell, Devon, EX16 7ED, United Kingdom","Devon","England","Hook 2 Sisters Limited","Swanhams Farm, Swanhams Poultry Unit","IntensivePoultryFarm","https://transparentfarms.org.uk/images/animals/poultry.png","1","","2020-10-01T00:00:00.000000Z","2023-10-01T00:00:00.000000Z"
"97","4026-faccenda-foods-limited-ta-avara-foods","A poultry slaughterhouse in Derbyshire","52.867263","-1.703845","Coordinates","Holly Bank Farm, Scropton Road, Scropton, DE65 5PS, United Kingdom","Derbyshire","England","Faccenda Foods Limited (T/A Avara Foods)","Faccenda Foods Limited (T/A Avara Foods)","PoultrySlaughterhouse","https://transparentfarms.org.uk/images/animals/slaughterhouse.png","1","","2018-01-01T00:00:00.000000Z","2024-05-01T00:00:00.000000Z"
"3584","w-h-littler-son-CH1","A dairy farm in Cheshire West and Chester","53.250812","-2.917289","Address","Acres Farm, Backford, Chester, Cheshire, CH1 6PE, United Kingdom","Cheshire West and Chester","England","W H Littler & Son","Acres Farm","DairyFarm","https://transparentfarms.org.uk/images/animals/cow.png","1","","2018-01-01T00:00:00.000000Z","2024-05-01T00:00:00.000000Z"
"645","fp3833ug-old-newton-whitegates-farm","An intensive poultry farm in Suffolk","52.224078","1.008513","Coordinates","Old Newton - Whitegates Farm, Hook 2 Sisters Limited, Church Road, Old Newton, IP14 4ED, United Kingdom","Suffolk","England","Hook 2 Sisters Limited","Old Newton - Whitegates Farm","IntensivePoultryFarm","https://transparentfarms.org.uk/images/animals/poultry.png","1","","2020-10-01T00:00:00.000000Z","2023-10-01T00:00:00.000000Z"
"266","8308-j-v-richards-rietfontein-ltd","A cow, bull, calf, goat, pig, sheep and lamb slaughterhouse in Cornwall","50.263195","-5.051041","Address","Truro, United Kingdom","Cornwall","England","J V Richards (Rietfontein) Ltd","J V Richards (Rietfontein) Ltd","CowSlaughterhouse, GoatSlaughterhouse, PigSlaughterhouse, SheepAndLambSlaughterhouse","https://transparentfarms.org.uk/images/animals/slaughterhouse.png","1","","2018-01-01T00:00:00.000000Z","2024-05-01T00:00:00.000000Z"
"1517","yp3232mm-harper-farm","An intensive poultry farm in West Yorkshire","53.776287","-1.611497","Coordinates","Harper Farm, Poultry Unit, Whitehall Road, Leeds, West Yorkshire, LS12 6JU, United Kingdom","West Yorkshire","England","C. R. & G. Stephenson Limited","Harper Farm, Poultry Unit","IntensivePoultryFarm","https://transparentfarms.org.uk/images/animals/poultry.png","1","","2020-10-01T00:00:00.000000Z","2023-10-01T00:00:00.000000Z"
"8721","v-j-thomas-son-ltd-CF62","A dairy farm in Vale of Glamorgan","51.418788","-3.369435","Address","Pancross Farm, Llancarfan, Barry, Vale Of Glamorgan, CF62 3AJ, United Kingdom","Vale of Glamorgan","Wales","V J Thomas & Son Ltd","Pancross Farm","DairyFarm","https://transparentfarms.org.uk/images/animals/cow.png","1","","2018-01-01T00:00:00.000000Z","2024-05-01T00:00:00.000000Z"
"183","5177-lincolnshire-meat-company-ltd","A cow, bull, calf, goat, pig, sheep and lamb slaughterhouse in Lincolnshire","52.911004","-0.647132","Coordinates","Dysart Road, Grantham, NG31 7DA, United Kingdom","Lincolnshire","England","Lincolnshire Meat Company Ltd","Lincolnshire Meat Company Ltd","CowSlaughterhouse, GoatSlaughterhouse, PigSlaughterhouse, SheepAndLambSlaughterhouse","https://transparentfarms.org.uk/images/animals/slaughterhouse.png","1","","2018-01-01T00:00:00.000000Z","2024-05-01T00:00:00.000000Z"
"265","8301-gages-farm-ltd","A cow, bull, calf, goat, other mammal, pig, sheep, lamb and rabbit slaughterhouse in Devon","50.508622","-3.764603","Coordinates","Ashburton, United Kingdom","Devon","England","Gages Farm Ltd","Gages Farm Ltd","CowSlaughterhouse, GoatSlaughterhouse, OtherMammalSlaughterhouse, PigSlaughterhouse, SheepAndLambSlaughterhouse, WildRabbitSlaughterhouse","https://transparentfarms.org.uk/images/animals/slaughterhouse.png","1","","2018-01-01T00:00:00.000000Z","2024-05-01T00:00:00.000000Z"
"582","ep3939qv-campney-grange-farm","An intensive poultry farm in Lincolnshire","53.188898","-0.260981","Coordinates","Campney Grange Farm Poultry Unit, Campney Lane, Bucknall, Lincolnshire, LN10 5DX, United Kingdom","Lincolnshire","England","Moy Park Limited","Campney Grange Farm Poultry Unit","IntensivePoultryFarm","https://transparentfarms.org.uk/images/animals/poultry.png","1","","2020-10-01T00:00:00.000000Z","2023-10-01T00:00:00.000000Z"
"149","4562-ahmed-jeewa-sons","A poultry slaughterhouse in West Midlands","52.576287","-1.990272","Address","132 Wednesbury Road, Walsall, WS1 4JJ, United Kingdom","West Midlands","England","Ahmed Jeewa & Sons","Ahmed Jeewa & Sons","PoultrySlaughterhouse","https://transparentfarms.org.uk/images/animals/slaughterhouse.png","1","","2018-01-01T00:00:00.000000Z","2024-05-01T00:00:00.000000Z"
"108","4152-beesons-limited","A cow, bull, calf, sheep and lamb slaughterhouse in Cheshire East","53.10033","-2.403625","Address","Bradeley Abbattoir, Bradeley Hall Road, Haslington, Crewe, CW1 5QF, United Kingdom","Cheshire East","England","Beesons Limited","Beesons Limited","CowSlaughterhouse, SheepAndLambSlaughterhouse","https://transparentfarms.org.uk/images/animals/slaughterhouse.png","1","","2018-01-01T00:00:00.000000Z","2024-05-01T00:00:00.000000Z"
"651","fp3933ut-blenheim-farm-poultry-unit","An intensive poultry farm in Lincolnshire","53.455099","-0.664647","Coordinates","Blenheim Farm, Poultry Unit, Gainsborough Road, Northorpe, Lincolnshire, DN21 4AR, United Kingdom","Lincolnshire","England","Hook 2 Sisters Limited","Blenheim Farm, Poultry Unit","IntensivePoultryFarm","https://transparentfarms.org.uk/images/animals/poultry.png","1","","2020-10-01T00:00:00.000000Z","2023-10-01T00:00:00.000000Z"
"733","hp3333uq-bourne-farm-piggery","An intensive pig and intensive sow pig farm in Dorset","50.772916","-2.382953","Coordinates","Bourne Farm Piggery, Bourne Farm, Bourne Park, Piddlehinton, Dorchester, Dorset, DT2 7TU, United Kingdom","Dorset","England","Allen (hanford) Limited","Bourne Farm Piggery, Bourne Farm","IntensivePigFarm, IntensiveSowPigFarm","https://transparentfarms.org.uk/images/animals/pig.png","1","","2020-10-01T00:00:00.000000Z","2023-10-01T00:00:00.000000Z"
"268","8354-c-and-s-meats-ltd","A cow, bull, calf, goat, other mammal, pig, sheep and lamb slaughterhouse in Dorset","50.883296","-2.513032","Address","White House Lane, Holnest, Sherbourne, DT9 6HX, United Kingdom","Dorset","England","C and S Meats Limited","C and S Meats Limited","CowSlaughterhouse, GoatSlaughterhouse, OtherMammalSlaughterhouse, PigSlaughterhouse, SheepAndLambSlaughterhouse","https://transparentfarms.org.uk/images/animals/slaughterhouse.png","1","","2018-01-01T00:00:00.000000Z","2024-05-01T00:00:00.000000Z"
"1075","pp3636cb-worden-farm-poultry-unit","An intensive poultry farm in Devon","50.882268","-4.305064","Coordinates","Worden Farm, Poultry Unit, Milton Damerel, Devon, EX22 7NT, United Kingdom","Devon","England","Oaklands Farm Eggs Limited","Worden Farm, Poultry Unit","IntensivePoultryFarm","https://transparentfarms.org.uk/images/animals/poultry.png","1","","2020-10-01T00:00:00.000000Z","2023-10-01T00:00:00.000000Z"
"261","8241-t-h-lobb-limited","A cow, bull, calf, goat, other mammal, pig, sheep and lamb slaughterhouse in Cornwall","50.466338","-4.798758","Coordinates","Penvercoe Farm, Ruthern Bridge, Withiel, Bodmin, PL30 5LY, United Kingdom","Cornwall","England","T & H Lobb Limited","T & H Lobb Limited","CowSlaughterhouse, GoatSlaughterhouse, OtherMammalSlaughterhouse, PigSlaughterhouse, SheepAndLambSlaughterhouse","https://transparentfarms.org.uk/images/animals/slaughterhouse.png","1","","2018-01-01T00:00:00.000000Z","2024-05-01T00:00:00.000000Z"
"405","cp3036wd-frostenden-farm-and-wangford-farm","An intensive poultry farm in Suffolk","52.366473","1.655047","Coordinates","Frostenden Farm, And Wangford Farm, Frostenden Corner, Frostenden, Beccles, Suffolk, NR34 7JA, United Kingdom","Suffolk","England","Hook 2 Sisters Limited","Frostenden Farm, And Wangford Farm","IntensivePoultryFarm","https://transparentfarms.org.uk/images/animals/poultry.png","1","","2020-10-01T00:00:00.000000Z","2023-10-01T00:00:00.000000Z"
"111","4182-janan-meat-limited","A sheep and lamb slaughterhouse in West Midlands","52.498172","-2.169995","Address","Kingswinford, United Kingdom","West Midlands","England","ABP Kingswinford","ABP Kingswinford","SheepAndLambSlaughterhouse","https://transparentfarms.org.uk/images/animals/slaughterhouse.png","1","","2018-01-01T00:00:00.000000Z","2024-05-01T00:00:00.000000Z"
"232","7182-david-t-havard","A cow, bull, calf, pig, sheep and lamb slaughterhouse in Wales","51.560776","-3.243758","Coordinates","The Abattoir, Blackbrook Road, Caerphilly, CF83 1NF, United Kingdom","Wales","","Andrew David Havard","Andrew David Havard","CowSlaughterhouse, PigSlaughterhouse, SheepAndLambSlaughterhouse","https://transparentfarms.org.uk/images/animals/slaughterhouse.png","1","","2018-01-01T00:00:00.000000Z","2024-05-01T00:00:00.000000Z"
"1280","tp3632qf-bluebell-farm-banham","An intensive poultry farm in Norfolk","52.828376","1.405038","Coordinates","Bluebell Farm (banham), Bacton Road, North Walsham, Norfolk, NR28 0RA, United Kingdom","Norfolk","England","Banham Poultry (2018) Limited","Bluebell Farm (banham), Bluebell Farm (banham)","IntensivePoultryFarm","https://transparentfarms.org.uk/images/animals/poultry.png","1","","2020-10-01T00:00:00.000000Z","2023-10-01T00:00:00.000000Z"
"1079","pp3736qw-kates-bridge-farm","An intensive poultry farm in Lincolnshire","52.72275","-0.359557","Coordinates","Kate's Bridge Farm, Bourne Road, Baston, Cambridgeshire, PE6 9NT, United Kingdom","Lincolnshire","England","Banham Poultry (2018) Limited","Kate's Bridge Farm","IntensivePoultryFarm","https://transparentfarms.org.uk/images/animals/poultry.png","1","","2020-10-01T00:00:00.000000Z","2023-10-01T00:00:00.000000Z"
"165","5008-shazan-foods-limited","A poultry slaughterhouse in Suffolk","52.319609","1.145789","Coordinates","Magdalen Street, Eye, IP23 7AJ, United Kingdom","Suffolk","England","Shazan Foods Limited","Shazan Foods Limited","PoultrySlaughterhouse","https://transparentfarms.org.uk/images/animals/slaughterhouse.png","1","","2018-01-01T00:00:00.000000Z","2024-05-01T00:00:00.000000Z"
"78","2569-severn-valley-lamb","A cow, bull, calf, goat, sheep and lamb slaughterhouse in Staffordshire","52.639573","-2.01198","Address","Newtown Abattoir, Stafford Road, Newtown, Great Wyrley, WS6 6AY, United Kingdom","Staffordshire","England","Severn Valley Lamb Limited","Severn Valley Lamb Limited","CowSlaughterhouse, GoatSlaughterhouse, SheepAndLambSlaughterhouse","https://transparentfarms.org.uk/images/animals/slaughterhouse.png","1","","2018-01-01T00:00:00.000000Z","2024-05-01T00:00:00.000000Z"
"489","dp3333ur-bridge-farm-poultry-unit","An intensive poultry farm in Norfolk","52.472134","0.837925","Coordinates","Bridge Farm, Poultry Unit, Illington Road, Wretham, Norfolk, IP24 1RN, United Kingdom","Norfolk","England","Hook 2 Sisters Limited","Bridge Farm, Poultry Unit","IntensivePoultryFarm","https://transparentfarms.org.uk/images/animals/poultry.png","1","","2020-10-01T00:00:00.000000Z","2023-10-01T00:00:00.000000Z"
"1584","zp3232yw-stickney-poultry-farm","An intensive poultry farm in Lincolnshire","53.09235","0.017122","Coordinates","Stickney Poultry Farm, Midville Lane, Stickney, Boston, Lincolnshire, PE22 8DN, United Kingdom","Lincolnshire","England","Hook 2 Sisters Limited","Stickney Poultry Farm","IntensivePoultryFarm","https://transparentfarms.org.uk/images/animals/poultry.png","1","","2020-10-01T00:00:00.000000Z","2023-10-01T00:00:00.000000Z"
"6814","r-g-lampshire-BN13","A dairy farm in West Sussex","50.836703","-0.453963","Address","North Down Farm, Patching, Worthing, West Sussex, BN13 3UQ, United Kingdom","West Sussex","England","R G Lampshire","North Down Farm","DairyFarm","https://transparentfarms.org.uk/images/animals/cow.png","1","","2018-01-01T00:00:00.000000Z","2024-05-01T00:00:00.000000Z"
"224","7103-david-thomas-james-thomas-stephen-thomas-simeon-thomas-ta-d-j-thomas","A cow, bull, calf, goat, pig, sheep and lamb slaughterhouse in Wrexham Principal Area","53.009795","-3.056677","Coordinates","Beech Avenue, Rhos, Wrexham, LL14 1AF, United Kingdom","Wrexham Principal Area","Wales","David Thomas James Thomas Stephen Thomas & Simeon Thomas (T/A D & J Thomas)","David Thomas James Thomas Stephen Thomas & Simeon Thomas (T/A D & J Thomas)","CowSlaughterhouse, GoatSlaughterhouse, PigSlaughterhouse, SheepAndLambSlaughterhouse","https://transparentfarms.org.uk/images/animals/slaughterhouse.png","1","","2018-01-01T00:00:00.000000Z","2024-05-01T00:00:00.000000Z"
"107","4140-g-g-b-hewitt-ltd","A cow, bull, calf, goat, pig, sheep and lamb slaughterhouse in Cheshire West and Chester","53.142827","-2.719703","Address","The Abattoir, Chruch Lane, Huxley, Chester, CH3 9BH, United Kingdom","Cheshire West and Chester","England","G & G B Hewitt Ltd","G & G B Hewitt Ltd","CowSlaughterhouse, GoatSlaughterhouse, PigSlaughterhouse, SheepAndLambSlaughterhouse","https://transparentfarms.org.uk/images/animals/slaughterhouse.png","1","","2018-01-01T00:00:00.000000Z","2024-05-01T00:00:00.000000Z"
"161","4847-halal-services-company-ltd","A cow, bull, calf, goat, sheep and lamb slaughterhouse in Lancashire","54.04243","-2.780774","Address","The Abattoir, Wyresdale Road, Lancaster, LA1 3JQ, United Kingdom","Lancashire","England","Halal Services Company Ltd","Halal Services Company Ltd","CowSlaughterhouse, GoatSlaughterhouse, SheepAndLambSlaughterhouse","https://transparentfarms.org.uk/images/animals/slaughterhouse.png","1","","2018-01-01T00:00:00.000000Z","2024-05-01T00:00:00.000000Z"
"523","dp3907bw-black-barn-farm","An intensive pig farm in Oxfordshire","51.571437","-1.096929","Coordinates","Black Barn Farm, Ipsden, Wallingford, Oxon, OX10 6AE, United Kingdom","Oxfordshire","England","Allen; Allen; Allen; Allen; Allen; Strainge; Allen; Allen; Hawson; Spa","Black Barn Farm","IntensivePigFarm","https://transparentfarms.org.uk/images/animals/pig.png","1","","2020-10-01T00:00:00.000000Z","2023-10-01T00:00:00.000000Z"
"17","1516-james-chapman-butchers-ltd-ta-shotts-abattoir","A cow, bull, calf, goat, pig, sheep and lamb slaughterhouse in North Lanarkshire","55.823882","-3.806396","Address","Shotts, United Kingdom","North Lanarkshire","Scotland","James Chapman (Butchers) Ltd T/A  Shotts Abattoir","James Chapman (Butchers) Ltd T/A  Shotts Abattoir","CowSlaughterhouse, GoatSlaughterhouse, PigSlaughterhouse, SheepAndLambSlaughterhouse","https://transparentfarms.org.uk/images/animals/slaughterhouse.png","","","2018-01-01T00:00:00.000000Z","2022-04-01T00:00:00.000000Z"
"304","ap3300ps-broadley-copse-farm","An intensive pig farm in West Sussex","50.872887","-0.846254","Coordinates","Broadley Copse Farm, Pig Unit, Downs Road, Funtington, Chichester, West Sussex, PO18 9BT, United Kingdom","West Sussex","England","Allen; Hawson; Allen; Strainge","Broadley Copse Farm, Pig Unit","IntensivePigFarm","https://transparentfarms.org.uk/images/animals/pig.png","1","","2020-10-01T00:00:00.000000Z","2023-10-01T00:00:00.000000Z"
"5","1103-neerock-limited-ta-woodhead-brothers","A cow, bull, calf, sheep and lamb slaughterhouse in Aberdeenshire","57.538932","-2.4623","Address","Turriff, United Kingdom","Aberdeenshire","Scotland","Neerock Limited (T/A Woodhead Brothers)","Neerock Limited (T/A Woodhead Brothers)","CowSlaughterhouse, SheepAndLambSlaughterhouse","https://transparentfarms.org.uk/images/animals/slaughterhouse.png","","","2018-01-01T00:00:00.000000Z","2022-04-01T00:00:00.000000Z"
"155","4765-kosher-poultry-limited","A poultry slaughterhouse in Greater Manchester","53.495255","-2.232988","Address","35 - 51 Collingham Street, Cheetham Hill, Manchester, M8 8RQ, United Kingdom","Greater Manchester","England","Kosher Poultry Limited","Kosher Poultry Limited","PoultrySlaughterhouse","https://transparentfarms.org.uk/images/animals/slaughterhouse.png","1","","2018-01-01T00:00:00.000000Z","2024-05-01T00:00:00.000000Z"
"793","jp3437cw-somerby-top-farm","An intensive pig farm in Lincolnshire","53.552174","-0.372786","Coordinates","Somerby Top Farm, Somerby Wold Lane, Somerby, Barnetby, South Humberside, DN38 6BN, United Kingdom","Lincolnshire","England","Elsham Linc Limited","Somerby Top Farm","IntensivePigFarm","https://transparentfarms.org.uk/images/animals/pig.png","1","","2020-10-01T00:00:00.000000Z","2023-10-01T00:00:00.000000Z"
"256","8201-f-drury-sons-limited","A cow, bull, calf, goat, horse, sheep and lamb slaughterhouse in Wiltshire","51.52388","-1.947111","Address","The Abattoir, Tockenham Corner, Tockenham, Swindon, SN4 7PF, United Kingdom","Wiltshire","England","F Drury & Sons Limited","F Drury & Sons Limited","CowSlaughterhouse, GoatSlaughterhouse, HorseSlaughterhouse, SheepAndLambSlaughterhouse","https://transparentfarms.org.uk/images/animals/slaughterhouse.png","1","","2018-01-01T00:00:00.000000Z","2024-05-01T00:00:00.000000Z"
"565","ep3733um-southwold-wilfreds-top-elsham-manor-1-2","An intensive pig and intensive sow pig farm in North Lincolnshire","53.61496","-0.429036","Coordinates","R J & A E Godfrey, Southwold, Wilfred's Top, Elsham Manor 1 & 2, Elsham Wolds, Brigg, South Humberside, DN20 0NU, United Kingdom","North Lincolnshire","England","Elsham Linc Limited","R J & A E Godfrey, Southwold, Wilfred's Top, Elsham Manor 1 & 2","IntensivePigFarm, IntensiveSowPigFarm","https://transparentfarms.org.uk/images/animals/pig.png","1","","2020-10-01T00:00:00.000000Z","2023-10-01T00:00:00.000000Z"
"37","2060-karro-food-limited-ta-malton-bacon-factory","A pig slaughterhouse in North Yorkshire","54.132227","-0.77111","Coordinates","Hugden Way, Norton Grove Industrial Estate, Malton, YO17 9HG, United Kingdom","North Yorkshire","England","Karro Food Limited (T/A Malton Bacon Factory)","Karro Food Limited (T/A Malton Bacon Factory)","PigSlaughterhouse","https://transparentfarms.org.uk/images/animals/slaughterhouse.png","1","","2018-01-01T00:00:00.000000Z","2024-05-01T00:00:00.000000Z"
"148","4559-taj-co","A poultry slaughterhouse in West Midlands","52.501938","-1.918598","Address","100 Hamstead Road, Handsworth, Birmingham, B19 1DG, United Kingdom","West Midlands","England","Taj & Co","Taj & Co","PoultrySlaughterhouse","https://transparentfarms.org.uk/images/animals/slaughterhouse.png","1","","2018-01-01T00:00:00.000000Z","2024-05-01T00:00:00.000000Z"
"94","4014-freemans-of-newent-limited","A poultry slaughterhouse in Herefordshire","52.068778","-2.735206","Address","Grandstand Road, Hereford, HR4 9PB, United Kingdom","Herefordshire","England","Freemans of Newent Limited","Freemans of Newent Limited","PoultrySlaughterhouse","https://transparentfarms.org.uk/images/animals/slaughterhouse.png","1","","2018-01-01T00:00:00.000000Z","2024-05-01T00:00:00.000000Z"
"81","2653-iqbal-poultry","A poultry slaughterhouse in South Yorkshire","53.613479","-0.950006","Address","Coulman Street, Thorne, Doncaster, DN8 5JT, United Kingdom","South Yorkshire","England","Iqbal Poultry","Iqbal Poultry","PoultrySlaughterhouse","https://transparentfarms.org.uk/images/animals/slaughterhouse.png","1","","2018-01-01T00:00:00.000000Z","2024-05-01T00:00:00.000000Z"
"1627","zp3932qq-skeyton-poultry-unit","An intensive poultry farm in Norfolk","52.801111","1.354969","Coordinates","Skeyton Poultry Unit, Skeyton Road, North Walsham, Norfolk, NR28 0LU, United Kingdom","Norfolk","England","Banham Poultry (2018) Limited","Skeyton Poultry Unit","IntensivePoultryFarm","https://transparentfarms.org.uk/images/animals/poultry.png","1","","2020-10-01T00:00:00.000000Z","2023-10-01T00:00:00.000000Z"
"101","4090-f-a-gill-limited","A pig slaughterhouse in West Midlands","52.566826","-2.113405","Address","Parkfields, Parkfield Road, Wolverhampton, WV4 6EH, United Kingdom","West Midlands","England","F A Gill Limited","F A Gill Limited","PigSlaughterhouse","https://transparentfarms.org.uk/images/animals/slaughterhouse.png","1","","2018-01-01T00:00:00.000000Z","2024-05-01T00:00:00.000000Z"
"128","4327-joseph-morris-butchers-ltd","A cow, bull, calf, goat, pig, sheep and lamb slaughterhouse in Leicestershire","52.431833","-1.112926","Coordinates","Walcote Road, South Kilworth, Lutterworth, LE17 6EG, United Kingdom","Leicestershire","England","Joseph Morris Butchers Limited","Joseph Morris Butchers Limited","CowSlaughterhouse, GoatSlaughterhouse, PigSlaughterhouse, SheepAndLambSlaughterhouse","https://transparentfarms.org.uk/images/animals/slaughterhouse.png","1","","2018-01-01T00:00:00.000000Z","2024-05-01T00:00:00.000000Z"
"1530","yp3431zr-wimpstone-fields-poultry-farm","An intensive poultry farm in Warwickshire","52.121651","-1.684476","Coordinates","Wimpstone Fields Farm, Wimpstone Fields Poultry Farm, Wimpstone, Whitchurch, Warwickshire, CV37 8NN, United Kingdom","Warwickshire","England","Mr Jonathan Hay","Wimpstone Fields Farm, Wimpstone Fields Poultry Farm","IntensivePoultryFarm","https://transparentfarms.org.uk/images/animals/poultry.png","1","","2020-10-01T00:00:00.000000Z","2023-10-01T00:00:00.000000Z"
"9453","ta-l-j-t-g-goaman-sons-EX39","A dairy farm in Devon","50.972459","-4.434742","Address","Seckington Dairies, Hartland, Bideford, Null, North Devon, EX39 5SG, United Kingdom","Devon","England","L J T G Goaman & Sons","Seckington Dairies","DairyFarm","https://transparentfarms.org.uk/images/animals/cow.png","1","","2018-01-01T00:00:00.000000Z","2024-05-01T00:00:00.000000Z"
"655","fp3939uy-landshire-poultry-unit","An intensive poultry farm in Dorset","50.980406","-2.351036","Coordinates","Landshire Poultry Unit, Landshire Lane, Henstridge, Somerset, BA8 0TN, United Kingdom","Dorset","England","M.b. Crocker Limited","Landshire Poultry Unit","IntensivePoultryFarm","https://transparentfarms.org.uk/images/animals/poultry.png","1","","2020-10-01T00:00:00.000000Z","2023-10-01T00:00:00.000000Z"
"1215","sp3537rr-the-wood-farm-poultry-unit","An intensive poultry farm in Shropshire","52.428298","-2.604972","Coordinates","The Wood Farm, Poultry Unit, Wheathill, Burwarton, Bridgnorth, Shropshire, WV16 6QT, United Kingdom","Shropshire","England","I & J Preece & Son Limited","The Wood Farm, Poultry Unit","IntensivePoultryFarm","https://transparentfarms.org.uk/images/animals/poultry.png","1","","2020-10-01T00:00:00.000000Z","2023-10-01T00:00:00.000000Z"
"75","2501-a-j-leese-turkeys-ltd","A poultry slaughterhouse in Staffordshire","52.95172","-1.954748","Coordinates","Goldhurst Farm, Goldhurst, Hollington, Stoke-on-Trent, ST10 4HY, United Kingdom","Staffordshire","England","A. J. Leese Turkeys Ltd","A. J. Leese Turkeys Ltd","PoultrySlaughterhouse","https://transparentfarms.org.uk/images/animals/slaughterhouse.png","1","","2018-01-01T00:00:00.000000Z","2024-05-01T00:00:00.000000Z"
"86","2750-cranswick-country-foods-eye","A poultry slaughterhouse in Suffolk","52.329677","1.125011","Coordinates","Cranswick House, Oaksmere Business Park, Eye Industrial Estate, Yaxley, IP23 8BW, United Kingdom","Suffolk","England","Cranswick Country Foods Eye","Cranswick Country Foods Eye","PoultrySlaughterhouse","https://transparentfarms.org.uk/images/animals/slaughterhouse.png","1","","2019-12-01T00:00:00.000000Z","2024-05-01T00:00:00.000000Z"
"1056","pp3236rk-red-hall-farm","An intensive poultry farm in Cheshire East","53.121604","-2.479115","Coordinates","Red Hall Farm, Middlewich Road, Leighton, Cheshire, CW1 4QU, United Kingdom","Cheshire East","England","Red Hall Farming Limited","Red Hall Farm","IntensivePoultryFarm","https://transparentfarms.org.uk/images/animals/poultry.png","1","","2020-10-01T00:00:00.000000Z","2023-10-01T00:00:00.000000Z"
"154","4707-wootton-organic-wholesale-ltd","A goat, other mammal, pig, poultry, sheep, lamb and wild bird slaughterhouse in Staffordshire","53.006862","-1.892433","Coordinates","Wootton Estate, Ramshorn Road, Farley, Oakamoor, ST10 3BZ, United Kingdom","Staffordshire","England","Wootton Organic Wholesale Ltd.","Wootton Organic Wholesale Ltd.","GoatSlaughterhouse, OtherMammalSlaughterhouse, PigSlaughterhouse, PoultrySlaughterhouse, SheepAndLambSlaughterhouse, WildBirdSlaughterhouse","https://transparentfarms.org.uk/images/animals/slaughterhouse.png","1","","2018-01-01T00:00:00.000000Z","2024-05-01T00:00:00.000000Z"
"247","8113-h-r-jasper-and-son-ltd","A goat, sheep and lamb slaughterhouse in Cornwall","50.6102","-4.419971","Coordinates","Botathan Abattoir, South Petherwin, Launceston, PL15 7JL, United Kingdom","Cornwall","England","Dunbia Jaspers","Dunbia Jaspers","GoatSlaughterhouse, SheepAndLambSlaughterhouse","https://transparentfarms.org.uk/images/animals/slaughterhouse.png","1","","2018-01-01T00:00:00.000000Z","2024-05-01T00:00:00.000000Z"
"54","2172-foyle-gloucester","A cow, bull, calf, sheep and lamb slaughterhouse in Gloucestershire","51.825747","-2.510608","Coordinates","Forest Vale Industrial Estate, Forest Vale Road, Cinderford, GL14 2PH, United Kingdom","Gloucestershire","England","Foyle Gloucester","Foyle Gloucester","CowSlaughterhouse, SheepAndLambSlaughterhouse","https://transparentfarms.org.uk/images/animals/slaughterhouse.png","1","","2018-01-01T00:00:00.000000Z","2024-05-01T00:00:00.000000Z"
"1407","vp3836uu-hollywood-farm-poultry-unit","An intensive poultry farm in North Lincolnshire","53.530354","-0.714488","Coordinates","Hollywood Farm, Poultry Unit, East Butterwick Road, Messingham, Scunthorpe, Lincolnshire, DN17 3AU, United Kingdom","North Lincolnshire","England","P.d. Hook (breeders) Limited","Hollywood Farm, Poultry Unit","IntensivePoultryFarm","https://transparentfarms.org.uk/images/animals/poultry.png","1","","2020-10-01T00:00:00.000000Z","2023-10-01T00:00:00.000000Z"
"573","ep3833ux-pity-me-poultry-unit","An intensive poultry farm in County Durham","54.806293","-1.593745","Coordinates","Pity Me, Poultry Unit, Potterhouse Lane, County Durham, DH1 5RL, United Kingdom","County Durham","England","Hook 2 Sisters Limited","Pity Me, Poultry Unit","IntensivePoultryFarm","https://transparentfarms.org.uk/images/animals/poultry.png","1","","2020-10-01T00:00:00.000000Z","2023-10-01T00:00:00.000000Z"
"175","5091-dalehead-foods-spalding","A pig slaughterhouse in Lincolnshire","52.795487","-0.12612","Coordinates","Fulney Lane North, Spalding, PE12 6EP, United Kingdom","Lincolnshire","England","Pilgrims Pride Ltd T/A Dalehead Foods Spalding","Pilgrims Pride Ltd T/A Dalehead Foods Spalding","PigSlaughterhouse","https://transparentfarms.org.uk/images/animals/slaughterhouse.png","1","","2018-01-01T00:00:00.000000Z","2024-05-01T00:00:00.000000Z"
"704","gp3836ng-littlehales-manor-poultry-farm","An intensive poultry farm in Telford and Wrekin","52.74547","-2.372161","Coordinates","Littlehales Manor Poultry Farm, Littleshall, Newport, Shropshire, TF10 9AS, United Kingdom","Telford and Wrekin","England","H Timmis (farms) Limited","Littlehales Manor Poultry Farm, Littlehales Manor Poultry Farm","IntensivePoultryFarm","https://transparentfarms.org.uk/images/animals/poultry.png","1","","2020-10-01T00:00:00.000000Z","2023-10-01T00:00:00.000000Z"
"225","7105-cyril-jones-and-stephen-jones-ta-jones-brothers","A cow, bull, calf, goat, pig, sheep and lamb slaughterhouse in Wrexham Principal Area","53.060547","-3.012237","Coordinates","Stansty Lodge, Mold Road, Wrexham, LL11 4YF, United Kingdom","Wrexham Principal Area","Wales","Cyril Jones and Stephen Jones T/A Jones Brothers","Cyril Jones and Stephen Jones T/A Jones Brothers","CowSlaughterhouse, GoatSlaughterhouse, PigSlaughterhouse, SheepAndLambSlaughterhouse","https://transparentfarms.org.uk/images/animals/slaughterhouse.png","","","2018-01-01T00:00:00.000000Z","2024-04-01T00:00:00.000000Z"
"965","mp3830kj-southgrove-farm","An intensive poultry farm in Wiltshire","51.321047","-1.674213","Coordinates","Burbage, Southgrove Farm, Marlborough, Wiltshire, SN8 3RX, United Kingdom","Wiltshire","England","Oaklands Farm Eggs Limited","Burbage, Southgrove Farm","IntensivePoultryFarm","https://transparentfarms.org.uk/images/animals/poultry.png","1","","2020-10-01T00:00:00.000000Z","2023-10-01T00:00:00.000000Z"
"1598","zp3432qz-woods-end-farm","An intensive poultry farm in Norfolk","52.714264","1.180633","Coordinates","Woods End Farm, Upgate, Swannington, Norwich, NR9 5AH, United Kingdom","Norfolk","England","Banham Poultry (2018) Limited","Woods End Farm","IntensivePoultryFarm","https://transparentfarms.org.uk/images/animals/poultry.png","1","","2020-10-01T00:00:00.000000Z","2023-10-01T00:00:00.000000Z"
"617","fp3409lq-woodlane-farm-duck-unit","An intensive poultry farm in Norfolk","52.546746","0.967698","Coordinates","Wood Lane Farm Duck Unit, Wood Lane Farm Poultry Unit, Wood Lane, Little Ellingham, Attleborough, Norfolk, NR17 1JZ, United Kingdom","Norfolk","England","Banham Poultry (2018) Limited","Wood Lane Farm Duck Unit, Wood Lane Farm Poultry Unit","IntensivePoultryFarm","https://transparentfarms.org.uk/images/animals/poultry.png","1","","2021-01-01T00:00:00.000000Z","2023-10-01T00:00:00.000000Z"
"3700","mosley-hall-farming-SK23","A dairy farm in Derbyshire","53.334801","-1.987736","Address","Mosley Hall Farm, Whaley Bridge, High Peak, Derbyshire, SK23 7EW, United Kingdom","Derbyshire","England","Mosley Hall Farming","Mosley Hall Farm","DairyFarm","https://transparentfarms.org.uk/images/animals/cow.png","1","","2018-01-01T00:00:00.000000Z","2024-05-01T00:00:00.000000Z"
"941","mp3330ty-holgate-farm-poultry-unit","An intensive poultry farm in Norfolk","52.805407","1.412444","Coordinates","Holgate Farm, Poultry Unit, Holgate Road, White Horse Common, Norfolk, NR28 9LP, United Kingdom","Norfolk","England","Banham Poultry (2018) Limited","Holgate Farm, Poultry Unit","IntensivePoultryFarm","https://transparentfarms.org.uk/images/animals/poultry.png","1","","2020-10-01T00:00:00.000000Z","2023-10-01T00:00:00.000000Z"
"435","cp3433ud-galley-hill-farm-poultry-unit","An intensive poultry farm in Cambridgeshire","52.303022","-0.091273","Coordinates","Galley Hill Farm Poultry Unit, Cambridge Road, Hemingford Grey, Cambridgeshire, PE28 9HL, United Kingdom","Cambridgeshire","England","Hook 2 Sisters Limited","Galley Hill Farm Poultry Unit","IntensivePoultryFarm","https://transparentfarms.org.uk/images/animals/poultry.png","1","","2020-10-01T00:00:00.000000Z","2023-10-01T00:00:00.000000Z"
"649","fp3932ql-kates-hole-site","An intensive poultry farm in Norfolk","52.496981","1.232855","Coordinates","Kates Hole Farm, Kates Hole Site, Picton Road, Tharston, Long Stratton, Norfolk, NR15 2YD, United Kingdom","Norfolk","England","Banham Poultry (2018) Limited","Kates Hole Farm, Kates Hole Site","IntensivePoultryFarm","https://transparentfarms.org.uk/images/animals/poultry.png","1","","2020-10-01T00:00:00.000000Z","2023-10-01T00:00:00.000000Z"
"752","hp3732qb-great-friars-poultry-farm","An intensive poultry farm in Norfolk","52.660762","0.642321","Coordinates","Gt Friars Farm, Great Friars Poultry Farm, Swaffham, Norfolk, PE37 7QA, United Kingdom","Norfolk","England","Banham Poultry (2018) Limited","Gt Friars Farm, Great Friars Poultry Farm","IntensivePoultryFarm","https://transparentfarms.org.uk/images/animals/poultry.png","1","","2020-10-01T00:00:00.000000Z","2023-10-01T00:00:00.000000Z"
"98","4071-dunbia-preston","A cow, bull, calf, goat, sheep and lamb slaughterhouse in Lancashire","53.720484","-2.660897","Address","The Abattoir, Church Road, Bamber Bridge, Preston, PR5 6AJ, United Kingdom","Lancashire","England","Dunbia Preston","Dunbia Preston","CowSlaughterhouse, GoatSlaughterhouse, SheepAndLambSlaughterhouse","https://transparentfarms.org.uk/images/animals/slaughterhouse.png","1","","2018-01-01T00:00:00.000000Z","2024-05-01T00:00:00.000000Z"
"618","fp3432qw-middle-farm-saw-pit-farm","An intensive poultry farm in Norfolk","52.471258","0.818133","Coordinates","Middle Farm, & Saw Pit Farm, Thetford Road, East Wretham, Norfolk, IP24 1RB, United Kingdom","Norfolk","England","Banham Poultry (2018) Limited","Middle Farm, & Saw Pit Farm","IntensivePoultryFarm","https://transparentfarms.org.uk/images/animals/poultry.png","1","","2020-10-01T00:00:00.000000Z","2023-10-01T00:00:00.000000Z"
"743","hp3532qy-cuttings-farm","An intensive poultry farm in Norfolk","52.463895","0.840192","Coordinates","Cuttings Farm, Larkshall, Thetford Road, East Wretham, IP24 1QZ, United Kingdom","Norfolk","England","Banham Poultry (2018) Limited","Cuttings Farm","IntensivePoultryFarm","https://transparentfarms.org.uk/images/animals/poultry.png","1","","2020-10-01T00:00:00.000000Z","2023-10-01T00:00:00.000000Z"
"11845","d-h-pritchard-HR6","A dairy farm in Herefordshire","52.24602","-2.746494","Address","Homelands Nordan Farm, Luston, Leominster, Herefordshire, HR6 0AJ, United Kingdom","Herefordshire","England","D H Pritchard","Homelands Nordan Farm","DairyFarm","https://transparentfarms.org.uk/images/animals/cow.png","","","2018-01-01T00:00:00.000000Z","2021-05-01T00:00:00.000000Z"
"303","ap3239us-allenford-farms","An intensive pig farm in Hampshire","50.956402","-1.871989","Coordinates","South Allenford Farm, Allenford Farms Pig Unit, Damerham, Fordingbridge, Hampshire, SP6 3JW, United Kingdom","Hampshire","England","Allenford Farms","South Allenford Farm, Allenford Farms Pig Unit","IntensivePigFarm","https://transparentfarms.org.uk/images/animals/pig.png","1","","2020-10-01T00:00:00.000000Z","2023-10-01T00:00:00.000000Z"
"146","4539-hashams-halal-poultry","A poultry slaughterhouse in West Midlands","52.470344","-1.852078","Address","74 Charles Road, Small Heath, Birmingham, B10 9EJ, United Kingdom","West Midlands","England","Hashams Halal Poultry","Hashams Halal Poultry","PoultrySlaughterhouse","https://transparentfarms.org.uk/images/animals/slaughterhouse.png","1","","2018-01-01T00:00:00.000000Z","2024-05-01T00:00:00.000000Z"
"99","4073-abp-ellesmere","A cow, bull, calf, sheep and lamb slaughterhouse in Shropshire","52.85373","-2.896439","Coordinates","The Abattoir, Hordley, Ellesmere, SY12 9BL, United Kingdom","Shropshire","England","Abp Ellesmere","Abp Ellesmere","CowSlaughterhouse, SheepAndLambSlaughterhouse","https://transparentfarms.org.uk/images/animals/slaughterhouse.png","1","","2018-07-01T00:00:00.000000Z","2024-05-01T00:00:00.000000Z"
"455","cp3732qd-silver-drift-farm","An intensive poultry farm in Norfolk","52.660812","0.644099","Coordinates","Silver Drift Farm, Great Friars Thornes, Swaffham, PE37 7QA, United Kingdom","Norfolk","England","Banham Poultry (2018) Limited","Silver Drift Farm","IntensivePoultryFarm","https://transparentfarms.org.uk/images/animals/poultry.png","1","","2020-10-01T00:00:00.000000Z","2023-10-01T00:00:00.000000Z"
"1603","zp3532cb-barley-brigg-farm","An intensive pig farm in Suffolk","52.314503","1.306564","Coordinates","Barley Brigg Farm, Laxfield Road, Stradbroke, Suffolk, IP21 5NQ, United Kingdom","Suffolk","England","Rattlerow Farms Limited","Barley Brigg Farm","IntensivePigFarm","https://transparentfarms.org.uk/images/animals/pig.png","1","","2020-10-01T00:00:00.000000Z","2023-10-01T00:00:00.000000Z"
"20","1541-ak-stoddart-ltd","A cow, bull, calf, sheep and lamb slaughterhouse in South Ayrshire Council","55.458564","-4.629179","Address","Heathfield Abattoir, Heathfield Road, Ayr, KA8 9ST, United Kingdom","South Ayrshire Council","Scotland","AK Stoddart Ltd","AK Stoddart Ltd","CowSlaughterhouse, SheepAndLambSlaughterhouse","https://transparentfarms.org.uk/images/animals/slaughterhouse.png","","","2018-01-01T00:00:00.000000Z","2022-04-01T00:00:00.000000Z"
"195","5388-kelly-turkey-farms-limited","A poultry slaughterhouse in Essex","51.688065","0.527789","Address","Little Claydons Farm, Old Southend Road, Howe Green, Chelmsford, CM2 7TB, United Kingdom","Essex","England","Kelly Turkey Farms Limited","Kelly Turkey Farms Limited","PoultrySlaughterhouse","https://transparentfarms.org.uk/images/animals/slaughterhouse.png","1","","2018-01-01T00:00:00.000000Z","2024-05-01T00:00:00.000000Z"
"1428","wp3239ek-thorngrove-poultry-farm","An intensive poultry farm in Worcestershire","52.237233","-2.261861","Coordinates","Thorngrove, Poultry Farm, Sinton Green, Hallow, Worcestershire, WR2 6NP, United Kingdom","Worcestershire","England","Hickton; Hickton","Thorngrove, Poultry Farm","IntensivePoultryFarm","https://transparentfarms.org.uk/images/animals/poultry.png","1","","2020-10-01T00:00:00.000000Z","2023-10-01T00:00:00.000000Z"
"89","2763-pickstock-foods-ltd","A goat, sheep and lamb slaughterhouse in Derbyshire","52.790274","-1.512327","Coordinates","The Abattoir, 2 Coal Lane, Hartshorne, DE11 7FN, United Kingdom","Derbyshire","England","Pickstock Foods Ltd","Pickstock Foods Ltd","GoatSlaughterhouse, SheepAndLambSlaughterhouse","https://transparentfarms.org.uk/images/animals/slaughterhouse.png","1","","2020-08-01T00:00:00.000000Z","2024-05-01T00:00:00.000000Z"
"4034","ms-g-j-g-winzer-sons-TQ7","A dairy farm in Devon","50.336691","-3.834225","Address","Lixton Farm, Loddiswell, Kingsbridge, Devon, TQ7 4EG, United Kingdom","Devon","England"," G J & G Winzer & Sons","Lixton Farm","DairyFarm","https://transparentfarms.org.uk/images/animals/cow.png","1","","2018-01-01T00:00:00.000000Z","2024-05-01T00:00:00.000000Z"
"6126","f-a-w-bakers-kingston-farms-ltd-TA18","A dairy farm in Somerset","50.901288","-2.765896","Address","Rushywood Farm, Hazelbury Plucknett, Crewkerne, Somerset, TA18 7RJ, United Kingdom","Somerset","England","F A W Bakers (kingston Farms Ltd)","Rushywood Farm","DairyFarm","https://transparentfarms.org.uk/images/animals/cow.png","1","","2018-01-01T00:00:00.000000Z","2024-05-01T00:00:00.000000Z"
"979","np3032qw-sandy-hill-poultry-unit","An intensive poultry farm in Norfolk","52.798816","1.403914","Coordinates","Sandy Hill Poultry Unit, Withergate Road, Worstead, North Walsham, Norfolk, NR28 9SF, United Kingdom","Norfolk","England","Banham Poultry (2018) Limited","Sandy Hill Poultry Unit","IntensivePoultryFarm","https://transparentfarms.org.uk/images/animals/poultry.png","1","","2020-10-01T00:00:00.000000Z","2023-10-01T00:00:00.000000Z"
"1322","up3209pn-methwold-airfield-poultry-farm","An intensive poultry farm in Norfolk","52.511826","0.535791","Coordinates","Methwold Airfield, Poultry Farm, Off Brandon Road, Methwold, Thetford, IP26 4RJ, United Kingdom","Norfolk","England","Annyalla Chicks (uk) Broiler Breeders Limited","Methwold Airfield, Poultry Farm","IntensivePoultryFarm","https://transparentfarms.org.uk/images/animals/poultry.png","1","","2020-10-01T00:00:00.000000Z","2023-10-01T00:00:00.000000Z"
"920","lp3931ml-middle-caves-farm","An intensive pig farm in North Yorkshire","54.472013","-1.675614","Coordinates","Middle Caves Farm, Melsonby, North Yorkshire, DL10 5NG, United Kingdom","North Yorkshire","England","Middle Caves Ltd","Middle Caves Farm","IntensivePigFarm","https://transparentfarms.org.uk/images/animals/pig.png","1","","2020-10-01T00:00:00.000000Z","2023-10-01T00:00:00.000000Z"
"6050","bubney-farms-ltd-SY13","A dairy farm in Shropshire","52.98202","-2.71097","Address","Bubney Farm, Grindley Brook, Whitchurch, Shropshire, SY13 4QH, United Kingdom","Shropshire","England","Bubney Farms Ltd","Bubney Farm","DairyFarm","https://transparentfarms.org.uk/images/animals/cow.png","1","","2018-01-01T00:00:00.000000Z","2024-05-01T00:00:00.000000Z"
"2061","p018507a-jmw-farms-riverside","An intensive pig farm in Armagh City, Banbridge and Craigavon","54.323097","-6.848794","Coordinates","Riverside Pig Unit, 52 Cortynan Road, Armagh, Co Armagh, BT60 4QZ, United Kingdom","Armagh City, Banbridge and Craigavon","Northern Ireland","JMW Farms Riverside","JMW Farms Riverside","IntensivePigFarm","https://transparentfarms.org.uk/images/animals/pig.png","1","","2021-01-01T00:00:00.000000Z","2021-01-01T00:00:00.000000Z"
"632","fp3604sp-green-lane-farm-poultry-unit","An intensive poultry farm in Nottinghamshire","52.967596","-0.84145","Coordinates","Green Lane Farm Poultry Unit, Mill Lane, Orston, Nottinghamshire, NG13 9NE, United Kingdom","Nottinghamshire","England","Moy Park Limited","Green Lane Farm Poultry Unit","IntensivePoultryFarm","https://transparentfarms.org.uk/images/animals/poultry.png","1","","2021-01-01T00:00:00.000000Z","2023-10-01T00:00:00.000000Z"
"1589","zp3332yr-stowgate-poultry-farm","An intensive poultry farm in Lincolnshire","52.954192","-0.240339","Coordinates","Stowgate Poultry Farm, Stowgate, Market Deeping, Peterborough, Cambridgeshire, PE6 8RW, United Kingdom","Lincolnshire","England","Hook 2 Sisters Limited","Stowgate Poultry Farm","IntensivePoultryFarm","https://transparentfarms.org.uk/images/animals/poultry.png","1","","2020-10-01T00:00:00.000000Z","2023-10-01T00:00:00.000000Z"
"142","4486-dunbia-sawley","A cow, bull, calf, sheep and lamb slaughterhouse in Lancashire","53.920076","-2.308413","Address","Castill Laithe Abattoir, Sawley, Clitheroe, BB7 4LH, United Kingdom","Lancashire","England","Dunbia Sawley","Dunbia Sawley","CowSlaughterhouse, SheepAndLambSlaughterhouse","https://transparentfarms.org.uk/images/animals/slaughterhouse.png","1","","2018-01-01T00:00:00.000000Z","2024-05-01T00:00:00.000000Z"
"258","8216-abp-yetminster","A goat, sheep and lamb slaughterhouse in Dorset","50.884841","-2.578469","Address","Chetnole Road, Yetminster, Sherborne, DT9 6HQ, United Kingdom","Dorset","England","ABP Yetminster","ABP Yetminster","GoatSlaughterhouse, SheepAndLambSlaughterhouse","https://transparentfarms.org.uk/images/animals/slaughterhouse.png","1","","2018-01-01T00:00:00.000000Z","2024-05-01T00:00:00.000000Z"
"6833","c-w-f-hughes-son-RH20","A dairy farm in West Sussex","50.915652","-0.565391","Address","Southview Farm, Bury, Pulborough, West Sussex, RH20 1NP, United Kingdom","West Sussex","England","C W F Hughes & Son","Southview Farm","DairyFarm","https://transparentfarms.org.uk/images/animals/cow.png","1","","2018-01-01T00:00:00.000000Z","2024-05-01T00:00:00.000000Z"
"129","4330-wh-tr-newton-ta-newton-brothers","A cow, bull, calf, goat, pig, sheep and lamb slaughterhouse in Cheshire East","53.100405","-2.443821","Address","Crewe, United Kingdom","Cheshire East","England","Wh & Tr Newton","Wh & Tr Newton","CowSlaughterhouse, GoatSlaughterhouse, PigSlaughterhouse, SheepAndLambSlaughterhouse","https://transparentfarms.org.uk/images/animals/slaughterhouse.png","1","","2018-01-01T00:00:00.000000Z","2024-05-01T00:00:00.000000Z"
"1354","up3936rl-cherry-tree-farm","An intensive pig farm in Norfolk","52.52095","0.883388","Coordinates","Cherry Tree Farm, Stow Bedon, Attleborough, Norfolk, NR17 1BY, United Kingdom","Norfolk","England","Wayland Farms Limited","Cherry Tree Farm","IntensivePigFarm","https://transparentfarms.org.uk/images/animals/pig.png","1","","2020-10-01T00:00:00.000000Z","2023-10-01T00:00:00.000000Z"
"996","np3237ml-hill-top-farm","An intensive pig farm in County Durham","54.540721","-1.771219","Coordinates","Hilltop Farm, Hill Top Pig Farm, Winston, County Durham, DL2 3RR, United Kingdom","County Durham","England","J & S Bainbridge","Hilltop Farm, Hill Top Pig Farm","IntensivePigFarm","https://transparentfarms.org.uk/images/animals/pig.png","1","","2020-10-01T00:00:00.000000Z","2023-10-01T00:00:00.000000Z"
"1229","sp3737ff-meadowland-poultry-farm","An intensive poultry farm in Shropshire","52.831581","-2.754852","Coordinates","Meadowland, Poultry Farm, Wem Road, Harmer Hill, Shrewsbury, SY4 3HE, United Kingdom","Shropshire","England","Meadowland Poultry Ltd","Meadowland, Poultry Farm","IntensivePoultryFarm","https://transparentfarms.org.uk/images/animals/poultry.png","1","","2020-10-01T00:00:00.000000Z","2023-10-01T00:00:00.000000Z"
"753","hp3732yt-wreningham-poultry-unit","An intensive poultry farm in Norfolk","52.55178","1.155433","Coordinates","Glebe Farm, Wreningham Poultry Unit, Wymondham Road, Wreningham, Norwich, Norfolk, NR16 1AY, United Kingdom","Norfolk","England","Hook 2 Sisters Limited","Glebe Farm, Wreningham Poultry Unit","IntensivePoultryFarm","https://transparentfarms.org.uk/images/animals/poultry.png","1","","2020-10-01T00:00:00.000000Z","2023-10-01T00:00:00.000000Z"
"415","cp3234fl-hooks-drove-poultry-farm","An intensive poultry farm in Cambridgeshire","52.516999","0.097089","Coordinates","Hooks Drove Poultry Farm, Hook Drove, Wimblington, Cambridgeshire, PE15 0QW, United Kingdom","Cambridgeshire","England","St. Lawrence Hall Farms Limited","Hooks Drove Poultry Farm","IntensivePoultryFarm","https://transparentfarms.org.uk/images/animals/poultry.png","1","","2020-10-01T00:00:00.000000Z","2023-10-01T00:00:00.000000Z"
"48","2141-abp-york","A cow, bull, calf, sheep and lamb slaughterhouse in York","53.961419","-1.008076","Coordinates","Murton Abattoir, Murton Lane, Murton, York, YO19 5GH, United Kingdom","York","England","Abp York","Abp York","CowSlaughterhouse, SheepAndLambSlaughterhouse","https://transparentfarms.org.uk/images/animals/slaughterhouse.png","1","","2018-01-01T00:00:00.000000Z","2024-05-01T00:00:00.000000Z"
"716","hp3130qt-redwood-farm","An intensive sow pig farm in Cambridgeshire","52.201021","-0.106478","Coordinates","Redwood Farm, Caxton Road, Great Gransden, Sandy, Bedfordshire, SG19 3BQ, United Kingdom","Cambridgeshire","England","B & S Farming Limited","Redwood Farm","IntensiveSowPigFarm","https://transparentfarms.org.uk/images/animals/pig.png","1","","2021-01-01T00:00:00.000000Z","2023-10-01T00:00:00.000000Z"
"4749","r-torrance-son-RM4","A dairy farm in Essex","51.65024","0.17884","Address","Albyns Farm, Stapleford Tawney, Romford, Essex, RM4 1RS, United Kingdom","Essex","England","R Torrance & Son","Albyns Farm","DairyFarm","https://transparentfarms.org.uk/images/animals/cow.png","1","","2018-01-01T00:00:00.000000Z","2024-05-01T00:00:00.000000Z"
"1442","wp3607sq-pimlico-poultry-farm","An intensive poultry farm in Northamptonshire","52.064966","-1.101159","Coordinates","Pimlico Farm, Pimlico Poultry Farm, Welsh Lane, Crowfield, Near Brackley, Northamptonshire, NN13 5TW, United Kingdom","Northamptonshire","England","Brackley Farms Limited","Pimlico Farm, Pimlico Poultry Farm","IntensivePoultryFarm","https://transparentfarms.org.uk/images/animals/poultry.png","1","","2021-01-01T00:00:00.000000Z","2023-10-01T00:00:00.000000Z"
"847","kp3333us-knoxbridgetolehurst-poultry","An intensive poultry farm in Kent","51.13933","0.560489","Coordinates","Knoxbridge Farm, Poultry Unit And Tolehurst Farm Poultry Unit - Ea/, Knoxbridge, Cranbrook, Kent, TN17 2BT, United Kingdom","Kent","England","Fridays Limited","Knoxbridge Farm, Poultry Unit And Tolehurst Farm Poultry Unit - Ea/","IntensivePoultryFarm","https://transparentfarms.org.uk/images/animals/poultry.png","1","","2020-10-01T00:00:00.000000Z","2023-10-01T00:00:00.000000Z"
"1044","pp3130uy-true-hill-farm-poultry-unit","An intensive poultry farm in Norfolk","52.541077","0.55562","Coordinates","True Hill Farm, Poultry Unit, Main Road, Brookville, Thetford, Norfolk, IP26 4RB, United Kingdom","Norfolk","England","Mr Robert Anderson, Mrs Rosamond Anderson And Mr Marcus Anderson","True Hill Farm, Poultry Unit, Poultry Unit","IntensivePoultryFarm","https://transparentfarms.org.uk/images/animals/poultry.png","1","","2020-10-01T00:00:00.000000Z","2023-10-01T00:00:00.000000Z"
"1336","up3533uv-monkcastle-pig-farm","An intensive pig and intensive sow pig farm in Cumbria","54.807748","-2.890816","Coordinates","Monkcastle Farm, Monkcastle Pig Farm, Monkcastle, Southwaite, Cumbria, CA4 0PZ, United Kingdom","Cumbria","England","Birchwood Farms Limited","Monkcastle Farm, Monkcastle Pig Farm","IntensivePigFarm, IntensiveSowPigFarm","https://transparentfarms.org.uk/images/animals/pig.png","1","","2020-10-01T00:00:00.000000Z","2023-10-01T00:00:00.000000Z"
"1644","ab3496hz-wern-heulog-poultry-unit","An intensive poultry farm in Powys","52.169306","-3.348286","Coordinates","Wernheulog, Llanfaredd, Builth Wells, Powys, LD2 3TE, United Kingdom","Powys","Wales","Keri Davies","Wern Heulog Poultry Unit","IntensivePoultryFarm","https://transparentfarms.org.uk/images/animals/poultry.png","1","","2020-01-01T00:00:00.000000Z","2021-06-01T00:00:00.000000Z"
"5583","robert-paterson-IP25","A dairy farm in Norfolk","52.633315","0.907914","Address","The Grange, Shipdham, Thetford, Norfolk, IP25 7NQ, United Kingdom","Norfolk","England","Robert Paterson","The Grange","DairyFarm","https://transparentfarms.org.uk/images/animals/cow.png","1","","2018-01-01T00:00:00.000000Z","2024-05-01T00:00:00.000000Z"
"403","cp3032qx-the-farthings","An intensive poultry farm in Norfolk","52.620378","0.95805","Coordinates","The Farthings, Shipdham Road, Reymerston, Norfolk, NR9 4QZ, United Kingdom","Norfolk","England","Banham Poultry (2018) Limited","The Farthings","IntensivePoultryFarm","https://transparentfarms.org.uk/images/animals/poultry.png","1","","2020-10-01T00:00:00.000000Z","2023-10-01T00:00:00.000000Z"
"9985","the-gorgeous-goat-companythe-cottenden-herd-TN5","A dairy farm in East Sussex","51.03172","0.384839","Address","Brambley Cottage, Cottenden Farm, Stonegate, East Sussex, TN5 7DT, United Kingdom","East Sussex","England","The Gorgeous Goat Company/the Cottenden Herd","The Gorgeous Goat Company/the Cottenden Herd","DairyFarm","https://transparentfarms.org.uk/images/animals/cow.png","1","","2022-07-01T00:00:00.000000Z","2024-05-01T00:00:00.000000Z"
"837","kp3132yp-cowbit-farm-poultry-unit","An intensive poultry farm in Lincolnshire","52.750455","-0.123786","Coordinates","Cowbit Farm, Poultry Unit, Mill Drove, Cowbit, Spalding, Lincolnshire, PE12 6AS, United Kingdom","Lincolnshire","England","Hook 2 Sisters Limited","Cowbit Farm, Poultry Unit","IntensivePoultryFarm","https://transparentfarms.org.uk/images/animals/poultry.png","1","","2020-10-01T00:00:00.000000Z","2023-10-01T00:00:00.000000Z"
"119","4256-hp-westwood-limited","A cow, bull, calf, goat, other mammal, pig, sheep and lamb slaughterhouse in Staffordshire","52.686777","-1.939641","Address","15 Eastgate Street, Chase Terrace, Burntwood, WS7 1JL, United Kingdom","Staffordshire","England","H.P. Westwood Limited","H.P. Westwood Limited","CowSlaughterhouse, GoatSlaughterhouse, OtherMammalSlaughterhouse, PigSlaughterhouse, SheepAndLambSlaughterhouse","https://transparentfarms.org.uk/images/animals/slaughterhouse.png","1","","2018-01-01T00:00:00.000000Z","2024-05-01T00:00:00.000000Z"
"997","np3239ue-cherry-rock-farm-poultry-unit","An intensive poultry farm in Gloucestershire","51.934977","-2.317558","Coordinates","Cherry Rock Farm Poultry Unit, Blackwells End, Hartpury, GL19 3DB, United Kingdom","Gloucestershire","England","Mr G & Mrs S Phelps","Cherry Rock Farm Poultry Unit","IntensivePoultryFarm","https://transparentfarms.org.uk/images/animals/poultry.png","1","","2020-10-01T00:00:00.000000Z","2023-10-01T00:00:00.000000Z"
"5700","r-j-b-j-kingston-sons-GL12","A dairy farm in Gloucestershire","51.617997","-2.301343","Address","Tresham Farm, Tresham, Wotton-under-edge, Gloucestershire, GL12 7RW, United Kingdom","Gloucestershire","England","R J & B J Kingston & Sons","Tresham Farm","DairyFarm","https://transparentfarms.org.uk/images/animals/cow.png","1","","2018-01-01T00:00:00.000000Z","2024-05-01T00:00:00.000000Z"
"1162","rp3332yf-holbeach-st-johns-poultry-farm","An intensive poultry farm in Lincolnshire","52.734419","-0.00626","Coordinates","Holbeach St Johns, Holbeach St Johns Poultry Farm, New River Gate, Holbeach Drove, Spalding, Lincolnshire, PE12 0RY, United Kingdom","Lincolnshire","England","Hook 2 Sisters Limited","Holbeach St Johns, Holbeach St Johns Poultry Farm","IntensivePoultryFarm","https://transparentfarms.org.uk/images/animals/poultry.png","1","","2020-10-01T00:00:00.000000Z","2023-10-01T00:00:00.000000Z"
"45","2108-blackbrow-abattoir-ltd","A cow, bull, calf, goat, sheep and lamb slaughterhouse in Cumbria","54.866963","-3.069485","Address","Black Brow Abattoir, Aikton, Wigton, CA7 0JT, United Kingdom","Cumbria","England","Black Brow Abattoir Limited","Black Brow Abattoir Limited","CowSlaughterhouse, GoatSlaughterhouse, SheepAndLambSlaughterhouse","https://transparentfarms.org.uk/images/animals/slaughterhouse.png","1","","2018-01-01T00:00:00.000000Z","2024-05-01T00:00:00.000000Z"
"214","7015-dunbia-uk","A cow, bull, calf, goat, sheep and lamb slaughterhouse in Carmarthenshire","52.07944","-4.145334","Coordinates","Teifi Park Slaughterhouse, Lampeter Road, Llanybydder, SA40 9QE, United Kingdom","Carmarthenshire","Wales","Dunbia (UK)","Dunbia (UK)","CowSlaughterhouse, GoatSlaughterhouse, SheepAndLambSlaughterhouse","https://transparentfarms.org.uk/images/animals/slaughterhouse.png","1","","2018-01-01T00:00:00.000000Z","2024-05-01T00:00:00.000000Z"
"939","mp3236mp-raynham-farm","An intensive poultry farm in Norfolk","52.802979","0.730107","Coordinates","Old Staion Building, Station Road, KING'S LYNN, Norfolk, PE31 8SX, United Kingdom","Norfolk","England","Raynham Farm Company Livestock Limited","Raynham Farm","IntensivePoultryFarm","https://transparentfarms.org.uk/images/animals/poultry.png","","2007-09-21T00:00:00.000000Z","2020-10-01T00:00:00.000000Z","2021-10-01T00:00:00.000000Z"
"7130","miresdale-dairy-holding-limited-DL6","A dairy farm in North Yorkshire","54.337784","-1.431003","TownCity","NORTHALLERTON, NORTH YORKSHIRE, DL6, United Kingdom","North Yorkshire","England","Miresdale Dairy Holding Limited","Miresdale Dairy Holding Limited","DairyFarm","https://transparentfarms.org.uk/images/animals/cow.png","1","","2022-04-01T00:00:00.000000Z","2024-05-01T00:00:00.000000Z"
"93","3011-moy-park-ltd","A poultry slaughterhouse in Lincolnshire","53.038112","-0.339956","Coordinates","Main Street, Anwick, Sleaford, NG34 9SL, United Kingdom","Lincolnshire","England","Moy Park Limited","Moy Park Limited","PoultrySlaughterhouse","https://transparentfarms.org.uk/images/animals/slaughterhouse.png","1","","2018-01-01T00:00:00.000000Z","2024-05-01T00:00:00.000000Z"
"962","mp3735ep-claston-farm","An intensive poultry farm in Herefordshire","52.062085","-2.603075","Coordinates","Claston Farm, /v004, Dormington, Hereford, Herefordshire, HR1 4EA, United Kingdom","Herefordshire","England","Thomas; Thomas; Thomas","Claston Farm","IntensivePoultryFarm","https://transparentfarms.org.uk/images/animals/poultry.png","1","","2020-10-01T00:00:00.000000Z","2023-10-01T00:00:00.000000Z"
"2034","p010605a-jmw-tonnagh-farm","An intensive pig farm in Armagh City, Banbridge and Craigavon","54.356161","-6.749734","Coordinates","52 Cortynan Road, Tynan, Armagh, Co Armagh, BT60 4QZ, United Kingdom","Armagh City, Banbridge and Craigavon","Northern Ireland","JMW Tonnagh Farm","JMW Tonnagh Farm","IntensivePigFarm","https://transparentfarms.org.uk/images/animals/pig.png","1","","2021-01-01T00:00:00.000000Z","2021-01-01T00:00:00.000000Z"
"490","dp3335xs-willows-poultry-farm","An intensive pig farm in West Yorkshire","53.62833","-1.525674","Coordinates","Willow Farm, Hollingthorpe Lane, WAKEFIELD, West Yorkshire, WF4 3NG, United Kingdom","West Yorkshire","England","Willow Farm Producers Limited","Willow Pig Farm","IntensivePigFarm","https://transparentfarms.org.uk/images/animals/pig.png","","","2020-10-01T00:00:00.000000Z","2022-04-01T00:00:00.000000Z"
"1696","fp3836mu-trostrey-court-farm","An intensive poultry farm in Monmouthshire","51.734169","-2.918911","Coordinates","Trostrey Court, Usk, Monmouthshire, NP15 1HT, United Kingdom","Monmouthshire","Wales","Alkana Corporation Ltd.","Trostrey Court Farm ","IntensivePoultryFarm","https://transparentfarms.org.uk/images/animals/poultry.png","1","","2020-01-01T00:00:00.000000Z","2021-06-01T00:00:00.000000Z"
"6742","s-g-lee-sons-WV11","A dairy farm in Staffordshire","52.619284","-2.082721","Address","Oakley Farm, Blackhalve Lane, Essington, Wolverhampton, West Midlands, WV11 2BB, United Kingdom","Staffordshire","England","S G Lee & Sons","Oakley Farm","DairyFarm","https://transparentfarms.org.uk/images/animals/cow.png","1","","2018-01-01T00:00:00.000000Z","2024-05-01T00:00:00.000000Z"
"1481","xp3437mw-wellington-farm","An intensive poultry farm in Buckinghamshire","51.906756","-0.747477","Coordinates","Wellington Farm, Stewkley Road, Wing, Nr Leighton Buzzard, Buckinghamshire, LU7 0LD, United Kingdom","Buckinghamshire","England","Faccenda Foods Limited","Wellington Farm","IntensivePoultryFarm","https://transparentfarms.org.uk/images/animals/poultry.png","","","2020-10-01T00:00:00.000000Z","2022-04-01T00:00:00.000000Z"
"356","bp3303br-lodge-farm-poultry-unit","An intensive poultry farm in Lincolnshire","53.071078","-0.677454","Coordinates","Lodge Farm, Poultry Unit, Sleaford Road, Beckingham, Lincolnshire, LN5 0RB, United Kingdom","Lincolnshire","England","Noble Foods Limited","Lodge Farm, Poultry Unit","IntensivePoultryFarm","https://transparentfarms.org.uk/images/animals/poultry.png","1","","2020-10-01T00:00:00.000000Z","2023-10-01T00:00:00.000000Z"
"1478","xp3337hh-holcombe-manor-farm-poultry-unit","An intensive poultry farm in Devon","50.761999","-3.257514","Coordinates","Holcombe Manor, Farm Poultry Unit, Holcombe Lane, Ottery St. Mary, Devon, EX11 1PG, United Kingdom","Devon","England","Holcombe Manor Farm Limited","Holcombe Manor, Farm Poultry Unit","IntensivePoultryFarm","https://transparentfarms.org.uk/images/animals/poultry.png","1","","2020-10-01T00:00:00.000000Z","2023-10-01T00:00:00.000000Z"
"789","jp3338uf-claypit-poultry-unit","An intensive poultry farm in Hartlepool","54.696093","-1.281395","Coordinates","Claypit, Poultry Unit, Hart Moor, Elwick, Hartlepool, TS27 3BL, United Kingdom","Hartlepool","England","Hook 2 Sisters Limited","Claypit, Poultry Unit","IntensivePoultryFarm","https://transparentfarms.org.uk/images/animals/poultry.png","1","","2020-10-01T00:00:00.000000Z","2023-10-01T00:00:00.000000Z"
"1545","yp3632mc-hilltop-farm","An intensive poultry farm in Nottinghamshire","53.100032","-1.078388","Coordinates","Hilltop Farm, Mansfield Road, Farnsfield, Newark, Nottinghamshire, NG22 8HY, United Kingdom","Nottinghamshire","England","Noble Foods Limited","Hilltop Farm","IntensivePoultryFarm","https://transparentfarms.org.uk/images/animals/poultry.png","1","","2020-10-01T00:00:00.000000Z","2023-10-01T00:00:00.000000Z"
"1578","zp3132qg-woodside-farm","An intensive poultry farm in Norfolk","52.513639","1.145473","Coordinates","Woodside Farm, New Road, Tacolneston, Norwich, Norfolk, NR16 1DW, United Kingdom","Norfolk","England","Banham Poultry (2018) Limited","Woodside Farm","IntensivePoultryFarm","https://transparentfarms.org.uk/images/animals/poultry.png","1","","2020-10-01T00:00:00.000000Z","2023-10-01T00:00:00.000000Z"
"557","ep3536sm-carlow-wood-farm","An intensive poultry farm in Lancashire","54.180065","-2.569264","Coordinates","Carlow House, Carlow Wood Farm, Woodman Lane, Cowan Bridge, Lancashire, LA6 2HT, United Kingdom","Lancashire","England","Moy Park Limited","Carlow House, Carlow Wood Farm","IntensivePoultryFarm","https://transparentfarms.org.uk/images/animals/poultry.png","1","","2020-10-01T00:00:00.000000Z","2023-10-01T00:00:00.000000Z"
"2098","p023407a-derek-hall","An intensive pig farm in Antrim and Newtownabbey","54.695207","-5.924391","Coordinates","25 Old Carrick Road, Monkstown, Newtownabbey, Co Antrim, BT37 0UE, United Kingdom","Antrim and Newtownabbey","Northern Ireland","Derek Hall","Derek Hall","IntensivePigFarm","https://transparentfarms.org.uk/images/animals/pig.png","1","","2021-01-01T00:00:00.000000Z","2021-01-01T00:00:00.000000Z"
"235","8005-2-sisters-food-group-ltd","A poultry slaughterhouse in Devon","50.89096","-3.378811","Coordinates","Willand, Cullompton, EX15 2PJ, United Kingdom","Devon","England","2 Sisters Food Group Ltd","2 Sisters Food Group Ltd","PoultrySlaughterhouse","https://transparentfarms.org.uk/images/animals/slaughterhouse.png","1","","2018-01-01T00:00:00.000000Z","2024-05-01T00:00:00.000000Z"
