establishment_id,establishment_number,establishment_name,duns_number,street,city,state,zip,phone,grant_date,activities,dbas,district,circuit,size,latitude,longitude,county,fips_code,meat_exemption_custom_slaughter,poultry_exemption_custom_slaughter,slaughter,meat_slaughter,beef_cow_slaughter,steer_slaughter,heifer_slaughter,bull_stag_slaughter,dairy_cow_slaughter,heavy_calf_slaughter,bob_veal_slaughter,formula_fed_veal_slaughter,non_formula_fed_veal_slaughter,market_swine_slaughter,sow_slaughter,roaster_swine_slaughter,boar_stag_swine_slaughter,stag_swine_slaughter,feral_swine_slaughter,goat_slaughter,young_goat_slaughter,adult_goat_slaughter,sheep_slaughter,lamb_slaughter,deer_reindeer_slaughter,antelope_slaughter,elk_slaughter,bison_slaughter,buffalo_slaughter,water_buffalo_slaughter,cattalo_slaughter,yak_slaughter,other_voluntary_livestock_slaughter,rabbit_slaughter,poultry_slaughter,young_chicken_slaughter,light_fowl_slaughter,heavy_fowl_slaughter,capon_slaughter,young_turkey_slaughter,young_breeder_turkey_slaughter,old_breeder_turkey_slaughter,fryer_roaster_turkey_slaughter,duck_slaughter,goose_slaughter,pheasant_slaughter,quail_slaughter,guinea_slaughter,ostrich_slaughter,emu_slaughter,rhea_slaughter,squab_slaughter,other_voluntary_poultry_slaughter,slaughter_or_processing_only,slaughter_only_class,slaughter_only_species,meat_slaughter_only_species,poultry_slaughter_only_species,slaughter_volume_category,processing_volume_category,beef_processing,pork_processing,antelope_processing,bison_processing,buffalo_processing,deer_processing,elk_processing,goat_processing,other_voluntary_livestock_processing,rabbit_processing,reindeer_processing,sheep_processing,yak_processing,chicken_processing,duck_processing,goose_processing,pigeon_processing,ratite_processing,turkey_processing,exotic_poultry_processing,other_voluntary_poultry_processing
121,121,A J Green & Sons,,"Ravenscliffe House Farm, Goldenhill",Stoke-on-Trent,Staffordshire,ST6 4QH,,2018-01-01,Meat Slaughter,,,,Unknown,53.081637,-2.237357,Staffordshire,,,,Yes,Yes,Yes,Yes,Yes,Yes,Yes,,,,,Yes,Yes,,,,,Yes,Yes,Yes,Yes,Yes,,,,,,,,,,,,,,,,,,,,,,,,,,,,,,,,,,,Unknown,Unknown,,,,,,,,,,,,,,,,,,,,,
240,240,Pilgrims Pride Ltd - Westerleigh,,"Oakleigh Green Farm, Westerleigh",Bristol,South Gloucestershire,BS37 8QZ,,2018-01-01,Meat Slaughter,,,,Unknown,51.510272,-2.448218,South Gloucestershire,,,,Yes,Yes,,,,,,,,,,Yes,Yes,,,,,,,,,,,,,,,,,,,,,,,,,,,,,,,,,,,,,,,,,,,,Unknown,Unknown,,,,,,,,,,,,,,,,,,,,,
116,116,Manchester Abattoir Ltd,,"The Abattoir 2 Higher Bury Str, Heaton Norris",Stockport,Greater Manchester,SK4 1BJ,,2018-01-01,Meat Slaughter,,,,Unknown,53.412165,-2.171729,Greater Manchester,,,,Yes,Yes,,,,,,,,,,,,,,,,Yes,Yes,Yes,Yes,Yes,,,,,,,,,,,,,,,,,,,,,,,,,,,,,,,,,,,Unknown,Unknown,,,,,,,,,,,,,,,,,,,,,
143,143,Birmingham Halal Abattoir Ltd,,"162 - 194 Bishops Street, Highgate",Birmingham,West Midlands,B5 7EJ,,2018-01-01,Meat Slaughter,,,,Unknown,52.469864,-1.893673,West Midlands,,,,Yes,Yes,Yes,Yes,Yes,Yes,Yes,,,,,,,,,,,Yes,Yes,Yes,Yes,Yes,,,,,,,,,,,,,,,,,,,,,,,,,,,,,,,,,,,Unknown,Unknown,,,,,,,,,,,,,,,,,,,,,
134,134,T G Sargeant And Sons,,"Roycroft Farm, Bramshall",Uttoxeter,Staffordshire,ST14 5BG,,2018-01-01,Meat Slaughter,,,,Unknown,52.895439,-1.907145,Staffordshire,,,,Yes,Yes,Yes,Yes,Yes,Yes,Yes,,,,,,,,,,,Yes,Yes,Yes,Yes,Yes,,,,,,,,,,,,,,,,,,,,,,,,,,,,,,,,,,,Unknown,Unknown,,,,,,,,,,,,,,,,,,,,,
244,244,P J King & Sons,,"Court Farm, Stroud Road, Whaddon",Gloucester,Gloucestershire,GL4 0UG,,2018-01-01,Meat Slaughter,,,,Unknown,51.841765,-2.243757,Gloucestershire,,,,Yes,Yes,Yes,Yes,Yes,Yes,Yes,,,,,Yes,Yes,,,,,Yes,Yes,Yes,Yes,Yes,,,,,,,,,,,,,,,,,,,,,,,,,,,,,,,,,,,Unknown,Unknown,,,,,,,,,,,,,,,,,,,,,
123,123,E & T Jackson & Sons,,"Tabley Brook Farm, Tabley",Knutsford,Cheshire East,WA16 0JA,,2018-01-01,Meat Slaughter,,,,Unknown,53.307019,-2.430653,Cheshire East,,,,Yes,Yes,Yes,Yes,Yes,Yes,Yes,,,,,Yes,Yes,,,,,Yes,Yes,Yes,Yes,Yes,,,,,,,,,,,,,,,,,,,,,,,,,,,,,,,,,,,Unknown,Unknown,,,,,,,,,,,,,,,,,,,,,
207,207,Mutchmeats Ltd,,Newclose Lane,Witney,Oxfordshire,OX29 7GX,,2018-01-01,Meat Slaughter,,,,Unknown,51.771642,-1.49809,Oxfordshire,,,,Yes,Yes,Yes,Yes,Yes,Yes,Yes,,,,,,,,,,,Yes,Yes,Yes,Yes,Yes,,,,,,,,,Yes,,,,,,,,,,,,,,,,,,,,,,,,,,Unknown,Unknown,,,,,,,,,,,,,,,,,,,,,
234,234,Euro Farm Wales,,"Unit 7-8, Withy Bush Trading Estate",Haverfordwest,Pembrokeshire,SA62 4BS,,2019-07-01,Meat Slaughter,,,,Unknown,51.827694,-4.956605,Pembrokeshire,,,,Yes,Yes,Yes,Yes,Yes,Yes,Yes,,,,,,,,,,,,,,Yes,Yes,,,,,,,,,,,,,,,,,,,,,,,,,,,,,,,,,,,Unknown,Unknown,,,,,,,,,,,,,,,,,,,,,
172,172,IHP LImited,,"Bell Farm, Shantock Hall Lane",Bovingdon,Hertfordshire,HP3 0NQ,,2018-01-01,Meat Slaughter,,,,Unknown,51.71201,-0.544522,Hertfordshire,,,,Yes,Yes,,,,,,,,,,,,,,,,,,,,,,,,,,,,,,,Yes,Yes,,,,,,,,,,,,,,,,,,,,,,,Unknown,Unknown,,,,,,,,,,,,,,,,,,,,,
12491,12491,Lowfield Farm,,"Lowfield Farm, Brompton, Northallerton",North Yorkshire,North Yorkshire,DL6 2RW,,2018-01-01,Animal Production,G T &  L Spence,,,Unknown,54.373601,-1.414308,North Yorkshire,,,,,,,,,,,,,,,,,,,,,,,,,,,,,,,,,,,,,,,,,,,,,,,,,,,,,,,,,,,,Unknown,Unknown,,,,,,,,,,,,,,,,,,,,,
211,211,Down Land Traditional Meats Ltd,,"Morley Farm, Wheatsheaf Road, Woodmancote",Henfield,West Sussex,BN5 9BB,,2018-01-01,Meat Slaughter,,,,Unknown,50.946301,-0.254653,West Sussex,,,,Yes,Yes,Yes,Yes,Yes,Yes,Yes,,,,,Yes,Yes,,,,,Yes,Yes,Yes,Yes,Yes,,,,,,,,,Yes,,,,,,,,,,,,,,,,,,,,,,,,,,Unknown,Unknown,,,,,,,,,,,,,,,,,,,,,
61,61,John Penny And Sons,,"Low Green Farm, 40 Leeds Road, Rawdon",Leeds,West Yorkshire,LS19 6NU,,2018-01-01,Meat Slaughter,,,,Unknown,53.848323,-1.674192,West Yorkshire,,,,Yes,Yes,Yes,Yes,Yes,Yes,Yes,,,,,Yes,Yes,,,,,Yes,Yes,Yes,Yes,Yes,,,,,,,,,,,,,,,,,,,,,,,,,,,,,,,,,,,Unknown,Unknown,,,,,,,,,,,,,,,,,,,,,
46,46,West Scottish Lamb Ltd,,"The Abattoir, Brunthill Road, Kingstown Industrial Estate",Carlisle,Cumbria,CA3 0EH,,2018-01-01,Meat Slaughter,,,,Unknown,54.923891,-2.957531,Cumbria,,,,Yes,Yes,Yes,Yes,Yes,Yes,Yes,,,,,,,,,,,,,,Yes,Yes,,,,,,,,,,,,,,,,,,,,,,,,,,,,,,,,,,,Unknown,Unknown,,,,,,,,,,,,,,,,,,,,,
282,282,DMP Foods Ltd,,73 Largy Road,Crumlin,Antrim and Newtownabbey,BT29 4RS,,2019-08-01,Meat Slaughter,,,,Unknown,54.622277,-6.280906,Antrim and Newtownabbey,,,,Yes,Yes,Yes,Yes,Yes,Yes,Yes,,,,,,,,,,,Yes,Yes,Yes,Yes,Yes,,,,,,,,,,,,,,,,,,,,,,,,,,,,,,,,,,,Unknown,Unknown,,,,,,,,,,,,,,,,,,,,,
66,66,J S Quality Meats Limited,,"Cotton Mill Farm, By Pass Road",Uttoxeter,Staffordshire,ST14 5AA,,2019-06-01,Meat Slaughter,,,,Unknown,52.907959,-1.857257,Staffordshire,,,,Yes,Yes,Yes,Yes,Yes,Yes,Yes,,,,,Yes,Yes,,,,,Yes,Yes,Yes,Yes,Yes,,,,,,,,,,,,,,,,,,,,,,,,,,,,,,,,,,,Unknown,Unknown,,,,,,,,,,,,,,,,,,,,,
199,199,Woodhead Bros. Spalding,,"Brunel Road, Wardentree Industrial Estate, Pinchbeck",Spalding,Lincolnshire,PE11 3YY,,2018-01-01,Meat Slaughter,,,,Unknown,52.804373,-0.142252,Lincolnshire,,,,Yes,Yes,Yes,Yes,Yes,Yes,Yes,,,,,Yes,Yes,,,,,,,,Yes,Yes,,,,,,,,,,,,,,,,,,,,,,,,,,,,,,,,,,,Unknown,Unknown,,,,,,,,,,,,,,,,,,,,,
32,32,HCF Poultry Ltd,,"Station Yard, Station Road, Cullingworth",Bradford,West Yorkshire,BD13 5HP,,2018-01-01,Meat Slaughter,,,,Unknown,53.826405,-1.900951,West Yorkshire,,,,Yes,Yes,,,,,,,,,,,,,,,,,,,,,,,,,,,,,,,Yes,Yes,,,,,,,,,,,,,,,,,,,,,,,Unknown,Unknown,,,,,,,,,,,,,,,,,,,,,
57,57,E V Slack & Sons,,,Doncaster,South Yorkshire,,,2018-01-01,Meat Slaughter,,,,Unknown,53.466123,-1.13675,South Yorkshire,,,,Yes,Yes,Yes,Yes,Yes,Yes,Yes,,,,,Yes,Yes,,,,,Yes,Yes,Yes,Yes,Yes,,,,,,,,,,,,,,,,,,,,,,,,,,,,,,,,,,,Unknown,Unknown,,,,,,,,,,,,,,,,,,,,,
208,208,Abp Guildford,,"The Abattoir, Moorfield Road, Slyfield Industrial Estate",Guildford,Surrey,GU1 1RP,,2018-01-01,Meat Slaughter,,,,Unknown,51.261603,-0.570216,Surrey,,,,Yes,Yes,Yes,Yes,Yes,Yes,Yes,,,,,,,,,,,,,,Yes,Yes,,,,,,,,,,,,,,,,,,,,,,,,,,,,,,,,,,,Unknown,Unknown,,,,,,,,,,,,,,,,,,,,,
1175,1175,"Cross Farm, Cross And Beacon Farm",,"Cross Farm, Cross And Beacon Farm, Holsworthy Beacon",Devon,Devon,EX22 7ND,,2020-10-01,Animal Production,W.j. Watkins & Son Limited,,,Unknown,50.857388,-4.330412,Devon,,,,,,,,,,,,,,,,,,,,,,,,,,,,,,,,,,,,,,,,,,,,,,,,,,,,,,,,,,,,Unknown,Unknown,,,,,,,,,,,,,,,,,,,,,
40,40,Spenborough Abattoir Ltd,,Headlands Road,Liversedge,West Yorkshire,WF15 6PR,,2018-01-01,Meat Slaughter,,,,Unknown,53.709963,-1.69446,West Yorkshire,,,,Yes,Yes,Yes,Yes,Yes,Yes,Yes,,,,,,,,,,,Yes,Yes,Yes,Yes,Yes,,,,,,,,,,,,,,,,,,,,,,,,,,,,,,,,,,,Unknown,Unknown,,,,,,,,,,,,,,,,,,,,,
110,110,R B Elliott & Son Ltd,,"Stud Farm, Calow",Chesterfield,Derbyshire,S44 5UN,,2018-01-01,Meat Slaughter,,,,Unknown,53.2332,-1.373634,Derbyshire,,,,Yes,Yes,Yes,Yes,Yes,Yes,Yes,,,,,Yes,Yes,,,,,Yes,Yes,Yes,Yes,Yes,,,,,,,,,,,,,,,,,,,,,,,,,,,,,,,,,,,Unknown,Unknown,,,,,,,,,,,,,,,,,,,,,
103,103,Abp Shrewsbury,,"Battlefield Road, Harlescott",Shrewsbury,Shropshire,SY1 4AH,,2018-01-01,Meat Slaughter,,,,Unknown,52.741662,-2.720306,Shropshire,,,,Yes,Yes,Yes,Yes,Yes,Yes,Yes,,,,,,,,,,,,,,Yes,Yes,,,,,,,,,,,,,,,,,,,,,,,,,,,,,,,,,,,Unknown,Unknown,,,,,,,,,,,,,,,,,,,,,
222,222,Huw Evans & Rhys Evans (T/A Cig Oen Caron),,The Abattoir,Tregaron,Ceredigion,SY25 6NJ,,2018-01-01,Meat Slaughter,,,,Unknown,52.217161,-3.920343,Ceredigion,,,,Yes,Yes,Yes,Yes,Yes,Yes,Yes,,,,,Yes,Yes,,,,,,,,Yes,Yes,,,,,,,,,,,,,,,,,,,,,,,,,,,,,,,,,,,Unknown,Unknown,,,,,,,,,,,,,,,,,,,,,
135,135,Staffordshire Meat Packers Ltd,,"New House Farm Werrington Road, Bucknall",Stoke-on-Trent,Stoke-on-Trent,ST2 9DL,,2018-01-01,Meat Slaughter,,,,Unknown,53.024531,-2.145255,Stoke-on-Trent,,,,Yes,Yes,Yes,Yes,Yes,Yes,Yes,,,,,Yes,Yes,,,,,Yes,Yes,Yes,Yes,Yes,,,,,,,,,,,,,,,,,,,,,,,,,,,,,,,,,,,Unknown,Unknown,,,,,,,,,,,,,,,,,,,,,
13336,13336,T&S Abattoir Ltd,,"Ansley Lane, Old Arley",Coventry,Warwickshire,CV78FU,,2024-04-01,Meat Slaughter,,,,Unknown,52.520452,-1.575235,Warwickshire,,,,Yes,Yes,Yes,Yes,Yes,Yes,Yes,,,,,,,,,,,Yes,Yes,Yes,Yes,Yes,,,,,,,,,,,,,,,,,,,,,,,,,,,,,,,,,,,Unknown,Unknown,,,,,,,,,,,,,,,,,,,,,
85,85,Simpson & Sons,,"Windy Bank, Astwood Lane, Astwood Bank",Redditch,Worcestershire,B96 6HH,,2018-01-01,Meat Slaughter,,,,Unknown,52.255146,-1.953472,Worcestershire,,,,Yes,Yes,Yes,Yes,Yes,Yes,Yes,,,,,,,,,,,Yes,Yes,Yes,Yes,Yes,,,,,,,,,,,,,,,,,,,,,,,,,,,,,,,,,,,Unknown,Unknown,,,,,,,,,,,,,,,,,,,,,
201,201,P.C.Turner - Wholesale Butcher,,"48-50 Sherborne Road, Northcamp",Farnborough,Hampshire,GU14 6JS,,2018-01-01,Meat Slaughter,,,,Unknown,51.278505,-0.742328,Hampshire,,,,Yes,Yes,Yes,Yes,Yes,Yes,Yes,,,,,Yes,Yes,,,,,Yes,Yes,Yes,Yes,Yes,,,,,,,,,,,,,,,,,,,,,,,,,,,,,,,,,,,Unknown,Unknown,,,,,,,,,,,,,,,,,,,,,
210,210,J R Farm Meats Ltd,,"Ratling Court Farm, Ratling Road, Aylesham",Canterbury,Kent,CT3 3HN,,2018-01-01,Meat Slaughter,,,,Unknown,51.230462,1.208033,Kent,,,,Yes,Yes,Yes,Yes,Yes,Yes,Yes,,,,,Yes,Yes,,,,,Yes,Yes,Yes,Yes,Yes,,,,,,,,,,,,,,,,,,,,,,,,,,,,,,,,,,,Unknown,Unknown,,,,,,,,,,,,,,,,,,,,,
44,44,N Bramall & Son Ltd,,"The Abattoir, Near Coates Farm, Oxspring",Sheffield,South Yorkshire,S36 8YB,,2018-01-01,Meat Slaughter,,,,Unknown,53.520978,-1.582204,South Yorkshire,,,,Yes,Yes,Yes,Yes,Yes,Yes,Yes,,,,,Yes,Yes,,,,,Yes,Yes,Yes,Yes,Yes,,,,,,,,,,,,,,,,,,,,,,,,,,,,,,,,,,,Unknown,Unknown,,,,,,,,,,,,,,,,,,,,,
100,100,Pilgrims Pride Ltd - Ashton,,Bow Street,Dukinfield,Greater Manchester,SK16 4HY,,2018-01-01,Meat Slaughter,,,,Unknown,53.484066,-2.090097,Greater Manchester,,,,Yes,Yes,,,,,,,,,,Yes,Yes,,,,,,,,,,,,,,,,,,,,,,,,,,,,,,,,,,,,,,,,,,,,Unknown,Unknown,,,,,,,,,,,,,,,,,,,,,
196,196,C J Byford & Son,,"Bonds Farm, Holland Road",Little Clacton,Essex,CO16 9QE,,2018-01-01,Meat Slaughter,,,,Unknown,51.827731,1.174815,Essex,,,,Yes,Yes,Yes,Yes,Yes,Yes,Yes,,,,,Yes,Yes,,,,,Yes,Yes,Yes,Yes,Yes,,,,,,,,,,,,,,,,,,,,,,,,,,,,,,,,,,,Unknown,Unknown,,,,,,,,,,,,,,,,,,,,,
252,252,Universal Traders Gloucester Ltd,,"The Flatt, The Abattoir, Minsterworth",Gloucester,Gloucestershire,GL2 8JX,,2018-01-01,Meat Slaughter,,,,Unknown,51.821225,-2.278908,Gloucestershire,,,,Yes,Yes,Yes,Yes,Yes,Yes,Yes,,,,,,,,,,,Yes,Yes,Yes,Yes,Yes,,,,,,,,,,,,,,,,,,,,,,,,,,,,,,,,,,,Unknown,Unknown,,,,,,,,,,,,,,,,,,,,,
127,127,C. S. Morphet and Sons Limited,,"Tan House Farm, Alder Lane, Cronton",Widnes,Merseyside,WA8 5PP,,2018-01-01,Meat Slaughter,,,,Unknown,53.385487,-2.784593,Merseyside,,,,Yes,Yes,,,,,,,,,,Yes,Yes,,,,,Yes,Yes,Yes,Yes,Yes,,,,,,,,,,,,,,,,,,,,,,,,,,,,,,,,,,,Unknown,Unknown,,,,,,,,,,,,,,,,,,,,,
82,82,Riley Foods Limited,,"Dunnockshaw Farm, Burnley Road, Dunnockshaw",Burnley,Lancashire,BB11 5PP,,2018-01-01,Meat Slaughter,,,,Unknown,53.746571,-2.278068,Lancashire,,,,Yes,Yes,Yes,Yes,Yes,Yes,Yes,,,,,,,,,,,Yes,Yes,Yes,Yes,Yes,,,,,,,,,,,,,,,,,,,,,,,,,,,,,,,,,,,Unknown,Unknown,,,,,,,,,,,,,,,,,,,,,
178,178,Dovecote Park (Skellingthorpe) Ltd,,"Ferry Lane, Skellingthorpe",Lincoln,Lincolnshire,LN6 5TX,,2018-01-01,Meat Slaughter,,,,Unknown,53.240601,-0.602921,Lincolnshire,,,,Yes,Yes,Yes,Yes,Yes,Yes,Yes,,,,,,,,,,,,,,Yes,Yes,,,,,,,,,,,,,,,,,,,,,,,,,,,,,,,,,,,Unknown,Unknown,,,,,,,,,,,,,,,,,,,,,
269,269,J And J Farmers Abattoir,,"Haydon Farm, North Tamerton",Holsworthy,Cornwall,EX22 6RL,,2018-01-01,Meat Slaughter,,,,Unknown,50.747954,-4.413516,Cornwall,,,,Yes,Yes,Yes,Yes,Yes,Yes,Yes,,,,,Yes,Yes,,,,,Yes,Yes,Yes,Yes,Yes,,,,,,,,,Yes,,,,,,,,,,,,,,,,,,,,,,,,,,Unknown,Unknown,,,,,,,,,,,,,,,,,,,,,
47,47,H C Airey & Sons Ltd,,"The Abattoir, Snowdrop Villa, Ayside",Grange over Sands,Cumbria,LA11 6JE,,2018-01-01,Meat Slaughter,,,,Unknown,54.240126,-2.923539,Cumbria,,,,Yes,Yes,Yes,Yes,Yes,Yes,Yes,,,,,Yes,Yes,,,,,Yes,Yes,Yes,Yes,Yes,,,,,,,,,,,,,,,,,,,,,,,,,,,,,,,,,,,Unknown,Unknown,,,,,,,,,,,,,,,,,,,,,
1531,1531,Longbelt Farm Poultry Unit,,"Longbelt Farm Poultry Unit, Rufford Park, Newark",Nottinghamshire,Nottinghamshire,NG22 9HB,,2020-10-01,Animal Production,Noble Foods Limited,,,Unknown,53.160714,-1.021742,Nottinghamshire,,,,,,,,,,,,,,,,,,,,,,,,,,,,,,,,,,,,,,,,,,,,,,,,,,,,,,,,,,,,Unknown,Unknown,,,,,,,,,,,,,,,,,,,,,
177,177,Dunbia Cardington,,"Meadow Lane, Cardington",Bedford,Bedford,MK44 3SB,,2018-01-01,Meat Slaughter,,,,Unknown,52.129123,-0.410119,Bedford,,,,Yes,Yes,Yes,Yes,Yes,Yes,Yes,,,,,,,,,,,,,,Yes,Yes,,,,,,,,,,,,,,,,,,,,,,,,,,,,,,,,,,,Unknown,Unknown,,,,,,,,,,,,,,,,,,,,,
8477,8477,Bryn Newydd,,"Bryn Newydd, Marchwiel, Wrexham",Clwyd,Wrexham Principal Area,LL13 0SR,,2018-01-01,Animal Production,A W Studley & Sons,,,Unknown,53.028864,-2.973035,Wrexham Principal Area,,,,,,,,,,,,,,,,,,,,,,,,,,,,,,,,,,,,,,,,,,,,,,,,,,,,,,,,,,,,Unknown,Unknown,,,,,,,,,,,,,,,,,,,,,
58,58,Woolley Bros (Wholesale Meats) Ltd,,"Rother Valley Way, Holbrook",Sheffield,South Yorkshire,S20 3RW,,2018-01-01,Meat Slaughter,,,,Unknown,53.331566,-1.330892,South Yorkshire,,,,Yes,Yes,Yes,Yes,Yes,Yes,Yes,,,,,,,,,,,,,,Yes,Yes,,,,,,,,,,,,,,,,,,,,,,,,,,,,,,,,,,,Unknown,Unknown,,,,,,,,,,,,,,,,,,,,,
1018,1018,"North Moor Farm, Pig Unit",,"North Moor Farm, Pig Unit, Caistor Road, Middle Rasen",Lincolnshire,Lincolnshire,LN8 3JF,,2020-10-01,Animal Production,Elsham Linc Limited,,,Unknown,53.407306,-0.350937,Lincolnshire,,,,,,,,,,,,,,,,,,,,,,,,,,,,,,,,,,,,,,,,,,,,,,,,,,,,,,,,,,,,Unknown,Unknown,,,,,,,,,,,,,,,,,,,,,
227,227,Pilgrim's UK Lamb Ltd.,,"Dolwen, Oakley Park",Llanidloes,Powys,SY18 6LX,,2018-01-01,Meat Slaughter,,,,Unknown,52.456736,-3.478867,Powys,,,,Yes,Yes,,,,,,,,,,,,,,,,Yes,Yes,Yes,Yes,Yes,,,,,,,,,,,,,,,,,,,,,,,,,,,,,,,,,,,Unknown,Unknown,,,,,,,,,,,,,,,,,,,,,
136,136,Higginshaw Abattoir Ltd,,"The Abattoir, Higginshaw Lane, Royton",Oldham,Greater Manchester,OL2 6HQ,,2018-01-01,Meat Slaughter,,,,Unknown,53.557685,-2.104485,Greater Manchester,,,,Yes,Yes,,,,,,,,,,,,,,,,Yes,Yes,Yes,Yes,Yes,,,,,,,,,,,,,,,,,,,,,,,,,,,,,,,,,,,Unknown,Unknown,,,,,,,,,,,,,,,,,,,,,
191,191,C Humphreys & Sons,,"Blixes Farm, Fairstead",Chelmsford,Essex,CM3 2BH,,2018-01-01,Meat Slaughter,,,,Unknown,51.831272,0.543558,Essex,,,,Yes,Yes,Yes,Yes,Yes,Yes,Yes,,,,,Yes,Yes,,,,,Yes,Yes,Yes,Yes,Yes,,,,,,,,,,,,,,,,,,,,,,,,,,,,,,,,,,,Unknown,Unknown,,,,,,,,,,,,,,,,,,,,,
62,62,L Wood & Sons,,"O'Cot Farm, Scammonden",Huddersfield,West Yorkshire,HD3 3FW,,2018-01-01,Meat Slaughter,,,,Unknown,53.639952,-1.913309,West Yorkshire,,,,Yes,Yes,Yes,Yes,Yes,Yes,Yes,,,,,Yes,Yes,,,,,Yes,Yes,Yes,Yes,Yes,,,,,,,,,Yes,,,,,,,,,,,,,,,,,,,,,,,,,,Unknown,Unknown,,,,,,,,,,,,,,,,,,,,,
59,59,Melton Meat Limited,,"The Abattoir, Stygate Lane, Pickwell",Melton Mowbray,Leicestershire,LE14 2QN,,2018-01-01,Meat Slaughter,,,,Unknown,52.701677,-0.821063,Leicestershire,,,,Yes,Yes,,,,,,,,,,,,,,,,Yes,Yes,Yes,Yes,Yes,,,,,,,,,Yes,,,,,,,,,,,,,,,,,,,,,,,,,,Unknown,Unknown,,,,,,,,,,,,,,,,,,,,,
43,43,Dunbia Carnaby,,,Bridlington,East Riding of Yorkshire,,,2018-01-01,Meat Slaughter,,,,Unknown,54.059831,-0.25635,East Riding of Yorkshire,,,,Yes,Yes,Yes,Yes,Yes,Yes,Yes,,,,,,,,,,,,,,Yes,Yes,,,,,,,,,,,,,,,,,,,,,,,,,,,,,,,,,,,Unknown,Unknown,,,,,,,,,,,,,,,,,,,,,
7009,7009,Little Lype Farm,,"Little Lype Farm, Charlton, Malmesbury",Wiltshire,Wiltshire,SN16 9DR,,2018-01-01,Animal Production,S D Withers & Son,,,Unknown,51.597949,-2.03502,Wiltshire,,,,,,,,,,,,,,,,,,,,,,,,,,,,,,,,,,,,,,,,,,,,,,,,,,,,,,,,,,,,Unknown,Unknown,,,,,,,,,,,,,,,,,,,,,
231,231,Kepak Food Group Limited,,"Pengarnddu Industrial Estate, Dowlais Top",Merthyr Tydfil,Merthyr Tydfil County Borough,CF48 2TA,,2018-01-01,Meat Slaughter,,,,Unknown,51.768878,-3.336291,Merthyr Tydfil County Borough,,,,Yes,Yes,Yes,Yes,Yes,Yes,Yes,,,,,,,,,,,,,,Yes,Yes,,,,,,,,,,,,,,,,,,,,,,,,,,,,,,,,,,,Unknown,Unknown,,,,,,,,,,,,,,,,,,,,,
193,193,Romford Halal Meats Ltd,,"The Abattoir, Beredens Farm Folkes Lane, Cranham",Upminster,Greater London,RM14 1TH,,2018-01-01,Meat Slaughter,,,,Unknown,51.575953,0.280531,Greater London,,,,Yes,Yes,Yes,Yes,Yes,Yes,Yes,,,,,,,,,,,Yes,Yes,Yes,Yes,Yes,,,,,,,,,Yes,,,,,,,,,,,,,,,,,,,,,,,,,,Unknown,Unknown,,,,,,,,,,,,,,,,,,,,,
1541,1541,Pinchbeck Farm,,"Pinchbeck Farm, Cowards Lane, Pinchbeck",Spalding,Lincolnshire,PE11 3SP,,2020-10-01,Animal Production,Hook 2 Sisters Limited,,,Unknown,52.827315,-0.192029,Lincolnshire,,,,,,,,,,,,,,,,,,,,,,,,,,,,,,,,,,,,,,,,,,,,,,,,,,,,,,,,,,,,Unknown,Unknown,,,,,,,,,,,,,,,,,,,,,
377,377,"Wheaton Aston Farm, Pig Unit",,"Wheaton Aston Farm, Pig Unit, Little Onn, Church Eaton, Stafford",Staffordshire,Staffordshire,ST20 0AU,,2021-01-01,Animal Production,Belmont Farms Limited,,,Unknown,52.730167,-2.239924,Staffordshire,,,,,,,,,,,,,,,,,,,,,,,,,,,,,,,,,,,,,,,,,,,,,,,,,,,,,,,,,,,,Unknown,Unknown,,,,,,,,,,,,,,,,,,,,,
264,264,Abp Langport,,"Muchelney Road, Huish Episcopi",Langport,Somerset,TA10 9HG,,2018-01-01,Meat Slaughter,,,,Unknown,51.031945,-2.814842,Somerset,,,,Yes,Yes,Yes,Yes,Yes,Yes,Yes,,,,,,,,,,,,,,Yes,Yes,,,,,,,,,,,,,,,,,,,,,,,,,,,,,,,,,,,Unknown,Unknown,,,,,,,,,,,,,,,,,,,,,
242,242,P J Hayman Abattoir Ltd,,"Grand View Abattoir, Holcombe Lane",Ottery St. Mary,Devon,EX11 1PQ,,2018-01-01,Meat Slaughter,,,,Unknown,50.761531,-3.241577,Devon,,,,Yes,Yes,Yes,Yes,Yes,Yes,Yes,,,,,Yes,Yes,,,,,Yes,Yes,Yes,Yes,Yes,,,,,,,,,Yes,,,,,,,,,,,,,,,,,,,,,,,,,,Unknown,Unknown,,,,,,,,,,,,,,,,,,,,,
69,69,Chai Meats Limited,,182 Hammerton Street,Bradford,West Yorkshire,BD3 9RD,,2018-01-01,Meat Slaughter,,,,Unknown,53.788855,-1.734609,West Yorkshire,,,,Yes,Yes,,,,,,,,,,,,,,,,,,,,,,,,,,,,,,,Yes,Yes,,,,,,,,,,,,,,,,,,,,,,,Unknown,Unknown,,,,,,,,,,,,,,,,,,,,,
978,978,Killingholme Farm,,"Killingholme Farm, Killingholme Airfiield, North Killingholme, Immingham",South Humberside,North Lincolnshire,DN40 3JY,,2020-10-01,Animal Production,Hook 2 Sisters Limited,,,Unknown,53.639471,-0.295297,North Lincolnshire,,,,,,,,,,,,,,,,,,,,,,,,,,,,,,,,,,,,,,,,,,,,,,,,,,,,,,,,,,,,Unknown,Unknown,,,,,,,,,,,,,,,,,,,,,
16,16,Vivers Scotlamb Ltd.,,,Annan,Dumfries and Galloway,,,2018-01-01,Meat Slaughter,,,,Unknown,54.990246,-3.259773,Dumfries and Galloway,,,,Yes,Yes,,,,,,,,,,,,,,,,,,,Yes,Yes,,,,,,,,,,,,,,,,,,,,,,,,,,,,,,,,,,,Unknown,Unknown,,,,,,,,,,,,,,,,,,,,,
10162,10162,"Old Staion Building, Raynham Farm",,"Old Staion Building, Raynham Farm, Station Road, East Rudham",Norfolk,Norfolk,PE31 8SX,,2022-01-01,Animal Production,Banham Poultry (2018) Limited,,,Unknown,52.802936,0.73003,Norfolk,,,,,,,,,,,,,,,,,,,,,,,,,,,,,,,,,,,,,,,,,,,,,,,,,,,,,,,,,,,,Unknown,Unknown,,,,,,,,,,,,,,,,,,,,,
186,186,L Brown & Sons Wholesale Butchers Ltd,,"City Abattoir, Allenby Road, Crofton Industrial Estate",Lincoln,Lincolnshire,LN3 4NL,,2018-01-01,Meat Slaughter,,,,Unknown,53.232434,-0.507003,Lincolnshire,,,,Yes,Yes,Yes,Yes,Yes,Yes,Yes,,,,,Yes,Yes,,,,,Yes,Yes,Yes,Yes,Yes,,,,,,,,,,,,,,,,,,,,,,,,,,,,,,,,,,,Unknown,Unknown,,,,,,,,,,,,,,,,,,,,,
7091,7091,Beeches Farm,,"Beeches Farm, Bushbury Lane, Bushbury, Wolverhampton",West Midlands,West Midlands,WV10 8JT,,2018-01-01,Animal Production,M P Mason,,,Unknown,52.62382,-2.110468,West Midlands,,,,,,,,,,,,,,,,,,,,,,,,,,,,,,,,,,,,,,,,,,,,,,,,,,,,,,,,,,,,Unknown,Unknown,,,,,,,,,,,,,,,,,,,,,
50,50,J A Jewitt (Meat) Ltd,,"Low House, Middlestone Moor, Spennymoor",Durham,County Durham,DL16 7QD,,2018-01-01,Meat Slaughter,,,,Unknown,54.683948,-1.622735,County Durham,,,,Yes,Yes,Yes,Yes,Yes,Yes,Yes,,,,,Yes,Yes,,,,,Yes,Yes,Yes,Yes,Yes,,,,,,,,,,,,,,,,,,,,,,,,,,,,,,,,,,,Unknown,Unknown,,,,,,,,,,,,,,,,,,,,,
482,482,"Hill Top Farm, Hoyle Mill Farm, Mill Road Farm, Railway Farm, Willow Tree Farm, Hoyle Mill Road Poultry Unit",,"Hill Top Farm, Hoyle Mill Farm, Mill Road Farm, Railway Farm, Willow Tree Farm, Hoyle Mill Road Poultry Unit, Hoyle Mill Road, Hemsworth, Pontefract",Wakefield,West Yorkshire,WF9 5JB,,2020-10-01,Animal Production,Mr Jonathan Hay,,,Unknown,53.634845,-1.352492,West Yorkshire,,,,,,,,,,,,,,,,,,,,,,,,,,,,,,,,,,,,,,,,,,,,,,,,,,,,,,,,,,,,Unknown,Unknown,,,,,,,,,,,,,,,,,,,,,
656,656,"Bickmarsh Hall Farm, Bickmarsh Hall Pig Farm",,"Bickmarsh Hall Farm, Bickmarsh Hall Pig Farm, Honeybourne Road, Bidford-on-avon",Warwickshire,Worcestershire,B50 4PE,,2020-10-01,Animal Production,Green; Green,,,Unknown,52.143816,-1.841722,Worcestershire,,,,,,,,,,,,,,,,,,,,,,,,,,,,,,,,,,,,,,,,,,,,,,,,,,,,,,,,,,,,Unknown,Unknown,,,,,,,,,,,,,,,,,,,,,
1733,1733,Kittle Hill Poultry Farm,,"Kittle Hill Poultry Farm Kittle Hill Lane, Kittle, Bishopston, Swansea",West Glamorgan,Swansea,SA3 3JQ,,2020-01-01,Animal Production,Ridgeway Foods Ltd,,,Unknown,51.587561,-4.06151,Swansea,,,,,,,,,,,,,,,,,,,,,,,,,,,,,,,,,,,,,,,,,,,,,,,,,,,,,,,,,,,,Unknown,Unknown,,,,,,,,,,,,,,,,,,,,,
1518,1518,"Amber Hill Farm, Amber Hill Poultry Farm",,"Amber Hill Farm, Amber Hill Poultry Farm, Ullyatts Drove, Amber Hill, Boston",Lincolnshire,Lincolnshire,PE20 3RE,,2020-10-01,Animal Production,Hook 2 Sisters Limited,,,Unknown,52.984545,-0.160588,Lincolnshire,,,,,,,,,,,,,,,,,,,,,,,,,,,,,,,,,,,,,,,,,,,,,,,,,,,,,,,,,,,,Unknown,Unknown,,,,,,,,,,,,,,,,,,,,,
255,255,Strap Orchard Abattoir,,Hawker Bridge,Wincanton,Somerset,BA9 9EE,,2018-01-01,Meat Slaughter,,,,Unknown,51.051041,-2.415617,Somerset,,,,Yes,Yes,Yes,Yes,Yes,Yes,Yes,,,,,,,,,,,Yes,Yes,Yes,Yes,Yes,,,,,,,,,,,,,,,,,,,,,,,,,,,,,,,,,,,Unknown,Unknown,,,,,,,,,,,,,,,,,,,,,
792,792,Stonebridge Farm Poultry Unit,,"Stonebridge Farm Poultry Unit, Mattishall Road, Stonebridge Farm, Dereham",Norfolk,Norfolk,NR20 3BZ,,2020-10-01,Animal Production,Hook 2 Sisters Limited,,,Unknown,52.669734,0.998224,Norfolk,,,,,,,,,,,,,,,,,,,,,,,,,,,,,,,,,,,,,,,,,,,,,,,,,,,,,,,,,,,,Unknown,Unknown,,,,,,,,,,,,,,,,,,,,,
36,36,Linden Foods Burradon,,"Quarry Cottages, Burradon",Cramlington,Tyne and Wear,NE23 7NB,,2018-01-01,Meat Slaughter,,,,Unknown,55.050436,-1.572649,Tyne and Wear,,,,Yes,Yes,Yes,Yes,Yes,Yes,Yes,,,,,,,,,,,,,,Yes,Yes,,,,,,,,,,,,,,,,,,,,,,,,,,,,,,,,,,,Unknown,Unknown,,,,,,,,,,,,,,,,,,,,,
166,166,2 Sisters Food Group Ltd,,"The Factory, Grange Road, Flixton",Bungay,Suffolk,NR35 1NT,,2018-01-01,Meat Slaughter,,,,Unknown,52.422079,1.396435,Suffolk,,,,Yes,Yes,,,,,,,,,,,,,,,,,,,,,,,,,,,,,,,Yes,Yes,,,,,,,,,,,,,,,,,,,,,,,Unknown,Unknown,,,,,,,,,,,,,,,,,,,,,
838,838,Chapel Ascote Farm,,"Chapel Ascote Farm, Ladbroke",Warwickshire,Warwickshire,CV47 2DB,,2020-10-01,Animal Production,Chapel Ascote Farms Limited,,,Unknown,52.210593,-1.390378,Warwickshire,,,,,,,,,,,,,,,,,,,,,,,,,,,,,,,,,,,,,,,,,,,,,,,,,,,,,,,,,,,,Unknown,Unknown,,,,,,,,,,,,,,,,,,,,,
1512,1512,"Crockway Farm, Upper And Lower Pig Units At",,"Crockway Farm, Upper And Lower Pig Units At, Maiden Newton, Dorchester",Dorset,Dorset,DT2 0BY,,2020-10-01,Animal Production,Crockway Farms Limited,,,Unknown,50.762284,-2.54594,Dorset,,,,,,,,,,,,,,,,,,,,,,,,,,,,,,,,,,,,,,,,,,,,,,,,,,,,,,,,,,,,Unknown,Unknown,,,,,,,,,,,,,,,,,,,,,
260,260,Stillmans (Somerset) Ltd,,"Staplegrove Mills, Staplegrove",Taunton,Somerset,TA2 6PX,,2018-01-01,Meat Slaughter,,,,Unknown,51.032767,-3.134027,Somerset,,,,Yes,Yes,Yes,Yes,Yes,Yes,Yes,,,,,Yes,Yes,,,,,Yes,Yes,Yes,Yes,Yes,,,,,,,,,,,,,,,,,,,,,,,,,,,,,,,,,,,Unknown,Unknown,,,,,,,,,,,,,,,,,,,,,
484,484,Stack Field Farm,,"Stack Field Farm, Fosse Way, Nottingham",Nottinghamshire,Nottinghamshire,NG12 2JU,,2020-10-01,Animal Production,Moy Park Limited,,,Unknown,52.919611,-1.00279,Nottinghamshire,,,,,,,,,,,,,,,,,,,,,,,,,,,,,,,,,,,,,,,,,,,,,,,,,,,,,,,,,,,,Unknown,Unknown,,,,,,,,,,,,,,,,,,,,,
652,652,"Eden Ford Poultry Unit, Edenford, Poultry Unit",,"Eden Ford Poultry Unit, Edenford, Poultry Unit, Randlaw Lane, Carlisle",Cumbria,Cumbria,CA8 2BZ,,2020-10-01,Animal Production,Moy Park Limited,,,Unknown,54.865843,-2.781614,Cumbria,,,,,,,,,,,,,,,,,,,,,,,,,,,,,,,,,,,,,,,,,,,,,,,,,,,,,,,,,,,,Unknown,Unknown,,,,,,,,,,,,,,,,,,,,,
3686,3686,Addingrove Farm,,"Addingrove Farm, Brill, Aylesbury",Buckinghamshire,Buckinghamshire,HP18 9SF,,2018-01-01,Animal Production,P J Johnson & Sons,,,Unknown,51.795525,-1.038268,Buckinghamshire,,,,,,,,,,,,,,,,,,,,,,,,,,,,,,,,,,,,,,,,,,,,,,,,,,,,,,,,,,,,Unknown,Unknown,,,,,,,,,,,,,,,,,,,,,
141,141,Woodhead Bros,,"The Abattoir, Junction Street, Whitewalls Industrial Estate",Colne,Lancashire,BB8 8LH,,2018-01-01,Meat Slaughter,,,,Unknown,53.847544,-2.198292,Lancashire,,,,Yes,Yes,Yes,Yes,Yes,Yes,Yes,,,,,Yes,Yes,,,,,Yes,Yes,Yes,Yes,Yes,,,,,,,,,,,,,,,,,,,,,,,,,,,,,,,,,,,Unknown,Unknown,,,,,,,,,,,,,,,,,,,,,
216,216,M K (Wales) Ltd T/A (Maddock Kembery Meats),,"The Abattoir, Bridgend Road, Garth",Maesteg,Bridgend County Borough,CF34 0NW,,2018-01-01,Meat Slaughter,,,,Unknown,51.605134,-3.643938,Bridgend County Borough,,,,Yes,Yes,Yes,Yes,Yes,Yes,Yes,,,,,Yes,Yes,,,,,Yes,Yes,Yes,Yes,Yes,,,,,,,,,,,,,,,,,,,,,,,,,,,,,,,,,,,Unknown,Unknown,,,,,,,,,,,,,,,,,,,,,
8125,8125,Tafarn-y-bugail,,"Tafarn-y-bugail, Llangoedmore, Cardigan",Ceredigion,Ceredigion,SA43 2NA,,2018-01-01,Animal Production,Griffiths Brothers Ltd,,,Unknown,52.086396,-4.555053,Ceredigion,,,,,,,,,,,,,,,,,,,,,,,,,,,,,,,,,,,,,,,,,,,,,,,,,,,,,,,,,,,,Unknown,Unknown,,,,,,,,,,,,,,,,,,,,,
109,109,C H Rowley Ltd,,"Glenside, Ansley Lane, Arley",Coventry,Warwickshire,CV7 8FU,,2018-01-01,Meat Slaughter,,,,Unknown,52.515897,-1.579254,Warwickshire,,,,Yes,Yes,Yes,Yes,Yes,Yes,Yes,,,,,Yes,Yes,,,,,Yes,Yes,Yes,Yes,Yes,,,,,,,,,,,,,,,,,,,,,,,,,,,,,,,,,,,Unknown,Unknown,,,,,,,,,,,,,,,,,,,,,
333,333,"Leverton Farm, Poultry Unit",,"Leverton Farm, Poultry Unit, Oldfield Lane, Outgate, Boston, Lincolnshire",Pe22 Oag,Lincolnshire,,,2020-10-01,Animal Production,Hook 2 Sisters Limited,,,Unknown,53.014911,0.121605,Lincolnshire,,,,,,,,,,,,,,,,,,,,,,,,,,,,,,,,,,,,,,,,,,,,,,,,,,,,,,,,,,,,Unknown,Unknown,,,,,,,,,,,,,,,,,,,,,
1379,1379,"Swanhams Farm, Swanhams Poultry Unit",,"Swanhams Farm, Swanhams Poultry Unit, Swanhams Lane, Sampford Peverell",Devon,Devon,EX16 7ED,,2020-10-01,Animal Production,Hook 2 Sisters Limited,,,Unknown,50.903929,-3.384229,Devon,,,,,,,,,,,,,,,,,,,,,,,,,,,,,,,,,,,,,,,,,,,,,,,,,,,,,,,,,,,,Unknown,Unknown,,,,,,,,,,,,,,,,,,,,,
97,97,Faccenda Foods Limited (T/A Avara Foods),,"Holly Bank Farm, Scropton Road",Scropton,Derbyshire,DE65 5PS,,2018-01-01,Meat Slaughter,,,,Unknown,52.867263,-1.703845,Derbyshire,,,,Yes,Yes,,,,,,,,,,,,,,,,,,,,,,,,,,,,,,,Yes,Yes,,,,,,,,,,,,,,,,,,,,,,,Unknown,Unknown,,,,,,,,,,,,,,,,,,,,,
3584,3584,Acres Farm,,"Acres Farm, Backford, Chester",Cheshire,Cheshire West and Chester,CH1 6PE,,2018-01-01,Animal Production,W H Littler & Son,,,Unknown,53.250812,-2.917289,Cheshire West and Chester,,,,,,,,,,,,,,,,,,,,,,,,,,,,,,,,,,,,,,,,,,,,,,,,,,,,,,,,,,,,Unknown,Unknown,,,,,,,,,,,,,,,,,,,,,
645,645,Old Newton - Whitegates Farm,,"Old Newton - Whitegates Farm, Hook 2 Sisters Limited, Church Road",Old Newton,Suffolk,IP14 4ED,,2020-10-01,Animal Production,Hook 2 Sisters Limited,,,Unknown,52.224078,1.008513,Suffolk,,,,,,,,,,,,,,,,,,,,,,,,,,,,,,,,,,,,,,,,,,,,,,,,,,,,,,,,,,,,Unknown,Unknown,,,,,,,,,,,,,,,,,,,,,
266,266,J V Richards (Rietfontein) Ltd,,,Truro,Cornwall,,,2018-01-01,Meat Slaughter,,,,Unknown,50.263195,-5.051041,Cornwall,,,,Yes,Yes,Yes,Yes,Yes,Yes,Yes,,,,,Yes,Yes,,,,,Yes,Yes,Yes,Yes,Yes,,,,,,,,,,,,,,,,,,,,,,,,,,,,,,,,,,,Unknown,Unknown,,,,,,,,,,,,,,,,,,,,,
1517,1517,"Harper Farm, Poultry Unit",,"Harper Farm, Poultry Unit, Whitehall Road, Leeds",West Yorkshire,West Yorkshire,LS12 6JU,,2020-10-01,Animal Production,C. R. & G. Stephenson Limited,,,Unknown,53.776287,-1.611497,West Yorkshire,,,,,,,,,,,,,,,,,,,,,,,,,,,,,,,,,,,,,,,,,,,,,,,,,,,,,,,,,,,,Unknown,Unknown,,,,,,,,,,,,,,,,,,,,,
8721,8721,Pancross Farm,,"Pancross Farm, Llancarfan, Barry",Vale Of Glamorgan,Vale of Glamorgan,CF62 3AJ,,2018-01-01,Animal Production,V J Thomas & Son Ltd,,,Unknown,51.418788,-3.369435,Vale of Glamorgan,,,,,,,,,,,,,,,,,,,,,,,,,,,,,,,,,,,,,,,,,,,,,,,,,,,,,,,,,,,,Unknown,Unknown,,,,,,,,,,,,,,,,,,,,,
183,183,Lincolnshire Meat Company Ltd,,Dysart Road,Grantham,Lincolnshire,NG31 7DA,,2018-01-01,Meat Slaughter,,,,Unknown,52.911004,-0.647132,Lincolnshire,,,,Yes,Yes,Yes,Yes,Yes,Yes,Yes,,,,,Yes,Yes,,,,,Yes,Yes,Yes,Yes,Yes,,,,,,,,,,,,,,,,,,,,,,,,,,,,,,,,,,,Unknown,Unknown,,,,,,,,,,,,,,,,,,,,,
265,265,Gages Farm Ltd,,,Ashburton,Devon,,,2018-01-01,Meat Slaughter,,,,Unknown,50.508622,-3.764603,Devon,,,,Yes,Yes,Yes,Yes,Yes,Yes,Yes,,,,,Yes,Yes,,,,,Yes,Yes,Yes,Yes,Yes,,,,,,,,,Yes,,,,,,,,,,,,,,,,,,,,,,,,,,Unknown,Unknown,,,,,,,,,,,,,,,,,,,,,
582,582,Campney Grange Farm Poultry Unit,,"Campney Grange Farm Poultry Unit, Campney Lane, Bucknall",Lincolnshire,Lincolnshire,LN10 5DX,,2020-10-01,Animal Production,Moy Park Limited,,,Unknown,53.188898,-0.260981,Lincolnshire,,,,,,,,,,,,,,,,,,,,,,,,,,,,,,,,,,,,,,,,,,,,,,,,,,,,,,,,,,,,Unknown,Unknown,,,,,,,,,,,,,,,,,,,,,
149,149,Ahmed Jeewa & Sons,,132 Wednesbury Road,Walsall,West Midlands,WS1 4JJ,,2018-01-01,Meat Slaughter,,,,Unknown,52.576287,-1.990272,West Midlands,,,,Yes,Yes,,,,,,,,,,,,,,,,,,,,,,,,,,,,,,,Yes,Yes,,,,,,,,,,,,,,,,,,,,,,,Unknown,Unknown,,,,,,,,,,,,,,,,,,,,,
108,108,Beesons Limited,,"Bradeley Abbattoir, Bradeley Hall Road, Haslington",Crewe,Cheshire East,CW1 5QF,,2018-01-01,Meat Slaughter,,,,Unknown,53.10033,-2.403625,Cheshire East,,,,Yes,Yes,Yes,Yes,Yes,Yes,Yes,,,,,,,,,,,,,,Yes,Yes,,,,,,,,,,,,,,,,,,,,,,,,,,,,,,,,,,,Unknown,Unknown,,,,,,,,,,,,,,,,,,,,,
651,651,"Blenheim Farm, Poultry Unit",,"Blenheim Farm, Poultry Unit, Gainsborough Road, Northorpe",Lincolnshire,Lincolnshire,DN21 4AR,,2020-10-01,Animal Production,Hook 2 Sisters Limited,,,Unknown,53.455099,-0.664647,Lincolnshire,,,,,,,,,,,,,,,,,,,,,,,,,,,,,,,,,,,,,,,,,,,,,,,,,,,,,,,,,,,,Unknown,Unknown,,,,,,,,,,,,,,,,,,,,,
733,733,"Bourne Farm Piggery, Bourne Farm",,"Bourne Farm Piggery, Bourne Farm, Bourne Park, Piddlehinton, Dorchester",Dorset,Dorset,DT2 7TU,,2020-10-01,Animal Production,Allen (hanford) Limited,,,Unknown,50.772916,-2.382953,Dorset,,,,,,,,,,,,,,,,,,,,,,,,,,,,,,,,,,,,,,,,,,,,,,,,,,,,,,,,,,,,Unknown,Unknown,,,,,,,,,,,,,,,,,,,,,
268,268,C and S Meats Limited,,"White House Lane, Holnest",Sherbourne,Dorset,DT9 6HX,,2018-01-01,Meat Slaughter,,,,Unknown,50.883296,-2.513032,Dorset,,,,Yes,Yes,Yes,Yes,Yes,Yes,Yes,,,,,Yes,Yes,,,,,Yes,Yes,Yes,Yes,Yes,,,,,,,,,Yes,,,,,,,,,,,,,,,,,,,,,,,,,,Unknown,Unknown,,,,,,,,,,,,,,,,,,,,,
1075,1075,"Worden Farm, Poultry Unit",,"Worden Farm, Poultry Unit, Milton Damerel",Devon,Devon,EX22 7NT,,2020-10-01,Animal Production,Oaklands Farm Eggs Limited,,,Unknown,50.882268,-4.305064,Devon,,,,,,,,,,,,,,,,,,,,,,,,,,,,,,,,,,,,,,,,,,,,,,,,,,,,,,,,,,,,Unknown,Unknown,,,,,,,,,,,,,,,,,,,,,
261,261,T & H Lobb Limited,,"Penvercoe Farm, Ruthern Bridge, Withiel",Bodmin,Cornwall,PL30 5LY,,2018-01-01,Meat Slaughter,,,,Unknown,50.466338,-4.798758,Cornwall,,,,Yes,Yes,Yes,Yes,Yes,Yes,Yes,,,,,Yes,Yes,,,,,Yes,Yes,Yes,Yes,Yes,,,,,,,,,Yes,,,,,,,,,,,,,,,,,,,,,,,,,,Unknown,Unknown,,,,,,,,,,,,,,,,,,,,,
405,405,"Frostenden Farm, And Wangford Farm",,"Frostenden Farm, And Wangford Farm, Frostenden Corner, Frostenden, Beccles",Suffolk,Suffolk,NR34 7JA,,2020-10-01,Animal Production,Hook 2 Sisters Limited,,,Unknown,52.366473,1.655047,Suffolk,,,,,,,,,,,,,,,,,,,,,,,,,,,,,,,,,,,,,,,,,,,,,,,,,,,,,,,,,,,,Unknown,Unknown,,,,,,,,,,,,,,,,,,,,,
111,111,ABP Kingswinford,,,Kingswinford,West Midlands,,,2018-01-01,Meat Slaughter,,,,Unknown,52.498172,-2.169995,West Midlands,,,,Yes,Yes,,,,,,,,,,,,,,,,,,,Yes,Yes,,,,,,,,,,,,,,,,,,,,,,,,,,,,,,,,,,,Unknown,Unknown,,,,,,,,,,,,,,,,,,,,,
232,232,Andrew David Havard,,"The Abattoir, Blackbrook Road",Caerphilly,Wales,CF83 1NF,,2018-01-01,Meat Slaughter,,,,Unknown,51.560776,-3.243758,Wales,,,,Yes,Yes,Yes,Yes,Yes,Yes,Yes,,,,,Yes,Yes,,,,,,,,Yes,Yes,,,,,,,,,,,,,,,,,,,,,,,,,,,,,,,,,,,Unknown,Unknown,,,,,,,,,,,,,,,,,,,,,
1280,1280,"Bluebell Farm (banham), Bluebell Farm (banham)",,"Bluebell Farm (banham), Bacton Road, North Walsham",Norfolk,Norfolk,NR28 0RA,,2020-10-01,Animal Production,Banham Poultry (2018) Limited,,,Unknown,52.828376,1.405038,Norfolk,,,,,,,,,,,,,,,,,,,,,,,,,,,,,,,,,,,,,,,,,,,,,,,,,,,,,,,,,,,,Unknown,Unknown,,,,,,,,,,,,,,,,,,,,,
1079,1079,Kate's Bridge Farm,,"Kate's Bridge Farm, Bourne Road, Baston",Cambridgeshire,Lincolnshire,PE6 9NT,,2020-10-01,Animal Production,Banham Poultry (2018) Limited,,,Unknown,52.72275,-0.359557,Lincolnshire,,,,,,,,,,,,,,,,,,,,,,,,,,,,,,,,,,,,,,,,,,,,,,,,,,,,,,,,,,,,Unknown,Unknown,,,,,,,,,,,,,,,,,,,,,
165,165,Shazan Foods Limited,,Magdalen Street,Eye,Suffolk,IP23 7AJ,,2018-01-01,Meat Slaughter,,,,Unknown,52.319609,1.145789,Suffolk,,,,Yes,Yes,,,,,,,,,,,,,,,,,,,,,,,,,,,,,,,Yes,Yes,,,,,,,,,,,,,,,,,,,,,,,Unknown,Unknown,,,,,,,,,,,,,,,,,,,,,
78,78,Severn Valley Lamb Limited,,"Newtown Abattoir, Stafford Road, Newtown",Great Wyrley,Staffordshire,WS6 6AY,,2018-01-01,Meat Slaughter,,,,Unknown,52.639573,-2.01198,Staffordshire,,,,Yes,Yes,Yes,Yes,Yes,Yes,Yes,,,,,,,,,,,Yes,Yes,Yes,Yes,Yes,,,,,,,,,,,,,,,,,,,,,,,,,,,,,,,,,,,Unknown,Unknown,,,,,,,,,,,,,,,,,,,,,
489,489,"Bridge Farm, Poultry Unit",,"Bridge Farm, Poultry Unit, Illington Road, Wretham",Norfolk,Norfolk,IP24 1RN,,2020-10-01,Animal Production,Hook 2 Sisters Limited,,,Unknown,52.472134,0.837925,Norfolk,,,,,,,,,,,,,,,,,,,,,,,,,,,,,,,,,,,,,,,,,,,,,,,,,,,,,,,,,,,,Unknown,Unknown,,,,,,,,,,,,,,,,,,,,,
1584,1584,Stickney Poultry Farm,,"Stickney Poultry Farm, Midville Lane, Stickney, Boston",Lincolnshire,Lincolnshire,PE22 8DN,,2020-10-01,Animal Production,Hook 2 Sisters Limited,,,Unknown,53.09235,0.017122,Lincolnshire,,,,,,,,,,,,,,,,,,,,,,,,,,,,,,,,,,,,,,,,,,,,,,,,,,,,,,,,,,,,Unknown,Unknown,,,,,,,,,,,,,,,,,,,,,
6814,6814,North Down Farm,,"North Down Farm, Patching, Worthing",West Sussex,West Sussex,BN13 3UQ,,2018-01-01,Animal Production,R G Lampshire,,,Unknown,50.836703,-0.453963,West Sussex,,,,,,,,,,,,,,,,,,,,,,,,,,,,,,,,,,,,,,,,,,,,,,,,,,,,,,,,,,,,Unknown,Unknown,,,,,,,,,,,,,,,,,,,,,
224,224,David Thomas James Thomas Stephen Thomas & Simeon Thomas (T/A D & J Thomas),,"Beech Avenue, Rhos",Wrexham,Wrexham Principal Area,LL14 1AF,,2018-01-01,Meat Slaughter,,,,Unknown,53.009795,-3.056677,Wrexham Principal Area,,,,Yes,Yes,Yes,Yes,Yes,Yes,Yes,,,,,Yes,Yes,,,,,Yes,Yes,Yes,Yes,Yes,,,,,,,,,,,,,,,,,,,,,,,,,,,,,,,,,,,Unknown,Unknown,,,,,,,,,,,,,,,,,,,,,
107,107,G & G B Hewitt Ltd,,"The Abattoir, Chruch Lane, Huxley",Chester,Cheshire West and Chester,CH3 9BH,,2018-01-01,Meat Slaughter,,,,Unknown,53.142827,-2.719703,Cheshire West and Chester,,,,Yes,Yes,Yes,Yes,Yes,Yes,Yes,,,,,Yes,Yes,,,,,Yes,Yes,Yes,Yes,Yes,,,,,,,,,,,,,,,,,,,,,,,,,,,,,,,,,,,Unknown,Unknown,,,,,,,,,,,,,,,,,,,,,
161,161,Halal Services Company Ltd,,"The Abattoir, Wyresdale Road",Lancaster,Lancashire,LA1 3JQ,,2018-01-01,Meat Slaughter,,,,Unknown,54.04243,-2.780774,Lancashire,,,,Yes,Yes,Yes,Yes,Yes,Yes,Yes,,,,,,,,,,,Yes,Yes,Yes,Yes,Yes,,,,,,,,,,,,,,,,,,,,,,,,,,,,,,,,,,,Unknown,Unknown,,,,,,,,,,,,,,,,,,,,,
523,523,Black Barn Farm,,"Black Barn Farm, Ipsden, Wallingford",Oxon,Oxfordshire,OX10 6AE,,2020-10-01,Animal Production,Allen; Allen; Allen; Allen; Allen; Strainge; Allen; Allen; Hawson; Spa,,,Unknown,51.571437,-1.096929,Oxfordshire,,,,,,,,,,,,,,,,,,,,,,,,,,,,,,,,,,,,,,,,,,,,,,,,,,,,,,,,,,,,Unknown,Unknown,,,,,,,,,,,,,,,,,,,,,
17,17,James Chapman (Butchers) Ltd T/A  Shotts Abattoir,,,Shotts,North Lanarkshire,,,2018-01-01,Meat Slaughter,,,,Unknown,55.823882,-3.806396,North Lanarkshire,,,,Yes,Yes,Yes,Yes,Yes,Yes,Yes,,,,,Yes,Yes,,,,,Yes,Yes,Yes,Yes,Yes,,,,,,,,,,,,,,,,,,,,,,,,,,,,,,,,,,,Unknown,Unknown,,,,,,,,,,,,,,,,,,,,,
304,304,"Broadley Copse Farm, Pig Unit",,"Broadley Copse Farm, Pig Unit, Downs Road, Funtington, Chichester",West Sussex,West Sussex,PO18 9BT,,2020-10-01,Animal Production,Allen; Hawson; Allen; Strainge,,,Unknown,50.872887,-0.846254,West Sussex,,,,,,,,,,,,,,,,,,,,,,,,,,,,,,,,,,,,,,,,,,,,,,,,,,,,,,,,,,,,Unknown,Unknown,,,,,,,,,,,,,,,,,,,,,
5,5,Neerock Limited (T/A Woodhead Brothers),,,Turriff,Aberdeenshire,,,2018-01-01,Meat Slaughter,,,,Unknown,57.538932,-2.4623,Aberdeenshire,,,,Yes,Yes,Yes,Yes,Yes,Yes,Yes,,,,,,,,,,,,,,Yes,Yes,,,,,,,,,,,,,,,,,,,,,,,,,,,,,,,,,,,Unknown,Unknown,,,,,,,,,,,,,,,,,,,,,
155,155,Kosher Poultry Limited,,"35 - 51 Collingham Street, Cheetham Hill",Manchester,Greater Manchester,M8 8RQ,,2018-01-01,Meat Slaughter,,,,Unknown,53.495255,-2.232988,Greater Manchester,,,,Yes,Yes,,,,,,,,,,,,,,,,,,,,,,,,,,,,,,,Yes,Yes,,,,,,,,,,,,,,,,,,,,,,,Unknown,Unknown,,,,,,,,,,,,,,,,,,,,,
793,793,Somerby Top Farm,,"Somerby Top Farm, Somerby Wold Lane, Somerby, Barnetby",South Humberside,Lincolnshire,DN38 6BN,,2020-10-01,Animal Production,Elsham Linc Limited,,,Unknown,53.552174,-0.372786,Lincolnshire,,,,,,,,,,,,,,,,,,,,,,,,,,,,,,,,,,,,,,,,,,,,,,,,,,,,,,,,,,,,Unknown,Unknown,,,,,,,,,,,,,,,,,,,,,
256,256,F Drury & Sons Limited,,"The Abattoir, Tockenham Corner, Tockenham",Swindon,Wiltshire,SN4 7PF,,2018-01-01,Meat Slaughter,,,,Unknown,51.52388,-1.947111,Wiltshire,,,,Yes,Yes,Yes,Yes,Yes,Yes,Yes,,,,,,,,,,,Yes,Yes,Yes,Yes,Yes,,,,,,,,,,,,,,,,,,,,,,,,,,,,,,,,,,,Unknown,Unknown,,,,,,,,,,,,,,,,,,,,,
565,565,"R J & A E Godfrey, Southwold, Wilfred's Top, Elsham Manor 1 & 2",,"R J & A E Godfrey, Southwold, Wilfred's Top, Elsham Manor 1 & 2, Elsham Wolds, Brigg",South Humberside,North Lincolnshire,DN20 0NU,,2020-10-01,Animal Production,Elsham Linc Limited,,,Unknown,53.61496,-0.429036,North Lincolnshire,,,,,,,,,,,,,,,,,,,,,,,,,,,,,,,,,,,,,,,,,,,,,,,,,,,,,,,,,,,,Unknown,Unknown,,,,,,,,,,,,,,,,,,,,,
37,37,Karro Food Limited (T/A Malton Bacon Factory),,"Hugden Way, Norton Grove Industrial Estate",Malton,North Yorkshire,YO17 9HG,,2018-01-01,Meat Slaughter,,,,Unknown,54.132227,-0.77111,North Yorkshire,,,,Yes,Yes,,,,,,,,,,Yes,Yes,,,,,,,,,,,,,,,,,,,,,,,,,,,,,,,,,,,,,,,,,,,,Unknown,Unknown,,,,,,,,,,,,,,,,,,,,,
148,148,Taj & Co,,"100 Hamstead Road, Handsworth",Birmingham,West Midlands,B19 1DG,,2018-01-01,Meat Slaughter,,,,Unknown,52.501938,-1.918598,West Midlands,,,,Yes,Yes,,,,,,,,,,,,,,,,,,,,,,,,,,,,,,,Yes,Yes,,,,,,,,,,,,,,,,,,,,,,,Unknown,Unknown,,,,,,,,,,,,,,,,,,,,,
94,94,Freemans of Newent Limited,,Grandstand Road,Hereford,Herefordshire,HR4 9PB,,2018-01-01,Meat Slaughter,,,,Unknown,52.068778,-2.735206,Herefordshire,,,,Yes,Yes,,,,,,,,,,,,,,,,,,,,,,,,,,,,,,,Yes,Yes,,,,,,,,,,,,,,,,,,,,,,,Unknown,Unknown,,,,,,,,,,,,,,,,,,,,,
81,81,Iqbal Poultry,,"Coulman Street, Thorne",Doncaster,South Yorkshire,DN8 5JT,,2018-01-01,Meat Slaughter,,,,Unknown,53.613479,-0.950006,South Yorkshire,,,,Yes,Yes,,,,,,,,,,,,,,,,,,,,,,,,,,,,,,,Yes,Yes,,,,,,,,,,,,,,,,,,,,,,,Unknown,Unknown,,,,,,,,,,,,,,,,,,,,,
1627,1627,Skeyton Poultry Unit,,"Skeyton Poultry Unit, Skeyton Road, North Walsham",Norfolk,Norfolk,NR28 0LU,,2020-10-01,Animal Production,Banham Poultry (2018) Limited,,,Unknown,52.801111,1.354969,Norfolk,,,,,,,,,,,,,,,,,,,,,,,,,,,,,,,,,,,,,,,,,,,,,,,,,,,,,,,,,,,,Unknown,Unknown,,,,,,,,,,,,,,,,,,,,,
101,101,F A Gill Limited,,"Parkfields, Parkfield Road",Wolverhampton,West Midlands,WV4 6EH,,2018-01-01,Meat Slaughter,,,,Unknown,52.566826,-2.113405,West Midlands,,,,Yes,Yes,,,,,,,,,,Yes,Yes,,,,,,,,,,,,,,,,,,,,,,,,,,,,,,,,,,,,,,,,,,,,Unknown,Unknown,,,,,,,,,,,,,,,,,,,,,
128,128,Joseph Morris Butchers Limited,,"Walcote Road, South Kilworth",Lutterworth,Leicestershire,LE17 6EG,,2018-01-01,Meat Slaughter,,,,Unknown,52.431833,-1.112926,Leicestershire,,,,Yes,Yes,Yes,Yes,Yes,Yes,Yes,,,,,Yes,Yes,,,,,Yes,Yes,Yes,Yes,Yes,,,,,,,,,,,,,,,,,,,,,,,,,,,,,,,,,,,Unknown,Unknown,,,,,,,,,,,,,,,,,,,,,
1530,1530,"Wimpstone Fields Farm, Wimpstone Fields Poultry Farm",,"Wimpstone Fields Farm, Wimpstone Fields Poultry Farm, Wimpstone, Whitchurch",Warwickshire,Warwickshire,CV37 8NN,,2020-10-01,Animal Production,Mr Jonathan Hay,,,Unknown,52.121651,-1.684476,Warwickshire,,,,,,,,,,,,,,,,,,,,,,,,,,,,,,,,,,,,,,,,,,,,,,,,,,,,,,,,,,,,Unknown,Unknown,,,,,,,,,,,,,,,,,,,,,
9453,9453,Seckington Dairies,,"Seckington Dairies, Hartland, Bideford, Null",North Devon,Devon,EX39 5SG,,2018-01-01,Animal Production,L J T G Goaman & Sons,,,Unknown,50.972459,-4.434742,Devon,,,,,,,,,,,,,,,,,,,,,,,,,,,,,,,,,,,,,,,,,,,,,,,,,,,,,,,,,,,,Unknown,Unknown,,,,,,,,,,,,,,,,,,,,,
655,655,Landshire Poultry Unit,,"Landshire Poultry Unit, Landshire Lane, Henstridge",Somerset,Dorset,BA8 0TN,,2020-10-01,Animal Production,M.b. Crocker Limited,,,Unknown,50.980406,-2.351036,Dorset,,,,,,,,,,,,,,,,,,,,,,,,,,,,,,,,,,,,,,,,,,,,,,,,,,,,,,,,,,,,Unknown,Unknown,,,,,,,,,,,,,,,,,,,,,
1215,1215,"The Wood Farm, Poultry Unit",,"The Wood Farm, Poultry Unit, Wheathill, Burwarton, Bridgnorth",Shropshire,Shropshire,WV16 6QT,,2020-10-01,Animal Production,I & J Preece & Son Limited,,,Unknown,52.428298,-2.604972,Shropshire,,,,,,,,,,,,,,,,,,,,,,,,,,,,,,,,,,,,,,,,,,,,,,,,,,,,,,,,,,,,Unknown,Unknown,,,,,,,,,,,,,,,,,,,,,
75,75,A. J. Leese Turkeys Ltd,,"Goldhurst Farm, Goldhurst, Hollington",Stoke-on-Trent,Staffordshire,ST10 4HY,,2018-01-01,Meat Slaughter,,,,Unknown,52.95172,-1.954748,Staffordshire,,,,Yes,Yes,,,,,,,,,,,,,,,,,,,,,,,,,,,,,,,Yes,Yes,,,,,,,,,,,,,,,,,,,,,,,Unknown,Unknown,,,,,,,,,,,,,,,,,,,,,
86,86,Cranswick Country Foods Eye,,"Cranswick House, Oaksmere Business Park, Eye Industrial Estate",Yaxley,Suffolk,IP23 8BW,,2019-12-01,Meat Slaughter,,,,Unknown,52.329677,1.125011,Suffolk,,,,Yes,Yes,,,,,,,,,,,,,,,,,,,,,,,,,,,,,,,Yes,Yes,,,,,,,,,,,,,,,,,,,,,,,Unknown,Unknown,,,,,,,,,,,,,,,,,,,,,
1056,1056,Red Hall Farm,,"Red Hall Farm, Middlewich Road, Leighton",Cheshire,Cheshire East,CW1 4QU,,2020-10-01,Animal Production,Red Hall Farming Limited,,,Unknown,53.121604,-2.479115,Cheshire East,,,,,,,,,,,,,,,,,,,,,,,,,,,,,,,,,,,,,,,,,,,,,,,,,,,,,,,,,,,,Unknown,Unknown,,,,,,,,,,,,,,,,,,,,,
154,154,Wootton Organic Wholesale Ltd.,,"Wootton Estate, Ramshorn Road, Farley",Oakamoor,Staffordshire,ST10 3BZ,,2018-01-01,Meat Slaughter,,,,Unknown,53.006862,-1.892433,Staffordshire,,,,Yes,Yes,,,,,,,,,,Yes,Yes,,,,,Yes,Yes,Yes,Yes,Yes,,,,,,,,,Yes,,Yes,Yes,,,,,,,,,,,,,,,,,,,,,,,Unknown,Unknown,,,,,,,,,,,,,,,,,,,,,
247,247,Dunbia Jaspers,,"Botathan Abattoir, South Petherwin",Launceston,Cornwall,PL15 7JL,,2018-01-01,Meat Slaughter,,,,Unknown,50.6102,-4.419971,Cornwall,,,,Yes,Yes,,,,,,,,,,,,,,,,Yes,Yes,Yes,Yes,Yes,,,,,,,,,,,,,,,,,,,,,,,,,,,,,,,,,,,Unknown,Unknown,,,,,,,,,,,,,,,,,,,,,
54,54,Foyle Gloucester,,"Forest Vale Industrial Estate, Forest Vale Road",Cinderford,Gloucestershire,GL14 2PH,,2018-01-01,Meat Slaughter,,,,Unknown,51.825747,-2.510608,Gloucestershire,,,,Yes,Yes,Yes,Yes,Yes,Yes,Yes,,,,,,,,,,,,,,Yes,Yes,,,,,,,,,,,,,,,,,,,,,,,,,,,,,,,,,,,Unknown,Unknown,,,,,,,,,,,,,,,,,,,,,
1407,1407,"Hollywood Farm, Poultry Unit",,"Hollywood Farm, Poultry Unit, East Butterwick Road, Messingham, Scunthorpe",Lincolnshire,North Lincolnshire,DN17 3AU,,2020-10-01,Animal Production,P.d. Hook (breeders) Limited,,,Unknown,53.530354,-0.714488,North Lincolnshire,,,,,,,,,,,,,,,,,,,,,,,,,,,,,,,,,,,,,,,,,,,,,,,,,,,,,,,,,,,,Unknown,Unknown,,,,,,,,,,,,,,,,,,,,,
573,573,"Pity Me, Poultry Unit",,"Pity Me, Poultry Unit, Potterhouse Lane",County Durham,County Durham,DH1 5RL,,2020-10-01,Animal Production,Hook 2 Sisters Limited,,,Unknown,54.806293,-1.593745,County Durham,,,,,,,,,,,,,,,,,,,,,,,,,,,,,,,,,,,,,,,,,,,,,,,,,,,,,,,,,,,,Unknown,Unknown,,,,,,,,,,,,,,,,,,,,,
175,175,Pilgrimâ€™s Pride Ltd T/A Dalehead Foods Spalding,,Fulney Lane North,Spalding,Lincolnshire,PE12 6EP,,2018-01-01,Meat Slaughter,,,,Unknown,52.795487,-0.12612,Lincolnshire,,,,Yes,Yes,,,,,,,,,,Yes,Yes,,,,,,,,,,,,,,,,,,,,,,,,,,,,,,,,,,,,,,,,,,,,Unknown,Unknown,,,,,,,,,,,,,,,,,,,,,
704,704,"Littlehales Manor Poultry Farm, Littlehales Manor Poultry Farm",,"Littlehales Manor Poultry Farm, Littleshall, Newport",Shropshire,Telford and Wrekin,TF10 9AS,,2020-10-01,Animal Production,H Timmis (farms) Limited,,,Unknown,52.74547,-2.372161,Telford and Wrekin,,,,,,,,,,,,,,,,,,,,,,,,,,,,,,,,,,,,,,,,,,,,,,,,,,,,,,,,,,,,Unknown,Unknown,,,,,,,,,,,,,,,,,,,,,
225,225,Cyril Jones and Stephen Jones T/A Jones Brothers,,"Stansty Lodge, Mold Road",Wrexham,Wrexham Principal Area,LL11 4YF,,2018-01-01,Meat Slaughter,,,,Unknown,53.060547,-3.012237,Wrexham Principal Area,,,,Yes,Yes,Yes,Yes,Yes,Yes,Yes,,,,,Yes,Yes,,,,,Yes,Yes,Yes,Yes,Yes,,,,,,,,,,,,,,,,,,,,,,,,,,,,,,,,,,,Unknown,Unknown,,,,,,,,,,,,,,,,,,,,,
965,965,"Burbage, Southgrove Farm",,"Burbage, Southgrove Farm, Marlborough",Wiltshire,Wiltshire,SN8 3RX,,2020-10-01,Animal Production,Oaklands Farm Eggs Limited,,,Unknown,51.321047,-1.674213,Wiltshire,,,,,,,,,,,,,,,,,,,,,,,,,,,,,,,,,,,,,,,,,,,,,,,,,,,,,,,,,,,,Unknown,Unknown,,,,,,,,,,,,,,,,,,,,,
1598,1598,Woods End Farm,,"Woods End Farm, Upgate, Swannington",Norwich,Norfolk,NR9 5AH,,2020-10-01,Animal Production,Banham Poultry (2018) Limited,,,Unknown,52.714264,1.180633,Norfolk,,,,,,,,,,,,,,,,,,,,,,,,,,,,,,,,,,,,,,,,,,,,,,,,,,,,,,,,,,,,Unknown,Unknown,,,,,,,,,,,,,,,,,,,,,
617,617,"Wood Lane Farm Duck Unit, Wood Lane Farm Poultry Unit",,"Wood Lane Farm Duck Unit, Wood Lane Farm Poultry Unit, Wood Lane, Little Ellingham, Attleborough",Norfolk,Norfolk,NR17 1JZ,,2021-01-01,Animal Production,Banham Poultry (2018) Limited,,,Unknown,52.546746,0.967698,Norfolk,,,,,,,,,,,,,,,,,,,,,,,,,,,,,,,,,,,,,,,,,,,,,,,,,,,,,,,,,,,,Unknown,Unknown,,,,,,,,,,,,,,,,,,,,,
3700,3700,Mosley Hall Farm,,"Mosley Hall Farm, Whaley Bridge, High Peak",Derbyshire,Derbyshire,SK23 7EW,,2018-01-01,Animal Production,Mosley Hall Farming,,,Unknown,53.334801,-1.987736,Derbyshire,,,,,,,,,,,,,,,,,,,,,,,,,,,,,,,,,,,,,,,,,,,,,,,,,,,,,,,,,,,,Unknown,Unknown,,,,,,,,,,,,,,,,,,,,,
941,941,"Holgate Farm, Poultry Unit",,"Holgate Farm, Poultry Unit, Holgate Road, White Horse Common",Norfolk,Norfolk,NR28 9LP,,2020-10-01,Animal Production,Banham Poultry (2018) Limited,,,Unknown,52.805407,1.412444,Norfolk,,,,,,,,,,,,,,,,,,,,,,,,,,,,,,,,,,,,,,,,,,,,,,,,,,,,,,,,,,,,Unknown,Unknown,,,,,,,,,,,,,,,,,,,,,
435,435,Galley Hill Farm Poultry Unit,,"Galley Hill Farm Poultry Unit, Cambridge Road, Hemingford Grey",Cambridgeshire,Cambridgeshire,PE28 9HL,,2020-10-01,Animal Production,Hook 2 Sisters Limited,,,Unknown,52.303022,-0.091273,Cambridgeshire,,,,,,,,,,,,,,,,,,,,,,,,,,,,,,,,,,,,,,,,,,,,,,,,,,,,,,,,,,,,Unknown,Unknown,,,,,,,,,,,,,,,,,,,,,
649,649,"Kates Hole Farm, Kates Hole Site",,"Kates Hole Farm, Kates Hole Site, Picton Road, Tharston, Long Stratton",Norfolk,Norfolk,NR15 2YD,,2020-10-01,Animal Production,Banham Poultry (2018) Limited,,,Unknown,52.496981,1.232855,Norfolk,,,,,,,,,,,,,,,,,,,,,,,,,,,,,,,,,,,,,,,,,,,,,,,,,,,,,,,,,,,,Unknown,Unknown,,,,,,,,,,,,,,,,,,,,,
752,752,"Gt Friars Farm, Great Friars Poultry Farm",,"Gt Friars Farm, Great Friars Poultry Farm, Swaffham",Norfolk,Norfolk,PE37 7QA,,2020-10-01,Animal Production,Banham Poultry (2018) Limited,,,Unknown,52.660762,0.642321,Norfolk,,,,,,,,,,,,,,,,,,,,,,,,,,,,,,,,,,,,,,,,,,,,,,,,,,,,,,,,,,,,Unknown,Unknown,,,,,,,,,,,,,,,,,,,,,
98,98,Dunbia Preston,,"The Abattoir, Church Road, Bamber Bridge",Preston,Lancashire,PR5 6AJ,,2018-01-01,Meat Slaughter,,,,Unknown,53.720484,-2.660897,Lancashire,,,,Yes,Yes,Yes,Yes,Yes,Yes,Yes,,,,,,,,,,,Yes,Yes,Yes,Yes,Yes,,,,,,,,,,,,,,,,,,,,,,,,,,,,,,,,,,,Unknown,Unknown,,,,,,,,,,,,,,,,,,,,,
618,618,"Middle Farm, & Saw Pit Farm",,"Middle Farm, & Saw Pit Farm, Thetford Road, East Wretham",Norfolk,Norfolk,IP24 1RB,,2020-10-01,Animal Production,Banham Poultry (2018) Limited,,,Unknown,52.471258,0.818133,Norfolk,,,,,,,,,,,,,,,,,,,,,,,,,,,,,,,,,,,,,,,,,,,,,,,,,,,,,,,,,,,,Unknown,Unknown,,,,,,,,,,,,,,,,,,,,,
743,743,Cuttings Farm,,"Cuttings Farm, Larkshall, Thetford Road",East Wretham,Norfolk,IP24 1QZ,,2020-10-01,Animal Production,Banham Poultry (2018) Limited,,,Unknown,52.463895,0.840192,Norfolk,,,,,,,,,,,,,,,,,,,,,,,,,,,,,,,,,,,,,,,,,,,,,,,,,,,,,,,,,,,,Unknown,Unknown,,,,,,,,,,,,,,,,,,,,,
11845,11845,Homelands Nordan Farm,,"Homelands Nordan Farm, Luston, Leominster",Herefordshire,Herefordshire,HR6 0AJ,,2018-01-01,Animal Production,D H Pritchard,,,Unknown,52.24602,-2.746494,Herefordshire,,,,,,,,,,,,,,,,,,,,,,,,,,,,,,,,,,,,,,,,,,,,,,,,,,,,,,,,,,,,Unknown,Unknown,,,,,,,,,,,,,,,,,,,,,
303,303,"South Allenford Farm, Allenford Farms Pig Unit",,"South Allenford Farm, Allenford Farms Pig Unit, Damerham, Fordingbridge",Hampshire,Hampshire,SP6 3JW,,2020-10-01,Animal Production,Allenford Farms,,,Unknown,50.956402,-1.871989,Hampshire,,,,,,,,,,,,,,,,,,,,,,,,,,,,,,,,,,,,,,,,,,,,,,,,,,,,,,,,,,,,Unknown,Unknown,,,,,,,,,,,,,,,,,,,,,
146,146,Hashams Halal Poultry,,"74 Charles Road, Small Heath",Birmingham,West Midlands,B10 9EJ,,2018-01-01,Meat Slaughter,,,,Unknown,52.470344,-1.852078,West Midlands,,,,Yes,Yes,,,,,,,,,,,,,,,,,,,,,,,,,,,,,,,Yes,Yes,,,,,,,,,,,,,,,,,,,,,,,Unknown,Unknown,,,,,,,,,,,,,,,,,,,,,
99,99,Abp Ellesmere,,"The Abattoir, Hordley",Ellesmere,Shropshire,SY12 9BL,,2018-07-01,Meat Slaughter,,,,Unknown,52.85373,-2.896439,Shropshire,,,,Yes,Yes,Yes,Yes,Yes,Yes,Yes,,,,,,,,,,,,,,Yes,Yes,,,,,,,,,,,,,,,,,,,,,,,,,,,,,,,,,,,Unknown,Unknown,,,,,,,,,,,,,,,,,,,,,
455,455,Silver Drift Farm,,"Silver Drift Farm, Great Friars Thornes",Swaffham,Norfolk,PE37 7QA,,2020-10-01,Animal Production,Banham Poultry (2018) Limited,,,Unknown,52.660812,0.644099,Norfolk,,,,,,,,,,,,,,,,,,,,,,,,,,,,,,,,,,,,,,,,,,,,,,,,,,,,,,,,,,,,Unknown,Unknown,,,,,,,,,,,,,,,,,,,,,
1603,1603,Barley Brigg Farm,,"Barley Brigg Farm, Laxfield Road, Stradbroke",Suffolk,Suffolk,IP21 5NQ,,2020-10-01,Animal Production,Rattlerow Farms Limited,,,Unknown,52.314503,1.306564,Suffolk,,,,,,,,,,,,,,,,,,,,,,,,,,,,,,,,,,,,,,,,,,,,,,,,,,,,,,,,,,,,Unknown,Unknown,,,,,,,,,,,,,,,,,,,,,
20,20,AK Stoddart Ltd,,"Heathfield Abattoir, Heathfield Road",Ayr,South Ayrshire Council,KA8 9ST,,2018-01-01,Meat Slaughter,,,,Unknown,55.458564,-4.629179,South Ayrshire Council,,,,Yes,Yes,Yes,Yes,Yes,Yes,Yes,,,,,,,,,,,,,,Yes,Yes,,,,,,,,,,,,,,,,,,,,,,,,,,,,,,,,,,,Unknown,Unknown,,,,,,,,,,,,,,,,,,,,,
195,195,Kelly Turkey Farms Limited,,"Little Claydons Farm, Old Southend Road, Howe Green",Chelmsford,Essex,CM2 7TB,,2018-01-01,Meat Slaughter,,,,Unknown,51.688065,0.527789,Essex,,,,Yes,Yes,,,,,,,,,,,,,,,,,,,,,,,,,,,,,,,Yes,Yes,,,,,,,,,,,,,,,,,,,,,,,Unknown,Unknown,,,,,,,,,,,,,,,,,,,,,
1428,1428,"Thorngrove, Poultry Farm",,"Thorngrove, Poultry Farm, Sinton Green, Hallow",Worcestershire,Worcestershire,WR2 6NP,,2020-10-01,Animal Production,Hickton; Hickton,,,Unknown,52.237233,-2.261861,Worcestershire,,,,,,,,,,,,,,,,,,,,,,,,,,,,,,,,,,,,,,,,,,,,,,,,,,,,,,,,,,,,Unknown,Unknown,,,,,,,,,,,,,,,,,,,,,
89,89,Pickstock Foods Ltd,,"The Abattoir, 2 Coal Lane",Hartshorne,Derbyshire,DE11 7FN,,2020-08-01,Meat Slaughter,,,,Unknown,52.790274,-1.512327,Derbyshire,,,,Yes,Yes,,,,,,,,,,,,,,,,Yes,Yes,Yes,Yes,Yes,,,,,,,,,,,,,,,,,,,,,,,,,,,,,,,,,,,Unknown,Unknown,,,,,,,,,,,,,,,,,,,,,
4034,4034,Lixton Farm,,"Lixton Farm, Loddiswell, Kingsbridge",Devon,Devon,TQ7 4EG,,2018-01-01,Animal Production, G J & G Winzer & Sons,,,Unknown,50.336691,-3.834225,Devon,,,,,,,,,,,,,,,,,,,,,,,,,,,,,,,,,,,,,,,,,,,,,,,,,,,,,,,,,,,,Unknown,Unknown,,,,,,,,,,,,,,,,,,,,,
6126,6126,Rushywood Farm,,"Rushywood Farm, Hazelbury Plucknett, Crewkerne",Somerset,Somerset,TA18 7RJ,,2018-01-01,Animal Production,F A W Bakers (kingston Farms Ltd),,,Unknown,50.901288,-2.765896,Somerset,,,,,,,,,,,,,,,,,,,,,,,,,,,,,,,,,,,,,,,,,,,,,,,,,,,,,,,,,,,,Unknown,Unknown,,,,,,,,,,,,,,,,,,,,,
979,979,Sandy Hill Poultry Unit,,"Sandy Hill Poultry Unit, Withergate Road, Worstead, North Walsham",Norfolk,Norfolk,NR28 9SF,,2020-10-01,Animal Production,Banham Poultry (2018) Limited,,,Unknown,52.798816,1.403914,Norfolk,,,,,,,,,,,,,,,,,,,,,,,,,,,,,,,,,,,,,,,,,,,,,,,,,,,,,,,,,,,,Unknown,Unknown,,,,,,,,,,,,,,,,,,,,,
1322,1322,"Methwold Airfield, Poultry Farm",,"Methwold Airfield, Poultry Farm, Off Brandon Road, Methwold",Thetford,Norfolk,IP26 4RJ,,2020-10-01,Animal Production,Annyalla Chicks (uk) Broiler Breeders Limited,,,Unknown,52.511826,0.535791,Norfolk,,,,,,,,,,,,,,,,,,,,,,,,,,,,,,,,,,,,,,,,,,,,,,,,,,,,,,,,,,,,Unknown,Unknown,,,,,,,,,,,,,,,,,,,,,
920,920,Middle Caves Farm,,"Middle Caves Farm, Melsonby",North Yorkshire,North Yorkshire,DL10 5NG,,2020-10-01,Animal Production,Middle Caves Ltd,,,Unknown,54.472013,-1.675614,North Yorkshire,,,,,,,,,,,,,,,,,,,,,,,,,,,,,,,,,,,,,,,,,,,,,,,,,,,,,,,,,,,,Unknown,Unknown,,,,,,,,,,,,,,,,,,,,,
6050,6050,Bubney Farm,,"Bubney Farm, Grindley Brook, Whitchurch",Shropshire,Shropshire,SY13 4QH,,2018-01-01,Animal Production,Bubney Farms Ltd,,,Unknown,52.98202,-2.71097,Shropshire,,,,,,,,,,,,,,,,,,,,,,,,,,,,,,,,,,,,,,,,,,,,,,,,,,,,,,,,,,,,Unknown,Unknown,,,,,,,,,,,,,,,,,,,,,
2061,2061,JMW Farms Riverside,,"Riverside Pig Unit, 52 Cortynan Road, Armagh",Co Armagh,"Armagh City, Banbridge and Craigavon",BT60 4QZ,,2021-01-01,Animal Production,,,,Unknown,54.323097,-6.848794,"Armagh City, Banbridge and Craigavon",,,,,,,,,,,,,,,,,,,,,,,,,,,,,,,,,,,,,,,,,,,,,,,,,,,,,,,,,,,,Unknown,Unknown,,,,,,,,,,,,,,,,,,,,,
632,632,Green Lane Farm Poultry Unit,,"Green Lane Farm Poultry Unit, Mill Lane, Orston",Nottinghamshire,Nottinghamshire,NG13 9NE,,2021-01-01,Animal Production,Moy Park Limited,,,Unknown,52.967596,-0.84145,Nottinghamshire,,,,,,,,,,,,,,,,,,,,,,,,,,,,,,,,,,,,,,,,,,,,,,,,,,,,,,,,,,,,Unknown,Unknown,,,,,,,,,,,,,,,,,,,,,
1589,1589,Stowgate Poultry Farm,,"Stowgate Poultry Farm, Stowgate, Market Deeping, Peterborough",Cambridgeshire,Lincolnshire,PE6 8RW,,2020-10-01,Animal Production,Hook 2 Sisters Limited,,,Unknown,52.954192,-0.240339,Lincolnshire,,,,,,,,,,,,,,,,,,,,,,,,,,,,,,,,,,,,,,,,,,,,,,,,,,,,,,,,,,,,Unknown,Unknown,,,,,,,,,,,,,,,,,,,,,
142,142,Dunbia Sawley,,"Castill Laithe Abattoir, Sawley",Clitheroe,Lancashire,BB7 4LH,,2018-01-01,Meat Slaughter,,,,Unknown,53.920076,-2.308413,Lancashire,,,,Yes,Yes,Yes,Yes,Yes,Yes,Yes,,,,,,,,,,,,,,Yes,Yes,,,,,,,,,,,,,,,,,,,,,,,,,,,,,,,,,,,Unknown,Unknown,,,,,,,,,,,,,,,,,,,,,
258,258,ABP Yetminster,,"Chetnole Road, Yetminster",Sherborne,Dorset,DT9 6HQ,,2018-01-01,Meat Slaughter,,,,Unknown,50.884841,-2.578469,Dorset,,,,Yes,Yes,,,,,,,,,,,,,,,,Yes,Yes,Yes,Yes,Yes,,,,,,,,,,,,,,,,,,,,,,,,,,,,,,,,,,,Unknown,Unknown,,,,,,,,,,,,,,,,,,,,,
6833,6833,Southview Farm,,"Southview Farm, Bury, Pulborough",West Sussex,West Sussex,RH20 1NP,,2018-01-01,Animal Production,C W F Hughes & Son,,,Unknown,50.915652,-0.565391,West Sussex,,,,,,,,,,,,,,,,,,,,,,,,,,,,,,,,,,,,,,,,,,,,,,,,,,,,,,,,,,,,Unknown,Unknown,,,,,,,,,,,,,,,,,,,,,
129,129,Wh & Tr Newton,,,Crewe,Cheshire East,,,2018-01-01,Meat Slaughter,,,,Unknown,53.100405,-2.443821,Cheshire East,,,,Yes,Yes,Yes,Yes,Yes,Yes,Yes,,,,,Yes,Yes,,,,,Yes,Yes,Yes,Yes,Yes,,,,,,,,,,,,,,,,,,,,,,,,,,,,,,,,,,,Unknown,Unknown,,,,,,,,,,,,,,,,,,,,,
1354,1354,Cherry Tree Farm,,"Cherry Tree Farm, Stow Bedon, Attleborough",Norfolk,Norfolk,NR17 1BY,,2020-10-01,Animal Production,Wayland Farms Limited,,,Unknown,52.52095,0.883388,Norfolk,,,,,,,,,,,,,,,,,,,,,,,,,,,,,,,,,,,,,,,,,,,,,,,,,,,,,,,,,,,,Unknown,Unknown,,,,,,,,,,,,,,,,,,,,,
996,996,"Hilltop Farm, Hill Top Pig Farm",,"Hilltop Farm, Hill Top Pig Farm, Winston",County Durham,County Durham,DL2 3RR,,2020-10-01,Animal Production,J & S Bainbridge,,,Unknown,54.540721,-1.771219,County Durham,,,,,,,,,,,,,,,,,,,,,,,,,,,,,,,,,,,,,,,,,,,,,,,,,,,,,,,,,,,,Unknown,Unknown,,,,,,,,,,,,,,,,,,,,,
1229,1229,"Meadowland, Poultry Farm",,"Meadowland, Poultry Farm, Wem Road, Harmer Hill",Shrewsbury,Shropshire,SY4 3HE,,2020-10-01,Animal Production,Meadowland Poultry Ltd,,,Unknown,52.831581,-2.754852,Shropshire,,,,,,,,,,,,,,,,,,,,,,,,,,,,,,,,,,,,,,,,,,,,,,,,,,,,,,,,,,,,Unknown,Unknown,,,,,,,,,,,,,,,,,,,,,
753,753,"Glebe Farm, Wreningham Poultry Unit",,"Glebe Farm, Wreningham Poultry Unit, Wymondham Road, Wreningham, Norwich",Norfolk,Norfolk,NR16 1AY,,2020-10-01,Animal Production,Hook 2 Sisters Limited,,,Unknown,52.55178,1.155433,Norfolk,,,,,,,,,,,,,,,,,,,,,,,,,,,,,,,,,,,,,,,,,,,,,,,,,,,,,,,,,,,,Unknown,Unknown,,,,,,,,,,,,,,,,,,,,,
415,415,Hooks Drove Poultry Farm,,"Hooks Drove Poultry Farm, Hook Drove, Wimblington",Cambridgeshire,Cambridgeshire,PE15 0QW,,2020-10-01,Animal Production,St. Lawrence Hall Farms Limited,,,Unknown,52.516999,0.097089,Cambridgeshire,,,,,,,,,,,,,,,,,,,,,,,,,,,,,,,,,,,,,,,,,,,,,,,,,,,,,,,,,,,,Unknown,Unknown,,,,,,,,,,,,,,,,,,,,,
48,48,Abp York,,"Murton Abattoir, Murton Lane, Murton",York,York,YO19 5GH,,2018-01-01,Meat Slaughter,,,,Unknown,53.961419,-1.008076,York,,,,Yes,Yes,Yes,Yes,Yes,Yes,Yes,,,,,,,,,,,,,,Yes,Yes,,,,,,,,,,,,,,,,,,,,,,,,,,,,,,,,,,,Unknown,Unknown,,,,,,,,,,,,,,,,,,,,,
716,716,Redwood Farm,,"Redwood Farm, Caxton Road, Great Gransden, Sandy",Bedfordshire,Cambridgeshire,SG19 3BQ,,2021-01-01,Unknown,B & S Farming Limited,,,Unknown,52.201021,-0.106478,Cambridgeshire,,,,,,,,,,,,,,,,,,,,,,,,,,,,,,,,,,,,,,,,,,,,,,,,,,,,,,,,,,,,Unknown,Unknown,,,,,,,,,,,,,,,,,,,,,
4749,4749,Albyns Farm,,"Albyns Farm, Stapleford Tawney, Romford",Essex,Essex,RM4 1RS,,2018-01-01,Animal Production,R Torrance & Son,,,Unknown,51.65024,0.17884,Essex,,,,,,,,,,,,,,,,,,,,,,,,,,,,,,,,,,,,,,,,,,,,,,,,,,,,,,,,,,,,Unknown,Unknown,,,,,,,,,,,,,,,,,,,,,
1442,1442,"Pimlico Farm, Pimlico Poultry Farm",,"Pimlico Farm, Pimlico Poultry Farm, Welsh Lane, Crowfield, Near Brackley",Northamptonshire,Northamptonshire,NN13 5TW,,2021-01-01,Animal Production,Brackley Farms Limited,,,Unknown,52.064966,-1.101159,Northamptonshire,,,,,,,,,,,,,,,,,,,,,,,,,,,,,,,,,,,,,,,,,,,,,,,,,,,,,,,,,,,,Unknown,Unknown,,,,,,,,,,,,,,,,,,,,,
847,847,"Knoxbridge Farm, Poultry Unit And Tolehurst Farm Poultry Unit - Ea/",,"Knoxbridge Farm, Poultry Unit And Tolehurst Farm Poultry Unit - Ea/, Knoxbridge, Cranbrook",Kent,Kent,TN17 2BT,,2020-10-01,Animal Production,Fridays Limited,,,Unknown,51.13933,0.560489,Kent,,,,,,,,,,,,,,,,,,,,,,,,,,,,,,,,,,,,,,,,,,,,,,,,,,,,,,,,,,,,Unknown,Unknown,,,,,,,,,,,,,,,,,,,,,
1044,1044,"True Hill Farm, Poultry Unit, Poultry Unit",,"True Hill Farm, Poultry Unit, Main Road, Brookville, Thetford",Norfolk,Norfolk,IP26 4RB,,2020-10-01,Animal Production,"Mr Robert Anderson, Mrs Rosamond Anderson And Mr Marcus Anderson",,,Unknown,52.541077,0.55562,Norfolk,,,,,,,,,,,,,,,,,,,,,,,,,,,,,,,,,,,,,,,,,,,,,,,,,,,,,,,,,,,,Unknown,Unknown,,,,,,,,,,,,,,,,,,,,,
1336,1336,"Monkcastle Farm, Monkcastle Pig Farm",,"Monkcastle Farm, Monkcastle Pig Farm, Monkcastle, Southwaite",Cumbria,Cumbria,CA4 0PZ,,2020-10-01,Animal Production,Birchwood Farms Limited,,,Unknown,54.807748,-2.890816,Cumbria,,,,,,,,,,,,,,,,,,,,,,,,,,,,,,,,,,,,,,,,,,,,,,,,,,,,,,,,,,,,Unknown,Unknown,,,,,,,,,,,,,,,,,,,,,
1644,1644,Wern Heulog Poultry Unit,,"Wernheulog, Llanfaredd, Builth Wells",Powys,Powys,LD2 3TE,,2020-01-01,Animal Production,Keri Davies,,,Unknown,52.169306,-3.348286,Powys,,,,,,,,,,,,,,,,,,,,,,,,,,,,,,,,,,,,,,,,,,,,,,,,,,,,,,,,,,,,Unknown,Unknown,,,,,,,,,,,,,,,,,,,,,
5583,5583,The Grange,,"The Grange, Shipdham, Thetford",Norfolk,Norfolk,IP25 7NQ,,2018-01-01,Animal Production,Robert Paterson,,,Unknown,52.633315,0.907914,Norfolk,,,,,,,,,,,,,,,,,,,,,,,,,,,,,,,,,,,,,,,,,,,,,,,,,,,,,,,,,,,,Unknown,Unknown,,,,,,,,,,,,,,,,,,,,,
403,403,The Farthings,,"The Farthings, Shipdham Road, Reymerston",Norfolk,Norfolk,NR9 4QZ,,2020-10-01,Animal Production,Banham Poultry (2018) Limited,,,Unknown,52.620378,0.95805,Norfolk,,,,,,,,,,,,,,,,,,,,,,,,,,,,,,,,,,,,,,,,,,,,,,,,,,,,,,,,,,,,Unknown,Unknown,,,,,,,,,,,,,,,,,,,,,
9985,9985,The Gorgeous Goat Company/the Cottenden Herd,,"Brambley Cottage, Cottenden Farm, Stonegate",East Sussex,East Sussex,TN5 7DT,,2022-07-01,Animal Production,,,,Unknown,51.03172,0.384839,East Sussex,,,,,,,,,,,,,,,,,,,,,,,,,,,,,,,,,,,,,,,,,,,,,,,,,,,,,,,,,,,,Unknown,Unknown,,,,,,,,,,,,,,,,,,,,,
837,837,"Cowbit Farm, Poultry Unit",,"Cowbit Farm, Poultry Unit, Mill Drove, Cowbit, Spalding",Lincolnshire,Lincolnshire,PE12 6AS,,2020-10-01,Animal Production,Hook 2 Sisters Limited,,,Unknown,52.750455,-0.123786,Lincolnshire,,,,,,,,,,,,,,,,,,,,,,,,,,,,,,,,,,,,,,,,,,,,,,,,,,,,,,,,,,,,Unknown,Unknown,,,,,,,,,,,,,,,,,,,,,
119,119,H.P. Westwood Limited,,"15 Eastgate Street, Chase Terrace",Burntwood,Staffordshire,WS7 1JL,,2018-01-01,Meat Slaughter,,,,Unknown,52.686777,-1.939641,Staffordshire,,,,Yes,Yes,Yes,Yes,Yes,Yes,Yes,,,,,Yes,Yes,,,,,Yes,Yes,Yes,Yes,Yes,,,,,,,,,Yes,,,,,,,,,,,,,,,,,,,,,,,,,,Unknown,Unknown,,,,,,,,,,,,,,,,,,,,,
997,997,Cherry Rock Farm Poultry Unit,,"Cherry Rock Farm Poultry Unit, Blackwells End",Hartpury,Gloucestershire,GL19 3DB,,2020-10-01,Animal Production,Mr G & Mrs S Phelps,,,Unknown,51.934977,-2.317558,Gloucestershire,,,,,,,,,,,,,,,,,,,,,,,,,,,,,,,,,,,,,,,,,,,,,,,,,,,,,,,,,,,,Unknown,Unknown,,,,,,,,,,,,,,,,,,,,,
5700,5700,Tresham Farm,,"Tresham Farm, Tresham, Wotton-under-edge",Gloucestershire,Gloucestershire,GL12 7RW,,2018-01-01,Animal Production,R J & B J Kingston & Sons,,,Unknown,51.617997,-2.301343,Gloucestershire,,,,,,,,,,,,,,,,,,,,,,,,,,,,,,,,,,,,,,,,,,,,,,,,,,,,,,,,,,,,Unknown,Unknown,,,,,,,,,,,,,,,,,,,,,
1162,1162,"Holbeach St Johns, Holbeach St Johns Poultry Farm",,"Holbeach St Johns, Holbeach St Johns Poultry Farm, New River Gate, Holbeach Drove, Spalding",Lincolnshire,Lincolnshire,PE12 0RY,,2020-10-01,Animal Production,Hook 2 Sisters Limited,,,Unknown,52.734419,-0.00626,Lincolnshire,,,,,,,,,,,,,,,,,,,,,,,,,,,,,,,,,,,,,,,,,,,,,,,,,,,,,,,,,,,,Unknown,Unknown,,,,,,,,,,,,,,,,,,,,,
45,45,Black Brow Abattoir Limited,,"Black Brow Abattoir, Aikton",Wigton,Cumbria,CA7 0JT,,2018-01-01,Meat Slaughter,,,,Unknown,54.866963,-3.069485,Cumbria,,,,Yes,Yes,Yes,Yes,Yes,Yes,Yes,,,,,,,,,,,Yes,Yes,Yes,Yes,Yes,,,,,,,,,,,,,,,,,,,,,,,,,,,,,,,,,,,Unknown,Unknown,,,,,,,,,,,,,,,,,,,,,
214,214,Dunbia (UK),,"Teifi Park Slaughterhouse, Lampeter Road",Llanybydder,Carmarthenshire,SA40 9QE,,2018-01-01,Meat Slaughter,,,,Unknown,52.07944,-4.145334,Carmarthenshire,,,,Yes,Yes,Yes,Yes,Yes,Yes,Yes,,,,,,,,,,,Yes,Yes,Yes,Yes,Yes,,,,,,,,,,,,,,,,,,,,,,,,,,,,,,,,,,,Unknown,Unknown,,,,,,,,,,,,,,,,,,,,,
939,939,Raynham Farm,,"Old Staion Building, Station Road, KING'S LYNN",Norfolk,Norfolk,PE31 8SX,,2020-10-01,Animal Production,Raynham Farm Company Livestock Limited,,,Unknown,52.802979,0.730107,Norfolk,,,,,,,,,,,,,,,,,,,,,,,,,,,,,,,,,,,,,,,,,,,,,,,,,,,,,,,,,,,,Unknown,Unknown,,,,,,,,,,,,,,,,,,,,,
7130,7130,Miresdale Dairy Holding Limited,,"NORTHALLERTON, NORTH YORKSHIRE",DL6,North Yorkshire,,,2022-04-01,Animal Production,,,,Unknown,54.337784,-1.431003,North Yorkshire,,,,,,,,,,,,,,,,,,,,,,,,,,,,,,,,,,,,,,,,,,,,,,,,,,,,,,,,,,,,Unknown,Unknown,,,,,,,,,,,,,,,,,,,,,
93,93,Moy Park Limited,,"Main Street, Anwick",Sleaford,Lincolnshire,NG34 9SL,,2018-01-01,Meat Slaughter,,,,Unknown,53.038112,-0.339956,Lincolnshire,,,,Yes,Yes,,,,,,,,,,,,,,,,,,,,,,,,,,,,,,,Yes,Yes,,,,,,,,,,,,,,,,,,,,,,,Unknown,Unknown,,,,,,,,,,,,,,,,,,,,,
962,962,Claston Farm,,"Claston Farm, /v004, Dormington, Hereford",Herefordshire,Herefordshire,HR1 4EA,,2020-10-01,Animal Production,Thomas; Thomas; Thomas,,,Unknown,52.062085,-2.603075,Herefordshire,,,,,,,,,,,,,,,,,,,,,,,,,,,,,,,,,,,,,,,,,,,,,,,,,,,,,,,,,,,,Unknown,Unknown,,,,,,,,,,,,,,,,,,,,,
2034,2034,JMW Tonnagh Farm,,"52 Cortynan Road, Tynan, Armagh",Co Armagh,"Armagh City, Banbridge and Craigavon",BT60 4QZ,,2021-01-01,Animal Production,,,,Unknown,54.356161,-6.749734,"Armagh City, Banbridge and Craigavon",,,,,,,,,,,,,,,,,,,,,,,,,,,,,,,,,,,,,,,,,,,,,,,,,,,,,,,,,,,,Unknown,Unknown,,,,,,,,,,,,,,,,,,,,,
490,490,Willow Pig Farm,,"Willow Farm, Hollingthorpe Lane, WAKEFIELD",West Yorkshire,West Yorkshire,WF4 3NG,,2020-10-01,Animal Production,Willow Farm Producers Limited,,,Unknown,53.62833,-1.525674,West Yorkshire,,,,,,,,,,,,,,,,,,,,,,,,,,,,,,,,,,,,,,,,,,,,,,,,,,,,,,,,,,,,Unknown,Unknown,,,,,,,,,,,,,,,,,,,,,
1696,1696,Trostrey Court Farm ,,"Trostrey Court, Usk",Monmouthshire,Monmouthshire,NP15 1HT,,2020-01-01,Animal Production,Alkana Corporation Ltd.,,,Unknown,51.734169,-2.918911,Monmouthshire,,,,,,,,,,,,,,,,,,,,,,,,,,,,,,,,,,,,,,,,,,,,,,,,,,,,,,,,,,,,Unknown,Unknown,,,,,,,,,,,,,,,,,,,,,
6742,6742,Oakley Farm,,"Oakley Farm, Blackhalve Lane, Essington, Wolverhampton",West Midlands,Staffordshire,WV11 2BB,,2018-01-01,Animal Production,S G Lee & Sons,,,Unknown,52.619284,-2.082721,Staffordshire,,,,,,,,,,,,,,,,,,,,,,,,,,,,,,,,,,,,,,,,,,,,,,,,,,,,,,,,,,,,Unknown,Unknown,,,,,,,,,,,,,,,,,,,,,
1481,1481,Wellington Farm,,"Wellington Farm, Stewkley Road, Wing, Nr Leighton Buzzard",Buckinghamshire,Buckinghamshire,LU7 0LD,,2020-10-01,Animal Production,Faccenda Foods Limited,,,Unknown,51.906756,-0.747477,Buckinghamshire,,,,,,,,,,,,,,,,,,,,,,,,,,,,,,,,,,,,,,,,,,,,,,,,,,,,,,,,,,,,Unknown,Unknown,,,,,,,,,,,,,,,,,,,,,
356,356,"Lodge Farm, Poultry Unit",,"Lodge Farm, Poultry Unit, Sleaford Road, Beckingham",Lincolnshire,Lincolnshire,LN5 0RB,,2020-10-01,Animal Production,Noble Foods Limited,,,Unknown,53.071078,-0.677454,Lincolnshire,,,,,,,,,,,,,,,,,,,,,,,,,,,,,,,,,,,,,,,,,,,,,,,,,,,,,,,,,,,,Unknown,Unknown,,,,,,,,,,,,,,,,,,,,,
1478,1478,"Holcombe Manor, Farm Poultry Unit",,"Holcombe Manor, Farm Poultry Unit, Holcombe Lane, Ottery St. Mary",Devon,Devon,EX11 1PG,,2020-10-01,Animal Production,Holcombe Manor Farm Limited,,,Unknown,50.761999,-3.257514,Devon,,,,,,,,,,,,,,,,,,,,,,,,,,,,,,,,,,,,,,,,,,,,,,,,,,,,,,,,,,,,Unknown,Unknown,,,,,,,,,,,,,,,,,,,,,
789,789,"Claypit, Poultry Unit",,"Claypit, Poultry Unit, Hart Moor, Elwick",Hartlepool,Hartlepool,TS27 3BL,,2020-10-01,Animal Production,Hook 2 Sisters Limited,,,Unknown,54.696093,-1.281395,Hartlepool,,,,,,,,,,,,,,,,,,,,,,,,,,,,,,,,,,,,,,,,,,,,,,,,,,,,,,,,,,,,Unknown,Unknown,,,,,,,,,,,,,,,,,,,,,
1545,1545,Hilltop Farm,,"Hilltop Farm, Mansfield Road, Farnsfield, Newark",Nottinghamshire,Nottinghamshire,NG22 8HY,,2020-10-01,Animal Production,Noble Foods Limited,,,Unknown,53.100032,-1.078388,Nottinghamshire,,,,,,,,,,,,,,,,,,,,,,,,,,,,,,,,,,,,,,,,,,,,,,,,,,,,,,,,,,,,Unknown,Unknown,,,,,,,,,,,,,,,,,,,,,
1578,1578,Woodside Farm,,"Woodside Farm, New Road, Tacolneston, Norwich",Norfolk,Norfolk,NR16 1DW,,2020-10-01,Animal Production,Banham Poultry (2018) Limited,,,Unknown,52.513639,1.145473,Norfolk,,,,,,,,,,,,,,,,,,,,,,,,,,,,,,,,,,,,,,,,,,,,,,,,,,,,,,,,,,,,Unknown,Unknown,,,,,,,,,,,,,,,,,,,,,
557,557,"Carlow House, Carlow Wood Farm",,"Carlow House, Carlow Wood Farm, Woodman Lane, Cowan Bridge",Lancashire,Lancashire,LA6 2HT,,2020-10-01,Animal Production,Moy Park Limited,,,Unknown,54.180065,-2.569264,Lancashire,,,,,,,,,,,,,,,,,,,,,,,,,,,,,,,,,,,,,,,,,,,,,,,,,,,,,,,,,,,,Unknown,Unknown,,,,,,,,,,,,,,,,,,,,,
2098,2098,Derek Hall,,"25 Old Carrick Road, Monkstown, Newtownabbey",Co Antrim,Antrim and Newtownabbey,BT37 0UE,,2021-01-01,Animal Production,,,,Unknown,54.695207,-5.924391,Antrim and Newtownabbey,,,,,,,,,,,,,,,,,,,,,,,,,,,,,,,,,,,,,,,,,,,,,,,,,,,,,,,,,,,,Unknown,Unknown,,,,,,,,,,,,,,,,,,,,,
235,235,2 Sisters Food Group Ltd,,Willand,Cullompton,Devon,EX15 2PJ,,2018-01-01,Meat Slaughter,,,,Unknown,50.89096,-3.378811,Devon,,,,Yes,Yes,,,,,,,,,,,,,,,,,,,,,,,,,,,,,,,Yes,Yes,,,,,,,,,,,,,,,,,,,,,,,Unknown,Unknown,,,,,,,,,,,,,,,,,,,,,
3683,3683,Tanners Farm,,"Tanners Farm, Nutters Lane Swallowfield Road, Arborfield, Reading",Berkshire,Berkshire,RG2 9LA,,2018-01-01,Animal Production,Farley Farms,,,Unknown,51.385014,-0.933111,Berkshire,,,,,,,,,,,,,,,,,,,,,,,,,,,,,,,,,,,,,,,,,,,,,,,,,,,,,,,,,,,,Unknown,Unknown,,,,,,,,,,,,,,,,,,,,,
1029,1029,Barradale Farm,,"Barradale Farm, Watton Road, Larling",Norfolk,Norfolk,NR16 2RA,,2020-10-01,Animal Production,Banham Poultry (2018) Limited,,,Unknown,52.475003,0.893933,Norfolk,,,,,,,,,,,,,,,,,,,,,,,,,,,,,,,,,,,,,,,,,,,,,,,,,,,,,,,,,,,,Unknown,Unknown,,,,,,,,,,,,,,,,,,,,,
544,544,Far Leys Farm,,"Far Leys Farm, Ollerton Road, Tuxford, Newark",Nottinghamshire,Nottinghamshire,NG22 0PG,,2021-01-01,Animal Production,Moy Park Limited,,,Unknown,53.229347,-0.931782,Nottinghamshire,,,,,,,,,,,,,,,,,,,,,,,,,,,,,,,,,,,,,,,,,,,,,,,,,,,,,,,,,,,,Unknown,Unknown,,,,,,,,,,,,,,,,,,,,,
963,963,Three Nooks Wood,,"Three Nooks Wood, Weeton Road, Wesham, Preston",Lancashire,Lancashire,PR4 3WA,,2020-10-01,Animal Production,Towers; Towers; Towers; Towers,,,Unknown,53.798843,-2.906041,Lancashire,,,,,,,,,,,,,,,,,,,,,,,,,,,,,,,,,,,,,,,,,,,,,,,,,,,,,,,,,,,,Unknown,Unknown,,,,,,,,,,,,,,,,,,,,,
475,475,Trafalgar Farm,,"Trafalgar Farm, Gainsborough Road, Northorpe",Lincolnshire,England,DN21 4AN,,2020-10-01,Animal Production,Hook 2 Sisters Limited,,,Unknown,53.452502,-0.618038,England,,,,,,,,,,,,,,,,,,,,,,,,,,,,,,,,,,,,,,,,,,,,,,,,,,,,,,,,,,,,Unknown,Unknown,,,,,,,,,,,,,,,,,,,,,
10164,10164,"Poultry Unit (not Yet Built Po, Hempton Poultry Unit",,"Poultry Unit (not Yet Built Po, Hempton Poultry Unit, Helnoughton Road, Hempton, Fakenham",Norfolk,Norfolk,NR21 7EH,,2022-01-01,Animal Production,Banham Poultry (2018) Limited,,,Unknown,52.820234,0.8285,Norfolk,,,,,,,,,,,,,,,,,,,,,,,,,,,,,,,,,,,,,,,,,,,,,,,,,,,,,,,,,,,,Unknown,Unknown,,,,,,,,,,,,,,,,,,,,,
382,382,Loomswood Farm,,"Loomswood Farm, Debach, Woodbridge",Suffolk,Suffolk,IP13 6JW,,2020-10-01,Animal Production,Green Label Poultry Limited,,,Unknown,52.130268,1.278131,Suffolk,,,,,,,,,,,,,,,,,,,,,,,,,,,,,,,,,,,,,,,,,,,,,,,,,,,,,,,,,,,,Unknown,Unknown,,,,,,,,,,,,,,,,,,,,,
633,633,Abbotts Bromley Poultry Unit,,"Abbotts Bromley Poultry Unit, Uttoxeter Road, Abbots Bromley, Rugeley",Staffordshire,Staffordshire,WS15 3EH,,2020-10-01,Animal Production,P.d. Hook (breeders) Limited,,,Unknown,52.823053,-1.891656,Staffordshire,,,,,,,,,,,,,,,,,,,,,,,,,,,,,,,,,,,,,,,,,,,,,,,,,,,,,,,,,,,,Unknown,Unknown,,,,,,,,,,,,,,,,,,,,,
4763,4763,Smerrill Dairy,,"Smerrill Dairy, Kemble, Cirencester",Gloucestershire,Gloucestershire,GL7 6AB,,2018-01-01,Animal Production,Kemble Farms Ltd,,,Unknown,51.674795,-2.019171,Gloucestershire,,,,,,,,,,,,,,,,,,,,,,,,,,,,,,,,,,,,,,,,,,,,,,,,,,,,,,,,,,,,Unknown,Unknown,,,,,,,,,,,,,,,,,,,,,
328,328,"Langham Farm, Langham Poultry Unit",,"Langham Farm, Langham Poultry Unit, The Old Airfield, Cockthorpe Road",Holt,Norfolk,NR25 7BP,,2020-10-01,Animal Production,Hook 2 Sisters Limited,,,Unknown,52.957631,0.976565,Norfolk,,,,,,,,,,,,,,,,,,,,,,,,,,,,,,,,,,,,,,,,,,,,,,,,,,,,,,,,,,,,Unknown,Unknown,,,,,,,,,,,,,,,,,,,,,
1069,1069,"Collards Farm, Ferricies Farm & Brufords Farm (same Address Details), Brufords/ferricies/collards Farms",,"Collards Farm, Ferricies Farm & Brufords Farm (same Address Details), Brufords/ferricies/collards Farms, Steart, Bridgwater",Somerset,Somerset,TA5 2PX,,2020-10-01,Animal Production,Steart Farms Limited,,,Unknown,51.20714,-3.042962,Somerset,,,,,,,,,,,,,,,,,,,,,,,,,,,,,,,,,,,,,,,,,,,,,,,,,,,,,,,,,,,,Unknown,Unknown,,,,,,,,,,,,,,,,,,,,,
10880,10880,"Didlington Farm, Poultry Unit, Poultry Unit",,"Didlington Farm, Poultry Unit, Little London Road, Northwold, Thetford",Norfolk,Norfolk,IP26 5NJ,,2022-10-01,Animal Production,Banham Poultry (2018) Limited,,,Unknown,52.534651,0.610994,Norfolk,,,,,,,,,,,,,,,,,,,,,,,,,,,,,,,,,,,,,,,,,,,,,,,,,,,,,,,,,,,,Unknown,Unknown,,,,,,,,,,,,,,,,,,,,,
194,194,Larchwood Farm,,"Hubbards Farm, Shalford",Braintree,Essex,CM7 5BA,,2018-01-01,Meat Slaughter,,,,Unknown,51.920723,0.497218,Essex,,,,Yes,Yes,,,,,,,,,,,,,,,,,,,,,,,,,,,,,,,Yes,Yes,,,,,,,,,,,,,,,,,,,,,,,Unknown,Unknown,,,,,,,,,,,,,,,,,,,,,
5362,5362,Sellerley Farm,,"Sellerley Farm, Conder Green, Lancaster",Lancashire,Lancashire,LA2 0BQ,,2018-01-01,Animal Production,J R Newsham & Son,,,Unknown,53.988381,-2.803895,Lancashire,,,,,,,,,,,,,,,,,,,,,,,,,,,,,,,,,,,,,,,,,,,,,,,,,,,,,,,,,,,,Unknown,Unknown,,,,,,,,,,,,,,,,,,,,,
781,781,South Drove Poultry Farm,,"South Drove Poultry Farm, /v002, South Drove, Spalding Common, Spalding",Lincolnshire,Lincolnshire,PE11 3AS,,2020-10-01,Animal Production,Hook 2 Sisters Limited,,,Unknown,52.747276,-0.167783,Lincolnshire,,,,,,,,,,,,,,,,,,,,,,,,,,,,,,,,,,,,,,,,,,,,,,,,,,,,,,,,,,,,Unknown,Unknown,,,,,,,,,,,,,,,,,,,,,
106,106,C E Partridge & Son Ltd,,"Washingstocks Farm, Stourbridge Road",Bromsgrove,Worcestershire,B61 0BN,,2018-01-01,Meat Slaughter,,,,Unknown,52.355706,-2.063492,Worcestershire,,,,Yes,Yes,Yes,Yes,Yes,Yes,Yes,,,,,Yes,Yes,,,,,Yes,Yes,Yes,Yes,Yes,,,,,,,,,,,,,,,,,,,,,,,,,,,,,,,,,,,Unknown,Unknown,,,,,,,,,,,,,,,,,,,,,
1393,1393,"D.l. Charlesworth, Smeaton Wood Farm",,"D.l. Charlesworth, Smeaton Wood Farm, Wrenbury, Nantwich",Cheshire,Cheshire East,CW5 8HD,,2020-10-01,Animal Production,Smeaton Wood Limited,,,Unknown,53.01351,-2.604478,Cheshire East,,,,,,,,,,,,,,,,,,,,,,,,,,,,,,,,,,,,,,,,,,,,,,,,,,,,,,,,,,,,Unknown,Unknown,,,,,,,,,,,,,,,,,,,,,
505,505,"Kirby Poultry Farm, Kirby Muxloe Poultry Farm",,"Kirby Poultry Farm, Kirby Muxloe Poultry Farm, Desford Lane, Kirby Muxloe, Leicester",Leicestershire,Leicestershire,LE9 2BF,,2020-10-01,Animal Production,Mr Jonathan Hay,,,Unknown,52.639433,-1.257033,Leicestershire,,,,,,,,,,,,,,,,,,,,,,,,,,,,,,,,,,,,,,,,,,,,,,,,,,,,,,,,,,,,Unknown,Unknown,,,,,,,,,,,,,,,,,,,,,
133,133,F Redfern,,"Haslin Slaughterhouse, Burlow Road, Harper Hill",Buxton,Derbyshire,SK17 9HT,,2018-01-01,Meat Slaughter,,,,Unknown,53.23373,-1.898173,Derbyshire,,,,Yes,Yes,Yes,Yes,Yes,Yes,Yes,,,,,Yes,Yes,,,,,Yes,Yes,Yes,Yes,Yes,,,,,,,,,Yes,,,,,,,,,,,,,,,,,,,,,,,,,,Unknown,Unknown,,,,,,,,,,,,,,,,,,,,,
665,665,"Brookside Farm, Poultry Unit",,"Brookside Farm, Poultry Unit, Watton Road, Breckles, Great Hockham",Norfolk,Norfolk,NR17 1ER,,2020-10-01,Animal Production,Hook 2 Sisters Limited,,,Unknown,52.509861,0.86969,Norfolk,,,,,,,,,,,,,,,,,,,,,,,,,,,,,,,,,,,,,,,,,,,,,,,,,,,,,,,,,,,,Unknown,Unknown,,,,,,,,,,,,,,,,,,,,,
677,677,Bardney Dairies Poultry Unit,,"Bardney Dairies Poultry Unit, Market Rasen",Lincolnshire,Lincolnshire,LN8 5JN,,2020-10-01,Animal Production,Hook 2 Sisters Limited,,,Unknown,53.225371,-0.289917,Lincolnshire,,,,,,,,,,,,,,,,,,,,,,,,,,,,,,,,,,,,,,,,,,,,,,,,,,,,,,,,,,,,Unknown,Unknown,,,,,,,,,,,,,,,,,,,,,
219,219,Hugh Phillips Gower Butcher,,"Wern Fabian Farm, Llanmorlais",Swansea,Swansea,SA4 3TB,,2018-01-01,Meat Slaughter,,,,Unknown,51.629266,-4.120648,Swansea,,,,Yes,Yes,Yes,Yes,Yes,Yes,Yes,,,,,Yes,Yes,,,,,Yes,Yes,Yes,Yes,Yes,,,,,,,,,,,,,,,,,,,,,,,,,,,,,,,,,,,Unknown,Unknown,,,,,,,,,,,,,,,,,,,,,
991,991,"Tollgate Farm, Poultry Unit",,"Tollgate Farm, Poultry Unit, Nomansland, Tiverton",Devon,Devon,EX16 8QT,,2020-10-01,Animal Production,Hook 2 Sisters Limited,,,Unknown,50.902757,-3.621875,Devon,,,,,,,,,,,,,,,,,,,,,,,,,,,,,,,,,,,,,,,,,,,,,,,,,,,,,,,,,,,,Unknown,Unknown,,,,,,,,,,,,,,,,,,,,,
7081,7081,Woodhouse Farm,,"Woodhouse Farm, The Strand, Semington, Trowbridge",Wiltshire,Wiltshire,BA14 6LL,,2018-01-01,Animal Production,J S Noad & Sons,,,Unknown,51.343723,-2.148795,Wiltshire,,,,,,,,,,,,,,,,,,,,,,,,,,,,,,,,,,,,,,,,,,,,,,,,,,,,,,,,,,,,Unknown,Unknown,,,,,,,,,,,,,,,,,,,,,
8301,8301,Brynhyfryd Farm,,"Brynhyfryd Farm, Wolfscastle, Haverfordwest",Pembrokeshire,Pembrokeshire,SA62 5DT,,2018-01-01,Animal Production,J W C George & Sons,,,Unknown,51.90949,-4.954652,Pembrokeshire,,,,,,,,,,,,,,,,,,,,,,,,,,,,,,,,,,,,,,,,,,,,,,,,,,,,,,,,,,,,Unknown,Unknown,,,,,,,,,,,,,,,,,,,,,
394,394,Willow Wood Farm,,"Willow Wood Farm, Main Road, East Kirkby",Lincolnshire,Lincolnshire,PE23 4BY,,2020-10-01,Animal Production,F & H Panton Bros,,,Unknown,53.13452,-0.025757,Lincolnshire,,,,,,,,,,,,,,,,,,,,,,,,,,,,,,,,,,,,,,,,,,,,,,,,,,,,,,,,,,,,Unknown,Unknown,,,,,,,,,,,,,,,,,,,,,
532,532,Freiston Farm,,"Freiston Farm, Croppers Lane, Freiston, Boston",Lincolnshire,Lincolnshire,PE22 0QU,,2020-10-01,Animal Production,Hook 2 Sisters Limited,,,Unknown,52.952738,0.057368,Lincolnshire,,,,,,,,,,,,,,,,,,,,,,,,,,,,,,,,,,,,,,,,,,,,,,,,,,,,,,,,,,,,Unknown,Unknown,,,,,,,,,,,,,,,,,,,,,
1570,1570,Wytheford House Farm,,"Wytheford House Farm, Wytheford, Shawbury",Shropshire,Shropshire,SY4 4JJ,,2020-10-01,Animal Production,David Davies Resources Limited,,,Unknown,52.774869,-2.62815,Shropshire,,,,,,,,,,,,,,,,,,,,,,,,,,,,,,,,,,,,,,,,,,,,,,,,,,,,,,,,,,,,Unknown,Unknown,,,,,,,,,,,,,,,,,,,,,
243,243,Dunbia West Devon,,,Okehampton,Devon,,,2018-01-01,Meat Slaughter,,,,Unknown,50.82102,-4.072686,Devon,,,,Yes,Yes,Yes,Yes,Yes,Yes,Yes,,,,,,,,,,,Yes,Yes,Yes,Yes,Yes,,,,,,,,,,,,,,,,,,,,,,,,,,,,,,,,,,,Unknown,Unknown,,,,,,,,,,,,,,,,,,,,,
1208,1208,"Cat Babbleton Farm, Poultry Unit",,"Cat Babbleton Farm, Poultry Unit, Ganton, Scarborough",North Yorkshire,North Yorkshire,YO12 4PQ,,2020-10-01,Animal Production,Walk Farm Eggs Limited,,,Unknown,54.156012,-0.466968,North Yorkshire,,,,,,,,,,,,,,,,,,,,,,,,,,,,,,,,,,,,,,,,,,,,,,,,,,,,,,,,,,,,Unknown,Unknown,,,,,,,,,,,,,,,,,,,,,
8906,8906,Higher Woodhill Farm,,"Higher Woodhill Farm, Woodhill Road, Bury",Lancashire,Greater Manchester,BL8 1BS,,2018-01-01,Animal Production,Mrs M Entwistle & Sons,,,Unknown,53.60486,-2.302466,Greater Manchester,,,,,,,,,,,,,,,,,,,,,,,,,,,,,,,,,,,,,,,,,,,,,,,,,,,,,,,,,,,,Unknown,Unknown,,,,,,,,,,,,,,,,,,,,,
105,105,Farmers Fresh Ltd,,"The Abattoir, Banner Hill, Rouncil Lane",Kenilworth,Warwickshire,CV8 1NN,,2018-01-01,Meat Slaughter,,,,Unknown,52.327609,-1.610242,Warwickshire,,,,Yes,Yes,,,,,,,,,,,,,,,,Yes,Yes,Yes,Yes,Yes,,,,,,,,,,,,,,,,,,,,,,,,,,,,,,,,,,,Unknown,Unknown,,,,,,,,,,,,,,,,,,,,,
1184,1184,Gulham Fields Farm Poultry Unit,,"Gulham Fields Farm Poultry Unit, Gulham Road, North Owersby, Market Rasen",Lincolnshire,Lincolnshire,LN8 3PS,,2020-10-01,Animal Production,Mercer Farming Limited,,,Unknown,53.434742,-0.432079,Lincolnshire,,,,,,,,,,,,,,,,,,,,,,,,,,,,,,,,,,,,,,,,,,,,,,,,,,,,,,,,,,,,Unknown,Unknown,,,,,,,,,,,,,,,,,,,,,
612,612,Kennyhill Farm Poultry Unit,,"Kennyhill Farm Poultry Unit, Kenny Hill, Bury St Edmunds",Suffolk,Suffolk,IP28 8DU,,2020-10-01,Animal Production,Hook 2 Sisters Limited,,,Unknown,52.385654,0.450357,Suffolk,,,,,,,,,,,,,,,,,,,,,,,,,,,,,,,,,,,,,,,,,,,,,,,,,,,,,,,,,,,,Unknown,Unknown,,,,,,,,,,,,,,,,,,,,,
1024,1024,"Baulker Farm, Poultry Unit",,"Baulker Farm, Poultry Unit, Baulker Lane, Farnsfield",Nottinghamshire,Nottinghamshire,NG22 8HP,,2020-10-01,Animal Production,Hook 2 Sisters Limited,,,Unknown,53.095285,-1.08073,Nottinghamshire,,,,,,,,,,,,,,,,,,,,,,,,,,,,,,,,,,,,,,,,,,,,,,,,,,,,,,,,,,,,Unknown,Unknown,,,,,,,,,,,,,,,,,,,,,
38,38,Thompson (Wholesale Meat) Ltd,,"Marshall Green Abattoir, Witton-le-Wear, Bishop Auckland",Durham,County Durham,DL14 0AQ,,2018-01-01,Meat Slaughter,,,,Unknown,54.67929,-1.759366,County Durham,,,,Yes,Yes,Yes,Yes,Yes,Yes,Yes,,,,,Yes,Yes,,,,,Yes,Yes,Yes,Yes,Yes,,,,,,,,,,,,,,,,,,,,,,,,,,,,,,,,,,,Unknown,Unknown,,,,,,,,,,,,,,,,,,,,,
6769,6769,Wintersell Farm,,"Wintersell Farm, Dwelly Lane, Edenbridge",Kent,Surrey,TN8 6QD,,2018-01-01,Animal Production,The Downing Partnership,,,Unknown,51.207378,0.026103,Surrey,,,,,,,,,,,,,,,,,,,,,,,,,,,,,,,,,,,,,,,,,,,,,,,,,,,,,,,,,,,,Unknown,Unknown,,,,,,,,,,,,,,,,,,,,,
170,170,Bernard Matthews Foods Limited,,"Scalesbrook Lane, Upper Holton",Halesworth,Suffolk,IP19 8NJ,,2018-01-01,Meat Slaughter,,,,Unknown,52.355145,1.528614,Suffolk,,,,Yes,Yes,,,,,,,,,,,,,,,,,,,,,,,,,,,,,,,Yes,Yes,,,,,,,,,,,,,,,,,,,,,,,Unknown,Unknown,,,,,,,,,,,,,,,,,,,,,
1692,1692,Pen Y Fridd Poultry Farm ,,"Pen y Fridd Farm, Saron, Denbigh",Clwyd,Denbighshire,LL16 4SW,,2020-01-01,Animal Production,Hook 2 Sisters Limited,,,Unknown,53.126325,-3.442623,Denbighshire,,,,,,,,,,,,,,,,,,,,,,,,,,,,,,,,,,,,,,,,,,,,,,,,,,,,,,,,,,,,Unknown,Unknown,,,,,,,,,,,,,,,,,,,,,
722,722,"Frostrow Farms, Frostrow Farm",,"Frostrow Farms, Frostrow Farm, Watton Road, Hingham, Frost Row",Norfolk,Norfolk,NR9 4NW,,2020-10-01,Animal Production,Traditional Norfolk Poultry Limited,,,Unknown,52.572612,0.958374,Norfolk,,,,,,,,,,,,,,,,,,,,,,,,,,,,,,,,,,,,,,,,,,,,,,,,,,,,,,,,,,,,Unknown,Unknown,,,,,,,,,,,,,,,,,,,,,
583,583,Fox Covert Poultry Unit,,"Laneham Fox Covert, Laneham, Retford",Nottinghamshire,Nottinghamshire,DN22 0FE,,2020-10-01,Animal Production,Moy Park Limited,,,Unknown,53.279308,-0.810461,Nottinghamshire,,,,,,,,,,,,,,,,,,,,,,,,,,,,,,,,,,,,,,,,,,,,,,,,,,,,,,,,,,,,Unknown,Unknown,,,,,,,,,,,,,,,,,,,,,
486,486,Rock Poultry Farm,,"Rock Poultry Farm, Middleton On The Hill, Leominster",Heredfordshire,Herefordshire,HR6 0HY,,2020-10-01,Animal Production,P. Hughes Limited,,,Unknown,52.270914,-2.67787,Herefordshire,,,,,,,,,,,,,,,,,,,,,,,,,,,,,,,,,,,,,,,,,,,,,,,,,,,,,,,,,,,,Unknown,Unknown,,,,,,,,,,,,,,,,,,,,,
1613,1613,"Alesby Poultry Farm, W",,"Alesby Poultry Farm, W, Broughton Road, Walesby, Newark",Nottinghamshire,Nottinghamshire,NG22 9PE,,2020-10-01,Animal Production,Moy Park Limited,,,Unknown,53.233259,-0.988623,Nottinghamshire,,,,,,,,,,,,,,,,,,,,,,,,,,,,,,,,,,,,,,,,,,,,,,,,,,,,,,,,,,,,Unknown,Unknown,,,,,,,,,,,,,,,,,,,,,
1548,1548,"Chalk Farm, Snetterton Poultry Unit",,"Chalk Farm, Snetterton Poultry Unit, Chalk Lane, Snetterton, Snetterton Heath",Norfolk,Norfolk,NR16 2JZ,,2020-10-01,Animal Production,Hook 2 Sisters Limited,,,Unknown,52.478155,0.955565,Norfolk,,,,,,,,,,,,,,,,,,,,,,,,,,,,,,,,,,,,,,,,,,,,,,,,,,,,,,,,,,,,Unknown,Unknown,,,,,,,,,,,,,,,,,,,,,
1084,1084,Somersham Road Poultry Unit,,"Somersham Road Poultry Unit, Somersham Road, St Ives, St. Ives",Cambridgeshire,Cambridgeshire,PE27 3LY,,2020-10-01,Animal Production,Hook 2 Sisters Limited,,,Unknown,52.345986,-0.056972,Cambridgeshire,,,,,,,,,,,,,,,,,,,,,,,,,,,,,,,,,,,,,,,,,,,,,,,,,,,,,,,,,,,,Unknown,Unknown,,,,,,,,,,,,,,,,,,,,,
1239,1239,Bunkers Hill Poultry Unit,,"Bunkers Hill Poultry Unit, Bunkers Hill, New York, Lincoln",Lincolnshire,Lincolnshire,LN4 4YL,,2020-10-01,Animal Production,Moy Park Limited,,,Unknown,53.057962,-0.106271,Lincolnshire,,,,,,,,,,,,,,,,,,,,,,,,,,,,,,,,,,,,,,,,,,,,,,,,,,,,,,,,,,,,Unknown,Unknown,,,,,,,,,,,,,,,,,,,,,
971,971,Reathwaite Poultry Farm,,"Reathwaite Poultry Farm, Westward, Wigton",Cumbria,Cumbria,CA7 8DN,,2020-10-01,Animal Production,Mr Jonathan Pigg And Mr Duncan Pigg,,,Unknown,54.786909,-3.087721,Cumbria,,,,,,,,,,,,,,,,,,,,,,,,,,,,,,,,,,,,,,,,,,,,,,,,,,,,,,,,,,,,Unknown,Unknown,,,,,,,,,,,,,,,,,,,,,
1209,1209,"Ploddy House Farm Poultry Unit, Ploddy House Farm",,"Ploddy House Farm Poultry Unit, Ploddy House Farm, Newent",Gloucestershire,Gloucestershire,GL18 1JK,,2020-10-01,Animal Production,Davison,,,Unknown,51.902554,-2.394373,Gloucestershire,,,,,,,,,,,,,,,,,,,,,,,,,,,,,,,,,,,,,,,,,,,,,,,,,,,,,,,,,,,,Unknown,Unknown,,,,,,,,,,,,,,,,,,,,,
1378,1378,Higher Southcombe Farm,,"Higher Southcombe Farm, Old Sherborne Road, Dorchester",Dorset,Dorset,DT2 7TN,,2020-10-01,Unknown,Allen (hanford) Limited,,,Unknown,50.806766,-2.448947,Dorset,,,,,,,,,,,,,,,,,,,,,,,,,,,,,,,,,,,,,,,,,,,,,,,,,,,,,,,,,,,,Unknown,Unknown,,,,,,,,,,,,,,,,,,,,,
1521,1521,"Lower Cleeve Farm, Poultry Unit",,"Lower Cleeve Farm, Poultry Unit, Hom Green, Ross-on-wye",Herefordshire,Herefordshire,HR9 7TD,,2020-10-01,Animal Production,Mr Jonathan Hay,,,Unknown,51.905092,-2.601988,Herefordshire,,,,,,,,,,,,,,,,,,,,,,,,,,,,,,,,,,,,,,,,,,,,,,,,,,,,,,,,,,,,Unknown,Unknown,,,,,,,,,,,,,,,,,,,,,
241,241,Combe Martin Meats,,"The Abattoir, Rectory Road, Combe Martin",Ilfracombe,Devon,EX34 0NS,,2018-01-01,Meat Slaughter,,,,Unknown,51.194319,-4.019686,Devon,,,,Yes,Yes,Yes,Yes,Yes,Yes,Yes,,,,,Yes,Yes,,,,,Yes,Yes,Yes,Yes,Yes,,,,,,,,,,,,,,,,,,,,,,,,,,,,,,,,,,,Unknown,Unknown,,,,,,,,,,,,,,,,,,,,,
412,412,Kettleby Farm,,"Kettleby Farm, Nottingham Road, Ab Kettleby, Melton",Leicestershire,Leicestershire,LE14 3JA,,2020-10-01,Animal Production,Sunrise Poultry Farms Limited,,,Unknown,52.791841,-0.919394,Leicestershire,,,,,,,,,,,,,,,,,,,,,,,,,,,,,,,,,,,,,,,,,,,,,,,,,,,,,,,,,,,,Unknown,Unknown,,,,,,,,,,,,,,,,,,,,,
9094,9094,Ides Barn,,"Ides Barn, Droke Lane, East Dean, Chichester",West Sussex,West Sussex,PO18 0JH,,2018-01-01,Animal Production,C E Holt & Partners,,,Unknown,50.908478,-0.697954,West Sussex,,,,,,,,,,,,,,,,,,,,,,,,,,,,,,,,,,,,,,,,,,,,,,,,,,,,,,,,,,,,Unknown,Unknown,,,,,,,,,,,,,,,,,,,,,
156,156,Medina Pure Halal UK Ltd,,160-162 Birmingham Road,Oldbury,West Midlands,B69 4EH,,2018-01-01,Meat Slaughter,,,,Unknown,52.502386,-2.002882,West Midlands,,,,Yes,Yes,,,,,,,,,,,,,,,,,,,,,,,,,,,,,,,Yes,Yes,,,,,,,,,,,,,,,,,,,,,,,Unknown,Unknown,,,,,,,,,,,,,,,,,,,,,
6958,6958,Bushton Farm,,"Bushton Farm, Bushton, Clyffe Peppard, Swindon",Wiltshire,Wiltshire,SN4 7PX,,2018-01-01,Animal Production,Gee Jay Farming Ltd,,,Unknown,51.495365,-1.908163,Wiltshire,,,,,,,,,,,,,,,,,,,,,,,,,,,,,,,,,,,,,,,,,,,,,,,,,,,,,,,,,,,,Unknown,Unknown,,,,,,,,,,,,,,,,,,,,,
53,53,A Traves & Son Ltd,,"Meat Wholesalers, Main Street",Escrick,North Yorkshire,YO19 6TP,,2018-01-01,Meat Slaughter,,,,Unknown,53.875776,-1.039936,North Yorkshire,,,,Yes,Yes,Yes,Yes,Yes,Yes,Yes,,,,,Yes,Yes,,,,,Yes,Yes,Yes,Yes,Yes,,,,,,,,,,,,,,,,,,,,,,,,,,,,,,,,,,,Unknown,Unknown,,,,,,,,,,,,,,,,,,,,,
1130,1130,"Grange-de-lings, Grange-de-lings Farm",,"Grange-de-lings, Grange-de-lings Farm, Horncastle Lane, Dunholme",Lincolnshire,Lincolnshire,LN2 2LX,,2020-10-01,Unknown,Elsham Linc Limited,,,Unknown,53.286595,-0.517926,Lincolnshire,,,,,,,,,,,,,,,,,,,,,,,,,,,,,,,,,,,,,,,,,,,,,,,,,,,,,,,,,,,,Unknown,Unknown,,,,,,,,,,,,,,,,,,,,,
80,80,Castlemead Poultry,,"Haywood Farm, Terry Hill",Radstock,Somerset,BA3 5UF,,2018-01-01,Meat Slaughter,,,,Unknown,51.282748,-2.403963,Somerset,,,,Yes,Yes,,,,,,,,,,,,,,,,,,,,,,,,,,,,,,,Yes,Yes,,,,,,,,,,,,,,,,,,,,,,,Unknown,Unknown,,,,,,,,,,,,,,,,,,,,,
946,946,"Potters Farm, Pig Unit",,"Potters Farm, Pig Unit, Old London Road, Ewelme",Oxfordshire,Oxfordshire,OX10 6PX,,2020-10-01,Animal Production,Stockcroft Limited,,,Unknown,51.600879,-1.055768,Oxfordshire,,,,,,,,,,,,,,,,,,,,,,,,,,,,,,,,,,,,,,,,,,,,,,,,,,,,,,,,,,,,Unknown,Unknown,,,,,,,,,,,,,,,,,,,,,
717,717,"Eagle Farm, Poultry Unit",,"Eagle Farm, Poultry Unit, Harby Lane, Eagle Moor",Lincolnshire,Lincolnshire,LN6 9DS,,2020-10-01,Animal Production,Hook 2 Sisters Limited,,,Unknown,53.208873,-0.682649,Lincolnshire,,,,,,,,,,,,,,,,,,,,,,,,,,,,,,,,,,,,,,,,,,,,,,,,,,,,,,,,,,,,Unknown,Unknown,,,,,,,,,,,,,,,,,,,,,
1540,1540,"Brook Street Farm, Rose Lane Poultry Farm",,"Brook Street Farm, Rose Lane Poultry Farm, Brook Street, Wymeswold, Loughborough",Leicestershire,Leicestershire,LE12 6TT,,2020-10-01,Animal Production,Mr Jonathan Hay,,,Unknown,52.8005,-1.094672,Leicestershire,,,,,,,,,,,,,,,,,,,,,,,,,,,,,,,,,,,,,,,,,,,,,,,,,,,,,,,,,,,,Unknown,Unknown,,,,,,,,,,,,,,,,,,,,,
1612,1612,Scutt Mill Farm,,"Scutt Mill Farm, Staunton On Wye, Hereford",Herefordshire,Herefordshire,HR4 7NJ,,2020-10-01,Animal Production,Freemans Of Newent Limited,,,Unknown,52.099514,-2.896323,Herefordshire,,,,,,,,,,,,,,,,,,,,,,,,,,,,,,,,,,,,,,,,,,,,,,,,,,,,,,,,,,,,Unknown,Unknown,,,,,,,,,,,,,,,,,,,,,
19,19,Sandyford Abattoir (Paisley) Ltd,,,Paisley,Renfrewshire,,,2018-01-01,Meat Slaughter,,,,Unknown,55.847258,-4.440114,Renfrewshire,,,,Yes,Yes,Yes,Yes,Yes,Yes,Yes,,,,,,,,,,,Yes,Yes,Yes,Yes,Yes,,,,,,,,,,,,,,,,,,,,,,,,,,,,,,,,,,,Unknown,Unknown,,,,,,,,,,,,,,,,,,,,,
158,158,Gafoor Pure Halal Ltd,,Fletcher Road,Preston,Lancashire,PR1 5AJ,,2018-01-01,Meat Slaughter,,,,Unknown,53.764972,-2.686402,Lancashire,,,,Yes,Yes,,,,,,,,,,,,,,,,,,,,,,,,,,,,,,,Yes,Yes,,,,,,,,,,,,,,,,,,,,,,,Unknown,Unknown,,,,,,,,,,,,,,,,,,,,,
1007,1007,Winkleigh Farm,,"Winkleigh Farm, Airfield, Winkleigh",Devon,Devon,EX19 8EZ,,2020-10-01,Animal Production,Hook 2 Sisters Limited,,,Unknown,50.865394,-3.974479,Devon,,,,,,,,,,,,,,,,,,,,,,,,,,,,,,,,,,,,,,,,,,,,,,,,,,,,,,,,,,,,Unknown,Unknown,,,,,,,,,,,,,,,,,,,,,
788,788,"Barr Farm, Deeping Poultry Unit",,"Barr Farm, Deeping Poultry Unit, Main Road, Deeping St. Nicholas, Spalding",Lincolnshire,Lincolnshire,PE11 3BW,,2020-10-01,Animal Production,Moy Park Limited,,,Unknown,52.742818,-0.187824,Lincolnshire,,,,,,,,,,,,,,,,,,,,,,,,,,,,,,,,,,,,,,,,,,,,,,,,,,,,,,,,,,,,Unknown,Unknown,,,,,,,,,,,,,,,,,,,,,
994,994,"Caenby Cliff Farm, - Danby Pig Unit",,"Caenby Cliff Farm, - Danby Pig Unit, Caenby Corner, Market Rasen",Lincolnshire,Lincolnshire,LN8 2AP,,2020-10-01,Animal Production,Crockway Farms Limited,,,Unknown,53.389984,-0.525015,Lincolnshire,,,,,,,,,,,,,,,,,,,,,,,,,,,,,,,,,,,,,,,,,,,,,,,,,,,,,,,,,,,,Unknown,Unknown,,,,,,,,,,,,,,,,,,,,,
6842,6842,Tolmare Dairy,,"Tolmare Dairy, Findon, Worthing",West Sussex,West Sussex,BN14 0RJ,,2018-01-01,Animal Production,Ashmarden Ltd,,,Unknown,50.870933,-0.419802,West Sussex,,,,,,,,,,,,,,,,,,,,,,,,,,,,,,,,,,,,,,,,,,,,,,,,,,,,,,,,,,,,Unknown,Unknown,,,,,,,,,,,,,,,,,,,,,
12975,12975,Primrose Farm,,"Primrose Farm, Ilkley Road, Riddlesden, Keighley",West Yorkshire,West Yorkshire,BD20 5RE,,2018-01-01,Animal Production,M R Mosley,,,Unknown,53.884578,-1.874656,West Yorkshire,,,,,,,,,,,,,,,,,,,,,,,,,,,,,,,,,,,,,,,,,,,,,,,,,,,,,,,,,,,,Unknown,Unknown,,,,,,,,,,,,,,,,,,,,,
3101,3101,Marsh Farm,,"Marsh Farm, Landulph, Saltash",Cornwall,Cornwall,PL12 6ND,,2018-01-01,Animal Production,Mr M E & Mrs J Best,,,Unknown,50.433317,-4.21269,Cornwall,,,,,,,,,,,,,,,,,,,,,,,,,,,,,,,,,,,,,,,,,,,,,,,,,,,,,,,,,,,,Unknown,Unknown,,,,,,,,,,,,,,,,,,,,,
1703,1703,Fenton Home Farm,,"Fenton Farm, Crundale, Haverfordwest",Dyfed,Pembrokeshire,SA62 4PY,,2020-01-01,Animal Production,Morgan; Morgan,,,Unknown,51.818717,-4.918135,Pembrokeshire,,,,,,,,,,,,,,,,,,,,,,,,,,,,,,,,,,,,,,,,,,,,,,,,,,,,,,,,,,,,Unknown,Unknown,,,,,,,,,,,,,,,,,,,,,
4774,4774,Norton Court Farm,,"Norton Court Farm, Norton, Gloucester",Gloucestershire,Gloucestershire,GL2 9LU,,2018-01-01,Animal Production,F G Smith & Sons,,,Unknown,51.90191,-2.217185,Gloucestershire,,,,,,,,,,,,,,,,,,,,,,,,,,,,,,,,,,,,,,,,,,,,,,,,,,,,,,,,,,,,Unknown,Unknown,,,,,,,,,,,,,,,,,,,,,
92,92,Noble Foods Limited,,Corringham Road,Gainsborough,Lincolnshire,DN21 1QB,,2018-01-01,Meat Slaughter,,,,Unknown,53.402492,-0.746237,Lincolnshire,,,,Yes,Yes,,,,,,,,,,,,,,,,,,,,,,,,,,,,,,,Yes,Yes,,,,,,,,,,,,,,,,,,,,,,,Unknown,Unknown,,,,,,,,,,,,,,,,,,,,,
188,188,Cranswick Country Foods PLC,,"Brandon Road, Watton",Thetford,Norfolk,IP25 6LW,,2018-01-01,Meat Slaughter,,,,Unknown,52.568858,0.806442,Norfolk,,,,Yes,Yes,,,,,,,,,,Yes,Yes,,,,,,,,,,,,,,,,,,,,,,,,,,,,,,,,,,,,,,,,,,,,Unknown,Unknown,,,,,,,,,,,,,,,,,,,,,
1451,1451,"Forest Lodge Farm, 1, Middleton Stoney Farm",,"Forest Lodge Farm, 1, Middleton Stoney Farm, Middleton Park, Middleton Stoney",Oxfordshire,Oxfordshire,OX25 4AJ,,2021-04-01,Animal Production,Brackley Farms Limited,,,Unknown,51.893883,-1.233203,Oxfordshire,,,,,,,,,,,,,,,,,,,,,,,,,,,,,,,,,,,,,,,,,,,,,,,,,,,,,,,,,,,,Unknown,Unknown,,,,,,,,,,,,,,,,,,,,,
1281,1281,Wangfield Poultry Farm,,"Wangfield Poultry Farm, Wangfield Lane, Curdridge",Hampshire,Hampshire,SO32 2DA,,2020-10-01,Animal Production,Vero Poultry Limited,,,Unknown,50.925948,-1.255202,Hampshire,,,,,,,,,,,,,,,,,,,,,,,,,,,,,,,,,,,,,,,,,,,,,,,,,,,,,,,,,,,,Unknown,Unknown,,,,,,,,,,,,,,,,,,,,,
1303,1303,"Great Westwick Farm, Poultry Unit",,"Great Westwick Farm, Poultry Unit, Marshes",Essex,Essex,CM0 8NE,,2020-10-01,Animal Production,Faccenda Foods Limited,,,Unknown,51.63366,0.868364,Essex,,,,,,,,,,,,,,,,,,,,,,,,,,,,,,,,,,,,,,,,,,,,,,,,,,,,,,,,,,,,Unknown,Unknown,,,,,,,,,,,,,,,,,,,,,
447,447,"Sutton St Edmunds Farm, Sutton St Edmunds Poultry Farm",,"Sutton St Edmunds Farm, Sutton St Edmunds Poultry Farm, Chapel Road, Sutton St Edmunds, Spalding",Lincolnshire,Lincolnshire,PE12 0HU,,2020-10-01,Animal Production,Hook 2 Sisters Limited,,,Unknown,52.699884,0.010076,Lincolnshire,,,,,,,,,,,,,,,,,,,,,,,,,,,,,,,,,,,,,,,,,,,,,,,,,,,,,,,,,,,,Unknown,Unknown,,,,,,,,,,,,,,,,,,,,,
517,517,New York Poultry Farm,,"New York Poultry Farm, Boston Lane, New York, Boston",Lincolnshire,Lincolnshire,LN4 4XH,,2020-10-01,Animal Production,Hook 2 Sisters Limited,,,Unknown,53.057488,-0.133155,Lincolnshire,,,,,,,,,,,,,,,,,,,,,,,,,,,,,,,,,,,,,,,,,,,,,,,,,,,,,,,,,,,,Unknown,Unknown,,,,,,,,,,,,,,,,,,,,,
1113,1113,Little Butterwick,,"Little Butterwick, Sedgefield",Cleveland,County Durham,TS21 3ER,,2020-10-01,Animal Production,Hook 2 Sisters Limited,,,Unknown,54.66279,-1.405246,County Durham,,,,,,,,,,,,,,,,,,,,,,,,,,,,,,,,,,,,,,,,,,,,,,,,,,,,,,,,,,,,Unknown,Unknown,,,,,,,,,,,,,,,,,,,,,
933,933,Saltbox Farm,,"Saltbox Farm, Mareham Lane, Sleaford",Lincolnshire,Lincolnshire,NG34 0BL,,2020-10-01,Animal Production,Moy Park Limited,,,Unknown,52.971953,-0.382901,Lincolnshire,,,,,,,,,,,,,,,,,,,,,,,,,,,,,,,,,,,,,,,,,,,,,,,,,,,,,,,,,,,,Unknown,Unknown,,,,,,,,,,,,,,,,,,,,,
1436,1436,"Ms Walker Poultry Unit, Ms Walker Poultry Unit",,"Ms Walker Poultry Unit, Roden Lane, Telford",Shropshire,Cheshire West and Chester,TF6 6BP,,2020-10-01,Animal Production,Walker; Walker; Walker; Walker,,,Unknown,53.23225,-2.654003,Cheshire West and Chester,,,,,,,,,,,,,,,,,,,,,,,,,,,,,,,,,,,,,,,,,,,,,,,,,,,,,,,,,,,,Unknown,Unknown,,,,,,,,,,,,,,,,,,,,,
9301,9301,Redgate Farm,,"Redgate Farm, Thorney Road, Guyhirn, Peterborough",Cambridgeshire,Cambridgeshire,PE13 4AD,,2018-01-01,Animal Production,Jonathan Willis,,,Unknown,52.609005,0.034062,Cambridgeshire,,,,,,,,,,,,,,,,,,,,,,,,,,,,,,,,,,,,,,,,,,,,,,,,,,,,,,,,,,,,Unknown,Unknown,,,,,,,,,,,,,,,,,,,,,
803,803,"Water Tower Site, Stanfield Poultry Unit",,"Water Tower Site, Stanfield Poultry Unit, Stanfield, Dereham",Norfolk,Norfolk,NR20 4HZ,,2020-10-01,Animal Production,Hook 2 Sisters Limited,,,Unknown,52.755639,0.870561,Norfolk,,,,,,,,,,,,,,,,,,,,,,,,,,,,,,,,,,,,,,,,,,,,,,,,,,,,,,,,,,,,Unknown,Unknown,,,,,,,,,,,,,,,,,,,,,
7941,7941,Derimoelion Farm,,"Derimoelion Farm, Dryslwyn, Carmarthen",Carmarthenshire,Carmarthenshire,SA32 8RH,,2018-01-01,Animal Production,D R Evans & Co,,,Unknown,51.872164,-4.114143,Carmarthenshire,,,,,,,,,,,,,,,,,,,,,,,,,,,,,,,,,,,,,,,,,,,,,,,,,,,,,,,,,,,,Unknown,Unknown,,,,,,,,,,,,,,,,,,,,,
508,508,"Mickleholme Farm, Mickleholme Farm Poultry Unit",,"Mickleholme Farm, Mickleholme Farm Poultry Unit, Ermine Street, Appleby, Scunthorpe",North Yorkshire,North Lincolnshire,DN15 0AD,,2020-10-01,Animal Production,Hook 2 Sisters Limited,,,Unknown,53.636413,-0.554854,North Lincolnshire,,,,,,,,,,,,,,,,,,,,,,,,,,,,,,,,,,,,,,,,,,,,,,,,,,,,,,,,,,,,Unknown,Unknown,,,,,,,,,,,,,,,,,,,,,
596,596,"The Old Airfield, Wendling Poultry Unit",,"The Old Airfield, Wendling Poultry Unit, Beston Road",Dereham,Norfolk,NR19 2NG,,2020-10-01,Animal Production,Hook 2 Sisters Limited,,,Unknown,52.698621,0.851863,Norfolk,,,,,,,,,,,,,,,,,,,,,,,,,,,,,,,,,,,,,,,,,,,,,,,,,,,,,,,,,,,,Unknown,Unknown,,,,,,,,,,,,,,,,,,,,,
876,876,"Robin Dam Farm, Ea/",,"Robin Dam Farm, Ea/, /t001, Eakring Road, Bilsthorpe",Nottinghamshire,Nottinghamshire,NG22 8SX,,2020-10-01,Animal Production,Hook 2 Sisters Limited,,,Unknown,53.15186,-1.038395,Nottinghamshire,,,,,,,,,,,,,,,,,,,,,,,,,,,,,,,,,,,,,,,,,,,,,,,,,,,,,,,,,,,,Unknown,Unknown,,,,,,,,,,,,,,,,,,,,,
1188,1188,Overbrook Farm,,"Overbrook Farm, Gorse Lane, Hulland Ward, Ashbourne",Derbyshire,Derbyshire,DE6 3EJ,,2020-10-01,Animal Production,Moy Park Limited,,,Unknown,53.026436,-1.632583,Derbyshire,,,,,,,,,,,,,,,,,,,,,,,,,,,,,,,,,,,,,,,,,,,,,,,,,,,,,,,,,,,,Unknown,Unknown,,,,,,,,,,,,,,,,,,,,,
1298,1298,"Wyberton Farm, Poultry Unit",,"Wyberton Farm, Poultry Unit, Five House Lane, Wyberton, Boston",Lincolnshire,Lincolnshire,PE21 7JA,,2020-10-01,Animal Production,Hook 2 Sisters Limited,,,Unknown,52.960132,-0.056049,Lincolnshire,,,,,,,,,,,,,,,,,,,,,,,,,,,,,,,,,,,,,,,,,,,,,,,,,,,,,,,,,,,,Unknown,Unknown,,,,,,,,,,,,,,,,,,,,,
74,74,Langthorne's Buffalo Produce,,"Crawford Grange, Brompton",Northallerton,North Yorkshire,DL6 2PD,,2018-01-01,Meat Slaughter,,,,Unknown,54.373258,-1.436741,North Yorkshire,,,,Yes,Yes,Yes,Yes,Yes,Yes,Yes,,,,,Yes,Yes,,,,,Yes,Yes,Yes,Yes,Yes,,,,,,,,,Yes,,,,,,,,,,,,,,,,,,,,,,,,,,Unknown,Unknown,,,,,,,,,,,,,,,,,,,,,
138,138,William Taylor & Son (pig Salesmen) Limited,,,Preston,Lancashire,,,2018-01-01,Meat Slaughter,,,,Unknown,53.763201,-2.70309,Lancashire,,,,Yes,Yes,Yes,Yes,Yes,Yes,Yes,,,,,Yes,Yes,,,,,Yes,Yes,Yes,Yes,Yes,,,,,,,,,,,,,,,,,,,,,,,,,,,,,,,,,,,Unknown,Unknown,,,,,,,,,,,,,,,,,,,,,
696,696,"Lawn Farm, Briston Poultry Unit",,"Lawn Farm, Briston Poultry Unit, Norwich Road, Briston, Melton Constable",Norfolk,Norfolk,NR24 2HS,,2020-10-01,Animal Production,Hook 2 Sisters Limited,,,Unknown,52.856013,1.060981,Norfolk,,,,,,,,,,,,,,,,,,,,,,,,,,,,,,,,,,,,,,,,,,,,,,,,,,,,,,,,,,,,Unknown,Unknown,,,,,,,,,,,,,,,,,,,,,
1441,1441,"Lodge Farm Poultry Unit, Ea/",,"Lodge Farm Poultry Unit, Ea/, /a001, Lincoln Lane, Kettlethorpe",Lincoln,Lincolnshire,LN1 2LD,,2020-10-01,Animal Production,Hook 2 Sisters Limited,,,Unknown,53.271961,-0.713255,Lincolnshire,,,,,,,,,,,,,,,,,,,,,,,,,,,,,,,,,,,,,,,,,,,,,,,,,,,,,,,,,,,,Unknown,Unknown,,,,,,,,,,,,,,,,,,,,,
5018,5018,Greville Hall Farm,,"Greville Hall Farm, Cheltenham Road, Hinton On The Green, Evesham",Worcestershire,Worcestershire,WR11 7QX,,2018-01-01,Animal Production,Shanael Farms Ltd,,,Unknown,52.066797,-1.954557,Worcestershire,,,,,,,,,,,,,,,,,,,,,,,,,,,,,,,,,,,,,,,,,,,,,,,,,,,,,,,,,,,,Unknown,Unknown,,,,,,,,,,,,,,,,,,,,,
1475,1475,"Morton Grange, Pigs",,"Morton Grange, Pigs, Morton On Swale, Northallerton",North Yorkshire,North Yorkshire,DL7 9RQ,,2020-10-01,Animal Production,Sanderson; Sanderson; Sanderson,,,Unknown,54.315996,-1.497122,North Yorkshire,,,,,,,,,,,,,,,,,,,,,,,,,,,,,,,,,,,,,,,,,,,,,,,,,,,,,,,,,,,,Unknown,Unknown,,,,,,,,,,,,,,,,,,,,,
51,51,G & A Denney,,Johnscales Farm,Lyth,Cumbria,LA8 8DG,,2018-01-01,Meat Slaughter,,,,Unknown,54.276578,-2.829492,Cumbria,,,,Yes,Yes,Yes,Yes,Yes,Yes,Yes,,,,,Yes,Yes,,,,,Yes,Yes,Yes,Yes,Yes,,,,,,,,,,,,,,,,,,,,,,,,,,,,,,,,,,,Unknown,Unknown,,,,,,,,,,,,,,,,,,,,,
635,635,"Meadow And Scothern Farm Poultry Units, Meadow And Scothern Poultry Units",,"Meadow And Scothern Farm Poultry Units, Meadow And Scothern Poultry Units, Langworth Road, Scothern, Lincoln",Lincolnshire,Lincolnshire,LN2 2UP,,2020-10-01,Animal Production,Moy Park Limited,,,Unknown,53.28482,-0.435323,Lincolnshire,,,,,,,,,,,,,,,,,,,,,,,,,,,,,,,,,,,,,,,,,,,,,,,,,,,,,,,,,,,,Unknown,Unknown,,,,,,,,,,,,,,,,,,,,,
1422,1422,Holland Fen Farm Poultry Unit,,"Holland Fen Farm Poultry Unit, North Forty Foot Bank, Boston",Lincolnshire,Lincolnshire,LN4 4QH,,2020-10-01,Animal Production,Hook 2 Sisters Limited,,,Unknown,53.029811,-0.15732,Lincolnshire,,,,,,,,,,,,,,,,,,,,,,,,,,,,,,,,,,,,,,,,,,,,,,,,,,,,,,,,,,,,Unknown,Unknown,,,,,,,,,,,,,,,,,,,,,
7,7,Western Isles Council (T/A Stornoway Abattoir),,,Stornoway,Na h-Eileanan an Iar,,,2018-01-01,Meat Slaughter,,,,Unknown,58.209435,-6.384869,Na h-Eileanan an Iar,,,,Yes,Yes,Yes,Yes,Yes,Yes,Yes,,,,,Yes,Yes,,,,,Yes,Yes,Yes,Yes,Yes,,,,,,,,,,,,,,,,,,,,,,,,,,,,,,,,,,,Unknown,Unknown,,,,,,,,,,,,,,,,,,,,,
1523,1523,"The Old Airfield, Pickenham Farm",,"The Old Airfield, Pickenham Farm, North Pickenham",Norfolk,Norfolk,PE37 8LL,,2020-10-01,Animal Production,Hook 2 Sisters Limited,,,Unknown,52.628827,0.733806,Norfolk,,,,,,,,,,,,,,,,,,,,,,,,,,,,,,,,,,,,,,,,,,,,,,,,,,,,,,,,,,,,Unknown,Unknown,,,,,,,,,,,,,,,,,,,,,
5133,5133,Lower Shorrock Hey Farm,,"Lower Shorrock Hey Farm, Meins Road, Pleasington, Blackburn",Lancashire,Blackburn with Darwen,BB2 6QU,,2018-01-01,Animal Production,Lower Shorrock Hey Farms Ltd,,,Unknown,53.75121,-2.541547,Blackburn with Darwen,,,,,,,,,,,,,,,,,,,,,,,,,,,,,,,,,,,,,,,,,,,,,,,,,,,,,,,,,,,,Unknown,Unknown,,,,,,,,,,,,,,,,,,,,,
688,688,Vine Farm Poultry Unit,,"Vine Farm Poultry Unit, Edworth Road, Langford",Biggleswade,Central Bedfordshire,SG18 9TA,,2020-10-01,Animal Production,A E & W A Farr Limited,,,Unknown,52.03518,-0.238892,Central Bedfordshire,,,,,,,,,,,,,,,,,,,,,,,,,,,,,,,,,,,,,,,,,,,,,,,,,,,,,,,,,,,,Unknown,Unknown,,,,,,,,,,,,,,,,,,,,,
